timestamp,timestamp_sample,control[0],control[1],control[2],control[3],control[4],control[5],control[6],control[7]
327015523,327015063,0.0,0.0,1.0,0.0,0.5,0.0,0.0,0.0
327069540,327068999,0.0,0.0,1.0,0.0,0.5,0.0,0.0,0.0
327091064,327090479,0.0,0.0,1.0,0.0,0.5,0.0,0.0,0.0
327175105,327174518,0.0,0.0,1.0,0.0,0.5,0.0,0.0,0.0
327195053,327194528,0.0,0.0,1.0,0.0,0.5,0.0,0.0,0.0
327215021,327214497,0.0,0.0,1.0,0.0,0.5,0.0,0.0,0.0
327235992,327235256,0.0,0.0,1.0,0.0,0.5,0.0,0.0,0.0
327259922,327259375,0.0,0.0,1.0,0.0,0.5,0.0,0.0,0.0
327279905,327279372,0.0,0.0,1.0,0.0,0.5,0.0,0.0,0.0
327299071,327298526,0.0,0.0,1.0,0.0,0.5,0.0,0.0,0.0
327319042,327318463,0.0,0.0,1.0,0.0,0.5,0.0,0.0,0.0
327343037,327342539,0.0,0.0,1.0,0.0,0.5,0.0,0.0,0.0
327367002,327366495,0.0,0.0,1.0,0.0,0.5,0.0,0.0,0.0
327387881,327387367,0.0,0.0,1.0,0.0,0.5,0.0,0.0,0.0
327408677,327408185,0.0,0.0,1.0,0.0,0.5,0.0,0.0,0.0
327429254,327428746,0.0,0.0,1.0,0.0,0.5,0.0,0.0,0.0
327448633,327448096,0.0,0.0,1.0,0.0,0.5,0.0,0.0,0.0
327468681,327468141,0.0,0.0,1.0,0.0,0.5,0.0,0.0,0.0
327492753,327492200,0.0,0.0,1.0,0.0,0.5,0.0,0.0,0.0
327512738,327512178,0.0,0.0,1.0,0.0,0.5,0.0,0.0,0.0
327532770,327532200,0.0,0.0,1.0,0.0,0.5,0.0,0.0,0.0
327556687,327556189,0.0,0.0,1.0,0.0,0.5,0.0,0.0,0.0
327576650,327576167,0.0,0.0,1.0,0.0,0.5,0.0,0.0,0.0
327597100,327596598,0.0,0.0,1.0,0.0,0.5,0.0,0.0,0.0
327617409,327616665,0.0,0.0,1.0,0.0,0.5,0.0,0.0,0.0
327640810,327640297,0.0,0.0,1.0,0.0,0.5,0.0,0.0,0.0
327656646,327656124,0.0,0.0,1.0,0.0,0.5,0.0,0.0,0.0
327681782,327681217,0.0,0.0,1.0,0.0,0.5,0.0,0.0,0.0
327700654,327700156,0.0,0.0,1.0,0.0,0.5,0.0,0.0,0.0
327724713,327724236,0.0,0.0,1.0,0.0,0.5,0.0,0.0,0.0
327744646,327744143,0.0,0.0,1.0,0.0,0.5,0.0,0.0,0.0
327764667,327764165,0.0,0.0,1.0,0.0,0.5,0.0,0.0,0.0
327784657,327784136,0.0,0.0,1.0,0.0,0.5,0.0,0.0,0.0
327808670,327808145,0.0,0.0,1.0,0.0,0.5,0.0,0.0,0.0
327828655,327828155,0.0,0.0,1.0,0.0,0.5,0.0,0.0,0.0
327850345,327849757,0.0,0.0,1.0,0.0,0.5,0.0,0.0,0.0
327871229,327870465,0.0,0.0,1.0,0.0,0.5,0.0,0.0,0.0
327891387,327890648,0.0,0.0,1.0,0.0,0.5,0.0,0.0,0.0
327910266,327909691,0.0,0.0,1.0,0.0,0.5,0.0,0.0,0.0
327934250,327933708,0.0,0.0,1.0,0.0,0.5,0.0,0.0,0.0
327959108,327958568,0.0,0.0,1.0,0.0,0.5,0.0,0.0,0.0
327978394,327977824,0.0,0.0,0.995784,0.0,0.5,0.0,0.0,0.0
327998324,327997748,0.0,0.0,0.958393,0.0,0.5,0.0,0.0,0.0
328022441,328021824,0.0,0.0,0.866566,0.0,0.5,0.0,0.0,0.0
328043186,328042672,0.0,0.0,0.866566,0.0,0.5,0.0,0.0,0.0
328063184,328062665,0.0,0.0,0.751846,0.0,0.5,0.0,0.0,0.0
328083542,328082745,0.0,0.0,0.641434,0.0,0.5,0.0,0.0,0.0
328102322,328101758,0.0,0.0,0.506321,0.0,0.5,0.0,0.0,0.0
328126627,328126108,0.0,0.0,0.334256,0.0,0.5,0.0,0.0,0.0
328146869,328146417,0.0,0.0,0.175295,0.0,0.5,0.0,0.0,0.0
328167260,328166433,0.0,0.0,0.0625602,0.0,0.5,0.0,0.0,0.0
328190824,328190342,0.0,0.0,0.00143939,0.0,0.5,0.0,0.0,0.0
328211258,328210536,0.0,0.0,-0.0117184,0.0,0.5,0.0,0.0,0.0
328230714,328230185,0.0,0.0,-0.00461211,0.0,0.5,0.0,0.0,0.0
328250272,328249752,0.0,0.0,0.00059034,0.0,0.5,0.0,0.0,0.0
328274224,328273714,0.0,0.0,0.00112127,0.0,0.5,0.0,0.0,0.0
328295859,328295362,0.0,0.0,0.000298742,0.0,0.5,0.0,0.0,0.0
328315896,328315374,0.0,0.0,-0.000109169,0.0,0.5,0.0,0.0,0.0
328335901,328335387,0.0,0.0,-0.000109169,0.0,0.5,0.0,0.0,0.0
328356011,328355521,0.0,0.0,-9.88393e-05,0.0,0.5,0.0,0.0,0.0
328379914,328379394,0.0,0.0,-1.51468e-05,0.0,0.5,0.0,0.0,0.0
328399833,328399353,0.0,0.0,1.37571e-05,0.0,0.5,0.0,0.0,0.0
328419885,328419368,0.0,0.0,8.04962e-06,0.0,0.5,0.0,0.0,0.0
328440924,328440404,0.0,0.0,2.80692e-07,0.0,0.5,0.0,0.0,0.0
328463061,328462529,0.0,0.0,-1.47252e-06,0.0,0.5,0.0,0.0,0.0
328480679,328480177,0.0,0.0,-5.991e-07,0.0,0.5,0.0,0.0,0.0
328508654,328508118,0.0,0.0,6.69586e-08,0.0,0.5,0.0,0.0,0.0
328528671,328528128,0.0,0.0,1.42056e-07,0.0,0.5,0.0,0.0,0.0
328549134,328548692,0.0,0.0,3.93821e-08,0.0,0.5,0.0,0.0,0.0
328569307,328568659,0.0,0.0,-1.32641e-08,0.0,0.5,0.0,0.0,0.0
328592712,328592126,0.0,0.0,-1.26131e-08,0.0,0.5,0.0,0.0,0.0
328614305,328613789,0.0,0.0,-2.06356e-09,0.0,0.5,0.0,0.0,0.0
328634265,328633773,0.0,0.0,1.7073e-09,0.0,0.5,0.0,0.0,0.0
328655088,328654585,0.0,0.0,1.03497e-09,0.0,0.5,0.0,0.0,0.0
328675449,328674869,0.0,0.0,4.81339e-11,0.0,0.5,0.0,0.0,0.0
328694221,328693730,0.0,0.0,4.81339e-11,0.0,0.5,0.0,0.0,0.0
328722356,328721778,0.0,0.0,-7.77423e-11,0.0,0.5,0.0,0.0,0.0
328742407,328741845,0.0,0.0,7.47383e-12,0.0,0.5,0.0,0.0,0.0
328762327,328761800,0.0,0.0,1.79849e-11,0.0,0.5,0.0,0.0,0.0
328783308,328782648,0.0,0.0,1.79849e-11,0.0,0.5,0.0,0.0,0.0
328802335,328801806,0.0,0.0,5.18243e-12,0.0,0.5,0.0,0.0,0.0
328827089,328826530,0.0,0.0,-1.60668e-12,0.0,0.5,0.0,0.0,0.0
328846723,328846225,0.0,0.0,-1.60852e-12,0.0,0.5,0.0,0.0,0.0
328868350,328867591,0.0,0.0,-2.79776e-13,0.0,0.5,0.0,0.0,0.0
328886370,328885849,0.0,0.0,2.11588e-13,0.0,0.5,0.0,0.0,0.0
328910248,328909763,0.0,0.0,1.32972e-13,0.0,0.5,0.0,0.0,0.0
328930222,328929750,0.0,0.0,7.70459e-15,0.0,0.5,0.0,0.0,0.0
328950278,328949791,0.0,0.0,-2.3191e-14,0.0,0.5,0.0,0.0,0.0
328974260,328973742,0.0,0.0,-1.00784e-14,0.0,0.5,0.0,0.0,0.0
328994302,328993766,0.0,0.0,8.16921e-16,0.0,0.5,0.0,0.0,0.0
329014328,329013811,0.0,0.0,2.27538e-15,0.0,0.5,0.0,0.0,0.0
329034352,329033829,0.0,0.0,2.27538e-15,0.0,0.5,0.0,0.0,0.0
329056016,329055453,0.0,0.0,6.80848e-16,0.0,0.5,0.0,0.0,0.0
329079897,329079308,0.0,0.0,-1.93963e-16,0.0,0.5,0.0,0.0,0.0
329099821,329099302,0.0,0.0,-2.04995e-16,0.0,0.5,0.0,0.0,0.0
329119932,329119352,0.0,0.0,-3.77704e-17,0.0,0.5,0.0,0.0,0.0
329140066,329139512,0.0,0.0,2.61841e-17,0.0,0.5,0.0,0.0,0.0
329163868,329163302,0.0,0.0,1.70718e-17,0.0,0.5,0.0,0.0,0.0
329183858,329183299,0.0,0.0,1.18123e-18,0.0,0.5,0.0,0.0,0.0
329204354,329203877,0.0,0.0,-2.90643e-18,0.0,0.5,0.0,0.0,0.0
329225203,329224716,0.0,0.0,-1.30531e-18,0.0,0.5,0.0,0.0,0.0
329243904,329243337,0.0,0.0,8.67776e-20,0.0,0.5,0.0,0.0,0.0
329267899,329267345,0.0,0.0,2.87666e-19,0.0,0.5,0.0,0.0,0.0
329295879,329295361,0.0,0.0,8.93081e-20,0.0,0.5,0.0,0.0,0.0
329315844,329315326,0.0,0.0,-2.33278e-20,0.0,0.5,0.0,0.0,0.0
329336980,329336445,0.0,0.0,-2.61082e-20,0.0,0.5,0.0,0.0,0.0
329355914,329355356,0.0,0.0,-5.07974e-21,0.0,0.5,0.0,0.0,0.0
329383985,329383454,0.0,0.0,3.23529e-21,0.0,0.5,0.0,0.0,0.0
329404897,329404365,0.0,0.0,2.19022e-21,0.0,0.5,0.0,0.0,0.0
329424942,329424460,0.0,0.0,1.75825e-22,0.0,0.5,0.0,0.0,0.0
329445416,329444630,0.0,0.0,-3.63907e-22,0.0,0.5,0.0,0.0,0.0
329463912,329463412,0.0,0.0,-1.68903e-22,0.0,0.5,0.0,0.0,0.0
329491900,329491341,0.0,0.0,8.84449e-24,0.0,0.5,0.0,0.0,0.0
329513569,329513006,0.0,0.0,3.63422e-23,0.0,0.5,0.0,0.0,0.0
329533485,329532919,0.0,0.0,1.16975e-23,0.0,0.5,0.0,0.0,0.0
329554517,329553951,0.0,0.0,1.16975e-23,0.0,0.5,0.0,0.0,0.0
329574360,329573644,0.0,0.0,-2.79381e-24,0.0,0.5,0.0,0.0,0.0
329593838,329593418,0.0,0.0,-3.32295e-24,0.0,0.5,0.0,0.0,0.0
329617426,329616900,0.0,0.0,-6.80848e-25,0.0,0.5,0.0,0.0,0.0
329637519,329636941,0.0,0.0,3.99094e-25,0.0,0.5,0.0,0.0,0.0
329657679,329656906,0.0,0.0,2.80797e-25,0.0,0.5,0.0,0.0,0.0
329681476,329680887,0.0,0.0,2.56132e-26,0.0,0.5,0.0,0.0,0.0
329702597,329701999,0.0,0.0,-4.55196e-26,0.0,0.5,0.0,0.0,0.0
329721971,329721443,0.0,0.0,-2.18362e-26,0.0,0.5,0.0,0.0,0.0
329742414,329741561,0.0,0.0,8.4438e-28,0.0,0.5,0.0,0.0,0.0
329761475,329760900,0.0,0.0,4.58789e-27,0.0,0.5,0.0,0.0,0.0
329790271,329789734,0.0,0.0,1.53001e-27,0.0,0.5,0.0,0.0,0.0
329810467,329809924,0.0,0.0,-3.33002e-28,0.0,0.5,0.0,0.0,0.0
329829570,329829011,0.0,0.0,-4.22653e-28,0.0,0.5,0.0,0.0,0.0
329849488,329848913,0.0,0.0,-9.09749e-29,0.0,0.5,0.0,0.0,0.0
329873519,329872968,0.0,0.0,4.91444e-29,0.0,0.5,0.0,0.0,0.0
329893502,329892964,0.0,0.0,3.59745e-29,0.0,0.5,0.0,0.0,0.0
329913599,329913050,0.0,0.0,3.59745e-29,0.0,0.5,0.0,0.0,0.0
329933496,329932959,0.0,0.0,-5.68809e-30,0.0,0.5,0.0,0.0,0.0
329957415,329956887,0.0,0.0,-2.82061e-30,0.0,0.5,0.0,0.0,0.0
329979099,329978601,0.0,0.0,7.15258e-32,0.0,0.5,0.0,0.0,0.0
329999189,329998672,0.0,0.0,5.78751e-31,0.0,0.5,0.0,0.0,0.0
330019088,330018555,0.0,0.0,1.99858e-31,0.0,0.5,0.0,0.0,0.0
330039296,330038559,0.0,0.0,-3.94754e-32,0.0,0.5,0.0,0.0,0.0
330063401,330062851,0.0,0.0,-5.37226e-32,0.0,0.5,0.0,0.0,0.0
330083133,330082604,0.0,0.0,-5.37226e-32,0.0,0.5,0.0,0.0,0.0
330103212,330102689,0.0,0.0,-1.21221e-32,0.0,0.5,0.0,0.0,0.0
330124173,330123429,0.0,0.0,6.0403e-33,0.0,0.5,0.0,0.0,0.0
330147063,330146515,0.0,0.0,4.60575e-33,0.0,0.5,0.0,0.0,0.0
330167519,330166991,0.0,0.0,5.19163e-34,0.0,0.5,0.0,0.0,0.0
330187501,330186995,0.0,0.0,-7.10032e-34,0.0,0.5,0.0,0.0,0.0
330207217,330206512,0.0,0.0,-3.64037e-34,0.0,0.5,0.0,0.0,0.0
330227512,330227006,0.0,0.0,4.51402e-36,0.0,0.5,0.0,0.0,0.0
330255876,330255369,0.0,0.0,7.29522e-35,0.0,0.5,0.0,0.0,0.0
330276765,330276205,0.0,0.0,2.60739e-35,0.0,0.5,0.0,0.0,0.0
330295051,330294551,0.0,0.0,-4.65016e-36,0.0,0.5,0.0,0.0,0.0
330315018,330314523,0.0,0.0,-6.82404e-36,0.0,0.5,0.0,0.0,0.0
330339212,330338692,0.0,0.0,-1.61109e-36,0.0,0.5,0.0,0.0,0.0
330363903,330363398,0.0,0.0,7.40911e-37,0.0,0.5,0.0,0.0,0.0
330383091,330382562,0.0,0.0,5.89264e-37,0.0,0.5,0.0,0.0,0.0
330403456,330402590,0.0,0.0,7.26672e-38,0.0,0.5,0.0,0.0,0.0
330423872,330423327,0.0,0.0,-8.85347e-38,0.0,0.5,0.0,0.0,0.0
330444828,330444242,0.0,0.0,-4.69454e-38,0.0,0.5,0.0,0.0,0.0
330468643,330468106,0.0,0.0,-1.11039e-41,0.0,0.5,0.0,0.0,0.0
330488661,330488147,0.0,0.0,9.18854e-39,0.0,0.5,0.0,0.0,0.0
330509200,330508647,0.0,0.0,3.39759e-39,0.0,0.5,0.0,0.0,0.0
330529721,330528974,0.0,0.0,3.39759e-39,0.0,0.5,0.0,0.0,0.0
330553175,330552661,0.0,0.0,-5.43758e-40,0.0,0.5,0.0,0.0,0.0
330572670,330572155,0.0,0.0,-8.66234e-40,0.0,0.5,0.0,0.0,0.0
330593931,330593212,0.0,0.0,-2.13621e-40,0.0,0.5,0.0,0.0,0.0
330613972,330613083,0.0,0.0,9.06822e-41,0.0,0.5,0.0,0.0,0.0
330632750,330632183,0.0,0.0,7.53408e-41,0.0,0.5,0.0,0.0,0.0
330657723,330657244,0.0,0.0,1.00823e-41,0.0,0.5,0.0,0.0,0.0
330676725,330676168,0.0,0.0,-1.10254e-41,0.0,0.5,0.0,0.0,0.0
330696774,330696195,0.0,0.0,-6.05081e-42,0.0,0.5,0.0,0.0,0.0
330720783,330720275,0.0,0.0,-7.56701e-44,0.0,0.5,0.0,0.0,0.0
330740625,330740162,0.0,0.0,-7.56701e-44,0.0,0.5,0.0,0.0,0.0
330761642,330761119,0.0,0.0,1.15607e-42,0.0,0.5,0.0,0.0,0.0
330780605,330780133,0.0,0.0,4.4281e-43,0.0,0.5,0.0,0.0,0.0
330805149,330804620,0.0,0.0,-6.16571e-44,0.0,0.5,0.0,0.0,0.0
330825143,330824628,0.0,0.0,-1.09301e-43,0.0,0.5,0.0,0.0,0.0
330845622,330845142,0.0,0.0,-2.66247e-44,0.0,0.5,0.0,0.0,0.0
330866036,330865258,0.0,0.0,1.12104e-44,0.0,0.5,0.0,0.0,0.0
330885922,330885410,0.0,0.0,9.80909e-45,0.0,0.5,0.0,0.0,0.0
330910281,330909713,0.0,0.0,2.8026e-45,0.0,0.5,0.0,0.0,0.0
330930277,330929745,0.0,0.0,-1.4013e-45,0.0,0.5,0.0,0.0,0.0
330950666,330950191,0.0,0.0,0.0,0.0,0.5,0.0,0.0,0.0
330971140,330970583,0.0,0.0,0.0,0.0,0.5,0.0,0.0,0.0
330994332,330993805,0.0,0.0,0.0,0.0,0.5,0.0,0.0,0.0
331014367,331013833,0.0,0.0,0.0,0.0,0.5,0.0,0.0,0.0
331034401,331033859,0.0,0.0,0.0,0.0,0.5,0.0,0.0,0.0
331055859,331055297,0.0,0.0,0.0,0.0,0.5,0.0,0.0,0.0
331078353,331077816,0.0,0.0,0.0,0.0,0.5,0.0,0.0,0.0
331098342,331097815,0.0,0.0,0.0,0.0,0.5,0.0,0.0,0.0
331118713,331118275,0.0,0.0,0.0,0.0,0.5,0.0,0.0,0.0
331139115,331138565,0.0,0.0,0.0,0.0,0.5,0.0,0.0,0.0
331158361,331157839,0.0,0.0,0.0,0.0,0.5,0.0,0.0,0.0
331186643,331186214,0.0,0.0,0.0,0.0,0.5,0.0,0.0,0.0
331207061,331206487,0.0,0.0,0.0,0.0,0.5,0.0,0.0,0.0
331226301,331225731,0.0,0.0,0.0,0.0,0.5,0.0,0.0,0.0
331247813,331247294,0.0,0.0,0.0,0.0,0.5,0.0,0.0,0.0
331268195,331267601,0.0,0.0,0.0,0.0,0.5,0.0,0.0,0.0
331287893,331287336,0.0,0.0,0.0,0.0,0.5,0.0,0.0,0.0
331312784,331312210,0.0,0.0,0.0,0.0,0.5,0.0,0.0,0.0
331331853,331331284,0.0,0.0,0.0,0.0,0.5,0.0,0.0,0.0
331352703,331352190,0.0,0.0,0.0,0.00166927,0.5,0.0,0.0,0.0
331373679,331373157,0.0,0.0,0.0,0.00771124,0.5,0.0,0.0,0.0
331392676,331392137,0.0,0.0,0.0,0.019424,0.5,0.0,0.0,0.0
331417173,331416667,0.0,0.0,0.0,0.0344626,0.5,0.0,0.0,0.0
331437528,331437014,0.0,0.0,0.0,0.0473246,0.5,0.0,0.0,0.0
331456953,331456402,0.0,0.0,0.0,0.0595655,0.5,0.0,0.0,0.0
331476682,331476152,0.0,0.0,0.0,0.0595655,0.5,0.0,0.0,0.0
331500646,331500172,0.0,0.0,0.0,0.0772197,0.5,0.0,0.0,0.0
331520587,331520126,0.0,0.0,0.0,0.0963699,0.5,0.0,0.0,0.0
331541090,331540594,0.0,0.0,0.0,0.110214,0.5,0.0,0.0,0.0
331561934,331561070,0.0,0.0,0.0,0.124099,0.5,0.0,0.0,0.0
331584676,331584176,0.0,0.0,0.0,0.143838,0.5,0.0,0.0,0.0
331605095,331604618,0.0,0.0,0.0,0.163228,0.5,0.0,0.0,0.0
331624978,331624487,0.0,0.0,0.0,0.178838,0.5,0.0,0.0,0.0
331646485,331645981,0.0,0.0,0.0,0.196877,0.5,0.0,0.0,0.0
331666279,331665696,0.0,0.0,0.0,0.219056,0.5,0.0,0.0,0.0
331690222,331689699,0.0,0.0,0.0,0.236866,0.5,0.0,0.0,0.0
331710255,331709730,0.0,0.0,0.0,0.247659,0.5,0.0,0.0,0.0
331730242,331729708,0.0,0.0,0.0,0.257758,0.5,0.0,0.0,0.0
331750355,331749826,0.0,0.0,0.0,0.273148,0.5,0.0,0.0,0.0
331774350,331773759,0.0,0.0,0.0,0.295637,0.5,0.0,0.0,0.0
331794304,331793716,0.0,0.0,0.0,0.318669,0.5,0.0,0.0,0.0
331814283,331813707,0.0,0.0,0.0,0.337174,0.5,0.0,0.0,0.0
331834290,331833679,0.0,0.0,0.0,0.356821,0.5,0.0,0.0,0.0
331858246,331857700,0.0,0.0,0.0,0.381114,0.5,0.0,0.0,0.0
331878234,331877711,0.0,0.0,0.0,0.402311,0.5,0.0,0.0,0.0
331898228,331897696,0.0,0.0,0.0,0.416237,0.5,0.0,0.0,0.0
331919003,331918248,0.0,0.0,0.0,0.428083,0.5,0.0,0.0,0.0
331942810,331942332,0.0,0.0,0.0,0.443713,0.5,0.0,0.0,0.0
331962747,331962252,0.0,0.0,0.0,0.443713,0.5,0.0,0.0,0.0
331982717,331982221,0.0,0.0,0.0,0.460941,0.5,0.0,0.0,0.0
332003207,332002389,0.0,0.0,0.0,0.472384,0.5,0.0,0.0,0.0
332026714,332026241,0.0,0.0,0.0,0.478664,0.5,0.0,0.0,0.0
332047102,332046517,0.0,0.0,0.0,0.486882,0.5,0.0,0.0,0.0
332066246,332065735,0.0,0.0,0.0,0.498913,0.5,0.0,0.0,0.0
332087068,332086538,0.0,0.0,0.0,0.510305,0.5,0.0,0.0,0.0
332108076,332107511,0.0,0.0,0.0,0.520087,0.5,0.0,0.0,0.0
332127896,332127323,0.0,0.0,0.0,0.532948,0.5,0.0,0.0,0.0
332151868,332151289,0.0,0.0,0.0,0.549765,0.5,0.0,0.0,0.0
332175861,332175345,0.0,0.0,0.0,0.564311,0.5,0.0,0.0,0.0
332195902,332195384,0.0,0.0,0.0,0.575157,0.5,0.0,0.0,0.0
332215898,332215370,0.0,0.0,0.0,0.588836,0.5,0.0,0.0,0.0
332239870,332239341,0.0,0.0,0.0,0.605956,0.5,0.0,0.0,0.0
332259894,332259415,0.0,0.0,0.0,0.620454,0.5,0.0,0.0,0.0
332279902,332279372,0.0,0.0,0.0,0.63164,0.5,0.0,0.0,0.0
332300803,332300085,0.0,0.0,0.0,0.646914,0.5,0.0,0.0,0.0
332323886,332323369,0.0,0.0,0.0,0.669982,0.5,0.0,0.0,0.0
332344344,332343863,0.0,0.0,0.0,0.692,0.5,0.0,0.0,0.0
332364068,332363514,0.0,0.0,0.0,0.708138,0.5,0.0,0.0,0.0
332384185,332383411,0.0,0.0,0.0,0.72231,0.5,0.0,0.0,0.0
332407899,332407382,0.0,0.0,0.0,0.735445,0.5,0.0,0.0,0.0
332428514,332427985,0.0,0.0,0.0,0.735445,0.5,0.0,0.0,0.0
332448291,332447793,0.0,0.0,0.0,0.74754,0.5,0.0,0.0,0.0
332469878,332469203,0.0,0.0,0.0,0.757575,0.5,0.0,0.0,0.0
332487785,332487295,0.0,0.0,0.0,0.763922,0.5,0.0,0.0,0.0
332511895,332511337,0.0,0.0,0.0,0.773275,0.5,0.0,0.0,0.0
332531945,332531372,0.0,0.0,0.0,0.791555,0.5,0.0,0.0,0.0
332553484,332552930,0.0,0.0,0.0,0.809416,0.5,0.0,0.0,0.0
332593520,332592965,0.0,0.0,0.0,0.821186,0.5,0.0,0.0,0.0
332617455,332616915,0.0,0.0,0.0,0.82282,0.5,0.0,0.0,0.0
332638410,332637855,0.0,0.0,0.0,0.824524,0.5,0.0,0.0,0.0
332657515,332656992,0.0,0.0,0.0,0.82546,0.5,0.0,0.0,0.0
332677498,332676988,0.0,0.0,0.0,0.825472,0.5,0.0,0.0,0.0
332705857,332705340,0.0,0.0,0.0,0.82425,0.5,0.0,0.0,0.0
332726047,332725595,0.0,0.0,0.0,0.819831,0.5,0.0,0.0,0.0
332745914,332745458,0.0,0.0,0.0,0.810717,0.5,0.0,0.0,0.0
332766249,332765458,0.0,0.0,0.0,0.797573,0.5,0.0,0.0,0.0
332785461,332784902,0.0,0.0,0.0,0.797573,0.5,0.0,0.0,0.0
332809510,332808925,0.0,0.0,0.0,0.748093,0.5,0.0,0.0,0.0
332829600,332828985,0.0,0.0,0.0,0.748093,0.5,0.0,0.0,0.0
332849471,332848895,0.0,0.0,0.0,0.717432,0.5,0.0,0.0,0.0
332873411,332872893,0.0,0.0,0.0,0.688261,0.5,0.0,0.0,0.0
332893443,332892931,0.0,0.0,0.0,0.64843,0.5,0.0,0.0,0.0
332913448,332912932,0.0,0.0,0.0,0.59331,0.5,0.0,0.0,0.0
332933796,332933053,0.0,0.0,0.0,0.539844,0.5,0.0,0.0,0.0
332957451,332956891,0.0,0.0,0.0,0.498747,0.5,0.0,0.0,0.0
332977873,332977437,0.0,0.0,0.0,0.463775,0.5,0.0,0.0,0.0
332999109,332998547,0.0,0.0,0.0,0.428226,0.5,0.0,0.0,0.0
333019765,333019223,0.0,0.0,0.0,0.382501,0.5,0.0,0.0,0.0
333039600,333039109,0.0,0.0,0.0,0.326452,0.5,0.0,0.0,0.0
333059028,333058501,0.0,0.0,0.0,0.279222,0.5,0.0,0.0,0.0
333083154,333082620,0.0,0.0,0.0,0.247914,0.5,0.0,0.0,0.0
333103081,333102593,0.0,0.0,0.0,0.218677,0.5,0.0,0.0,0.0
333123087,333122588,0.0,0.0,0.0,0.181661,0.5,0.0,0.0,0.0
333143262,333142678,0.0,0.0,0.0,0.143661,0.5,0.0,0.0,0.0
333167039,333166522,0.0,0.0,0.0,0.112663,0.5,0.0,0.0,0.0
333187026,333186507,0.0,0.0,0.0,0.0900787,0.5,0.0,0.0,0.0
333207103,333206572,0.0,0.0,0.0,0.0704844,0.5,0.0,0.0,0.0
333228315,333227556,0.0,0.0,0.0,0.0434618,0.5,0.0,0.0,0.0
333247003,333246484,0.0,0.0,0.0,0.0434618,0.5,0.0,0.0,0.0
333271043,333270543,0.0,0.0,0.0,0.0147779,0.5,0.0,0.0,0.0
333291014,333290533,0.0,0.0,0.0,0.0,0.5,0.0,0.0,0.0
333312300,333311463,0.0,0.0,0.0,0.0,0.5,0.0,0.0,0.0
333335555,333335035,0.0,0.0,0.0,0.0,0.5,0.0,0.0,0.0
333355065,333354556,0.0,0.0,0.0,0.000262278,0.5,0.0,0.0,0.0
333375095,333374583,0.0,0.0,0.0,0.000295131,0.5,0.0,0.0,0.0
333395014,333394507,0.0,0.0,0.0,5.77008e-05,0.5,0.0,0.0,0.0
333419017,333418542,0.0,0.0,0.0,0.0,0.5,0.0,0.0,0.0
333439112,333438640,0.0,0.0,0.0,0.0,0.5,0.0,0.0,0.0
333460688,333460122,0.0,0.0,0.0,0.0,0.5,0.0,0.0,0.0
333480637,333480117,0.0,0.0,0.0,4.10719e-06,0.5,0.0,0.0,0.0
333500827,333500091,0.0,0.0,0.0,1.91206e-06,0.5,0.0,0.0,0.0
333524733,333524149,0.0,0.0,0.0,0.0,0.5,0.0,0.0,0.0
333545460,333544865,0.0,0.0,0.0,0.0,0.5,0.0,0.0,0.0
333565409,333564826,0.0,0.0,0.0,0.0,0.5,0.0,0.0,0.0
333585397,333584609,0.0,0.0,0.0,0.0,0.5,0.0,0.0,0.0
333605142,333604632,0.0,0.00126473,0.0,3.13983e-08,0.5,0.0,0.0,0.0
333633149,333632678,0.0,0.0232324,0.0,3.75608e-08,0.5,0.0,0.0,0.0
333653146,333652682,0.0,0.0837994,0.0,7.73148e-09,0.5,0.0,0.0,0.0
333674575,333673999,0.0,0.164272,0.0,0.0,0.5,0.0,0.0,0.0
333692711,333692111,0.0,0.24918,0.0,0.0,0.5,0.0,0.0,0.0
333716999,333716473,0.0,0.347848,0.0,0.0,0.5,0.0,0.0,0.0
333736877,333736131,0.0,0.483616,0.0,5.13704e-10,0.5,0.0,0.0,0.0
333756863,333756141,0.0,0.644731,0.0,2.47176e-10,0.5,0.0,0.0,0.0
333776923,333776191,0.0,0.757361,0.0,0.0,0.5,0.0,0.0,0.0
333800594,333800077,0.0,0.790618,0.0,0.0,0.5,0.0,0.0,0.0
333821301,333820816,0.0,0.784647,0.0,0.0,0.5,0.0,0.0,0.0
333841430,333840853,0.0,0.775928,0.0,3.7407e-12,0.5,0.0,0.0,0.0
333860661,333860117,0.0,0.758277,0.0,4.77716e-12,0.5,0.0,0.0,0.0
333885127,333884684,0.0,0.649754,0.0,1.0328e-12,0.5,0.0,0.0,0.0
333905918,333905441,0.0,0.406958,0.0,0.0,0.5,0.0,0.0,0.0
333926751,333926283,0.0,0.148358,0.0,0.0,0.5,0.0,0.0,0.0
333946857,333946342,0.0,0.148358,0.0,0.0,0.5,0.0,0.0,0.0
333966899,333966438,0.0,-0.00420926,0.0,0.0,0.5,0.0,0.0,0.0
333986305,333985748,0.0,-0.0643323,0.0,6.4186e-14,0.5,0.0,0.0,0.0
334010689,334010196,0.0,-0.126234,0.0,3.19255e-14,0.5,0.0,0.0,0.0
334030894,334030430,0.0,-0.229239,0.0,0.0,0.5,0.0,0.0,0.0
334052731,334052133,0.0,-0.320525,0.0,0.0,0.5,0.0,0.0,0.0
334070709,334070208,0.0,-0.369922,0.0,0.0,0.5,0.0,0.0,0.0
334094289,334093759,0.0,-0.390536,0.0,4.43199e-16,0.5,0.0,0.0,0.0
334118234,334117742,0.0,-0.39101,0.0,6.07179e-16,0.5,0.0,0.0,0.0
334138231,334137738,0.0,-0.372393,0.0,1.37584e-16,0.5,0.0,0.0,0.0
334159197,334158479,0.0,-0.311881,0.0,0.0,0.5,0.0,0.0,0.0
334182336,334181774,0.0,-0.198311,0.0,0.0,0.5,0.0,0.0,0.0
334202365,334201790,0.0,-0.0788191,0.0,0.0,0.5,0.0,0.0,0.0
334222876,334222369,0.0,-0.00547009,0.0,8.01141e-18,0.5,0.0,0.0,0.0
334242377,334241835,0.0,0.0134127,0.0,4.1201e-18,0.5,0.0,0.0,0.0
334266257,334265767,0.0,0.00602748,0.0,0.0,0.5,0.0,0.0,0.0
334286309,334285831,0.0,-0.000399095,0.0,0.0,0.5,0.0,0.0,0.0
334306291,334305808,0.0,-0.00132775,0.0,0.0,0.5,0.0,0.0,0.0
334326265,334325773,0.0,-0.00132775,0.0,0.0,0.5,0.0,0.0,0.0
334350259,334349733,0.0,-0.000412491,0.0,5.21757e-20,0.5,0.0,0.0,0.0
334371927,334371303,0.0,0.000107568,0.0,7.71213e-20,0.5,0.0,0.0,0.0
334391907,334391295,0.0,0.000120521,0.0,1.82816e-20,0.5,0.0,0.0,0.0
334411939,334411323,0.0,2.34725e-05,0.0,0.0,0.5,0.0,0.0,0.0
334432088,334431439,0.0,-1.49263e-05,0.0,0.0,0.5,0.0,0.0,0.0
334455952,334455365,0.0,-1.01119e-05,0.0,0.0,0.5,0.0,0.0,0.0
334475834,334475323,0.0,-8.13843e-07,0.0,9.9885e-22,0.5,0.0,0.0,0.0
334495824,334495303,0.0,1.67934e-06,0.0,5.31279e-22,0.5,0.0,0.0,0.0
334516625,334516100,0.0,7.79926e-07,0.0,7.31805e-25,0.5,0.0,0.0,0.0
334536829,334536098,0.0,7.79926e-07,0.0,7.31805e-25,0.5,0.0,0.0,0.0
334560798,334560238,0.0,-4.06376e-08,0.0,0.0,0.5,0.0,0.0,0.0
334579815,334579279,0.0,-1.67738e-07,0.0,0.0,0.5,0.0,0.0,0.0
334600048,334599500,0.0,-5.40264e-08,0.0,6.09656e-24,0.5,0.0,0.0,0.0
334619898,334619331,0.0,1.28816e-08,0.0,9.78908e-24,0.5,0.0,0.0,0.0
334644778,334644234,0.0,1.53393e-08,0.0,2.42353e-24,0.5,0.0,0.0,0.0
334663849,334663349,0.0,3.14588e-09,0.0,0.0,0.5,0.0,0.0,0.0
334684036,334683536,0.0,-1.84119e-09,0.0,0.0,0.5,0.0,0.0,0.0
334707867,334707307,0.0,-1.29638e-09,0.0,0.0,0.5,0.0,0.0,0.0
334727855,334727302,0.0,-1.18515e-10,0.0,1.24392e-25,0.5,0.0,0.0,0.0
334747840,334747288,0.0,2.10058e-10,0.0,6.84531e-26,0.5,0.0,0.0,0.0
334768449,334767988,0.0,1.00829e-10,0.0,9.37407e-28,0.5,0.0,0.0,0.0
334787887,334787364,0.0,-3.8735e-12,0.0,0.0,0.5,0.0,0.0,0.0
334812619,334812093,0.0,-2.11753e-11,0.0,0.0,0.5,0.0,0.0,0.0
334829525,334828927,0.0,-7.06635e-12,0.0,7.06045e-28,0.5,0.0,0.0,0.0
334849474,334848903,0.0,1.53524e-12,0.0,1.2417e-27,0.5,0.0,0.0,0.0
334877593,334877081,0.0,1.95102e-12,0.0,3.20587e-28,0.5,0.0,0.0,0.0
334898242,334897494,0.0,1.95102e-12,0.0,3.20587e-28,0.5,0.0,0.0,0.0
334918896,334917981,0.0,4.20329e-13,0.0,0.0,0.5,0.0,0.0,0.0
334941479,334940947,0.0,-2.26717e-13,0.0,0.0,0.5,0.0,0.0,0.0
334962496,334961901,0.0,-1.66085e-13,0.0,0.0,0.5,0.0,0.0,0.0
334981828,334981205,0.0,-1.69783e-14,0.0,1.54726e-29,0.5,0.0,0.0,0.0
335001503,335000952,0.0,2.62481e-14,0.0,8.81305e-30,0.5,0.0,0.0,0.0
335029501,335028912,0.0,1.3024e-14,0.0,2.26891e-31,0.5,0.0,0.0,0.0
335049850,335049414,0.0,-3.2707e-16,0.0,0.0,0.5,0.0,0.0,0.0
335069491,335068958,0.0,-2.67117e-15,0.0,0.0,0.5,0.0,0.0,0.0
335089759,335088968,0.0,-9.23024e-16,0.0,8.08896e-32,0.5,0.0,0.0,0.0
335113485,335112899,0.0,1.81974e-16,0.0,1.57397e-31,0.5,0.0,0.0,0.0
335133421,335132921,0.0,2.47987e-16,0.0,4.23229e-32,0.5,0.0,0.0,0.0
335153483,335152965,0.0,5.60045e-17,0.0,0.0,0.5,0.0,0.0,0.0
335173614,335172923,0.0,-2.78645e-17,0.0,0.0,0.5,0.0,0.0,0.0
335197474,335196945,0.0,-2.12633e-17,0.0,0.0,0.5,0.0,0.0,0.0
335217462,335216946,0.0,-2.40104e-18,0.0,1.92214e-33,0.5,0.0,0.0,0.0
335238463,335237701,0.0,3.27643e-18,0.0,1.13378e-33,0.5,0.0,0.0,0.0
335257724,335256996,0.0,1.68089e-18,0.0,4.25775e-35,0.5,0.0,0.0,0.0
335278680,335277965,0.0,-2.04411e-20,0.0,0.0,0.5,0.0,0.0,0.0
335299131,335298552,0.0,-3.36699e-19,0.0,0.0,0.5,0.0,0.0,0.0
335327001,335326473,0.0,-1.20417e-19,0.0,9.14428e-36,0.5,0.0,0.0,0.0
335347055,335346514,0.0,2.14337e-20,0.0,1.99378e-35,0.5,0.0,0.0,0.0
335367233,335366643,0.0,3.14998e-20,0.0,5.57696e-36,0.5,0.0,0.0,0.0
335387885,335387209,0.0,3.14998e-20,0.0,5.57696e-36,0.5,0.0,0.0,0.0
335411045,335410551,0.0,-3.41777e-21,0.0,0.0,0.5,0.0,0.0,0.0
335431953,335431381,0.0,-3.41777e-21,0.0,0.0,0.5,0.0,0.0,0.0
335450995,335450511,0.0,-2.72041e-21,0.0,0.0,0.5,0.0,0.0,0.0
335472927,335472156,0.0,-3.36014e-22,0.0,2.38469e-37,0.5,0.0,0.0,0.0
335491031,335490510,0.0,4.08533e-22,0.0,1.4575e-37,0.5,0.0,0.0,0.0
335515034,335514518,0.0,2.16761e-22,0.0,7.1625e-39,0.5,0.0,0.0,0.0
335535018,335534505,0.0,1.0185e-25,0.0,0.0,0.5,0.0,0.0,0.0
335555304,335554516,0.0,-4.24076e-23,0.0,0.0,0.5,0.0,0.0,0.0
335578984,335578505,0.0,-1.56907e-23,0.0,1.0163e-39,0.5,0.0,0.0,0.0
335599114,335598588,0.0,2.50593e-24,0.0,2.52381e-39,0.5,0.0,0.0,0.0
335618984,335618520,0.0,3.99849e-24,0.0,7.33608e-40,0.5,0.0,0.0,0.0
335639370,335638658,0.0,9.86852e-25,0.0,0.0,0.5,0.0,0.0,0.0
335663276,335662724,0.0,-4.18299e-25,0.0,0.0,0.5,0.0,0.0,0.0
335683051,335682535,0.0,-3.47814e-25,0.0,0.0,0.5,0.0,0.0,0.0
335703195,335702635,0.0,-4.66173e-26,0.0,2.9545e-41,0.5,0.0,0.0,0.0
335723711,335723071,0.0,5.08811e-26,0.0,1.87227e-41,0.5,0.0,0.0,0.0
335744496,335743823,0.0,2.79304e-26,0.0,1.13365e-42,0.5,0.0,0.0,0.0
335765294,335764626,0.0,3.57703e-28,0.0,0.0,0.5,0.0,0.0,0.0
335789308,335788827,0.0,-5.33702e-27,0.0,0.0,0.5,0.0,0.0,0.0
335808742,335808223,0.0,-2.04222e-27,0.0,1.12104e-43,0.5,0.0,0.0,0.0
335828718,335828175,0.0,2.90417e-28,0.0,3.20897e-43,0.5,0.0,0.0,0.0
335848732,335848186,0.0,5.07216e-28,0.0,9.80909e-44,0.5,0.0,0.0,0.0
335872784,335872228,0.0,1.30562e-28,0.0,0.0,0.5,0.0,0.0,0.0
335893426,335892870,0.0,1.30562e-28,0.0,0.0,0.5,0.0,0.0,0.0
335913449,335912890,0.0,-5.10747e-29,0.0,0.0,0.5,0.0,0.0,0.0
335933681,335932957,0.0,-4.44395e-29,0.0,0.0,0.5,0.0,0.0,0.0
335956734,335956201,0.0,-6.42039e-30,0.0,2.8026e-45,0.5,0.0,0.0,0.0
335977098,335976622,0.0,6.32945e-30,0.0,2.8026e-45,0.5,0.0,0.0,0.0
335996641,335996158,0.0,3.59612e-30,0.0,0.0,0.5,0.0,0.0,0.0
336016657,336016161,0.0,8.9458e-32,0.0,0.0,0.5,0.0,0.0,0.0
336044702,336044140,0.0,-6.71119e-31,0.0,0.0,0.5,0.0,0.0,0.0
336065117,336064660,0.0,-2.65514e-31,0.0,0.0,0.5,0.0,0.0,0.0
336084774,336084272,0.0,3.3301e-32,0.0,0.0,0.5,0.0,0.0,0.0
336104850,336104187,0.0,6.42974e-32,0.0,0.0,0.5,0.0,0.0,0.0
336128657,336128111,0.0,1.72388e-32,0.0,0.0,0.5,0.0,0.0,0.0
336148629,336148098,0.0,-6.22024e-33,0.0,0.0,0.5,0.0,0.0,0.0
336169088,336168619,0.0,-5.67418e-33,0.0,0.0,0.5,0.0,0.0,0.0
336190327,336189789,0.0,-8.78742e-34,0.0,0.0,0.5,0.0,0.0,0.0
336211421,336210852,0.0,7.86374e-34,0.0,0.0,0.5,0.0,0.0,0.0
336230263,336229668,0.0,7.86374e-34,0.0,0.0,0.5,0.0,0.0,0.0
336254259,336253728,0.0,4.62658e-34,0.0,0.0,0.5,0.0,0.0,0.0
336274318,336273744,0.0,1.69804e-35,0.0,0.0,0.5,0.0,0.0,0.0
336294375,336293818,0.0,-8.4321e-35,0.0,0.0,0.5,0.0,0.0,0.0
336315324,336314603,0.0,-3.44839e-35,0.0,0.0,0.5,0.0,0.0,0.0
336334303,336333729,0.0,3.76862e-36,0.0,0.0,0.5,0.0,0.0,0.0
336358212,336357682,0.0,8.1451e-36,0.0,0.0,0.5,0.0,0.0,0.0
336378243,336377686,0.0,2.27188e-36,0.0,0.0,0.5,0.0,0.0,0.0
336398243,336397674,0.0,-7.55417e-37,0.0,0.0,0.5,0.0,0.0,0.0
336422589,336421953,0.0,-7.24017e-37,0.0,0.0,0.5,0.0,0.0,0.0
336442407,336441796,0.0,-1.19622e-37,0.0,0.0,0.5,0.0,0.0,0.0
336462370,336461784,0.0,9.75705e-38,0.0,0.0,0.5,0.0,0.0,0.0
336482464,336481874,0.0,5.94788e-38,0.0,0.0,0.5,0.0,0.0,0.0
336506392,336505869,0.0,2.87319e-39,0.0,0.0,0.5,0.0,0.0,0.0
336526288,336525730,0.0,-1.05852e-38,0.0,0.0,0.5,0.0,0.0,0.0
336546261,336545710,0.0,-1.05852e-38,0.0,0.0,0.5,0.0,0.0,0.0
336566878,336566249,0.0,4.1943e-40,0.0,0.0,0.5,0.0,0.0,0.0
336590701,336590228,0.0,1.0311e-39,0.0,0.0,0.5,0.0,0.0,0.0
336611225,336610676,0.0,1.0311e-39,0.0,0.0,0.5,0.0,0.0,0.0
336631036,336630511,0.0,2.98886e-40,0.0,0.0,0.5,0.0,0.0,0.0
336651551,336651092,0.0,-9.14557e-41,0.0,0.0,0.5,0.0,0.0,0.0
336672647,336672067,0.0,-9.23231e-41,0.0,0.0,0.5,0.0,0.0,0.0
336692914,336692196,0.0,-1.6206e-41,0.0,0.0,0.5,0.0,0.0,0.0
336715873,336715389,0.0,1.20876e-41,0.0,0.0,0.5,0.0,0.0,0.0
336736700,336736159,0.0,7.63988e-42,0.0,0.0,0.5,0.0,0.0,0.0
336756927,336756404,0.0,4.55422e-43,0.0,0.0,0.5,0.0,0.0,0.0
336775871,336775382,0.0,-1.32703e-42,0.0,0.0,0.5,0.0,0.0,0.0
336800890,336800404,0.0,-5.80138e-43,0.0,0.0,0.5,0.0,0.0,0.0
336820088,336819554,0.0,4.62428e-44,0.0,0.0,0.5,0.0,0.0,0.0
336840309,336839810,0.0,1.31722e-43,0.0,0.0,0.5,0.0,0.0,0.0
336863894,336863393,0.0,3.92364e-44,0.0,0.0,0.5,0.0,0.0,0.0
336883897,336883397,0.0,-9.80909e-45,0.0,0.0,0.5,0.0,0.0,0.0
336903851,336903372,0.0,-1.12104e-44,0.0,0.0,0.5,0.0,0.0,0.0
336924083,336923588,0.0,-2.8026e-45,0.0,0.0,0.5,0.0,0.0,0.0
336947897,336947383,0.0,1.4013e-45,0.0,0.0,0.5,0.0,0.0,0.0
336967901,336967396,0.0,0.0,0.0,0.0,0.5,0.0,0.0,0.0
336988633,336988076,0.0,0.0,0.0,0.0,0.5,0.0,0.0,0.0
337008787,337008276,0.0,0.0,0.0,0.0,0.5,0.0,0.0,0.0
337028753,337028034,0.0,0.0,0.0,0.0,0.5,0.0,0.0,0.0
337052721,337052140,0.0,0.0,0.0,0.0,0.5,0.0,0.0,0.0
337073849,337073308,0.0,0.0,0.0,0.0,0.5,0.0,0.0,0.0
337092923,337092410,0.0,0.0,0.0,0.0,0.5,0.0,0.0,0.0
337114209,337113716,0.0,0.0,0.0,0.0,0.5,0.0,0.0,0.0
337133671,337132908,0.0,0.0,0.0,0.0,0.5,0.0,0.0,0.0
337153492,337152959,0.0,0.0,0.0,0.0,0.5,0.0,0.0,0.0
337177477,337176890,0.0,0.0,0.0,0.0,0.5,0.0,0.0,0.0
337197490,337196918,0.0,0.0,0.0,0.0,0.5,0.0,0.0,0.0
337217449,337216878,0.0,0.0,0.0,0.0,0.5,0.0,0.0,0.0
337241461,337240909,0.0,0.0,0.0,0.0,0.5,0.0,0.0,0.0
337261457,337260920,0.0,0.0,0.0,0.0,0.5,0.0,0.0,0.0
337281933,337281420,0.0,0.0,0.0,0.0,0.5,0.0,0.0,0.0
337301839,337300914,0.0,0.0,0.0,0.0,0.5,0.0,0.0,0.0
337321455,337320914,0.0,0.0,0.0,0.0,0.5,0.0,0.0,0.0
337345483,337344910,0.0,0.0,0.0,0.0,0.5,0.0,0.0,0.0
337365504,337364934,0.0,0.0,0.0,0.0,0.5,0.0,0.0,0.0
337386241,337385444,0.0,0.0,0.0,0.0,0.5,0.0,0.0,0.0
337409508,337408949,0.0,0.0,0.0,0.0,0.5,0.0,0.0,0.0
337429945,337429465,0.0,0.0,0.0,0.0,0.5,0.0,0.0,0.0
337450042,337449610,0.0,0.0,0.0,0.0,0.5,0.0,0.0,0.0
337470366,337469581,0.0,0.0,0.0,0.0,0.5,0.0,0.0,0.0
337489447,337488886,0.0,0.0,0.0,0.0,0.5,0.0,0.0,0.0
337514223,337513689,0.0,0.0,0.0,0.0,0.5,0.0,0.0,0.0
337533544,337532993,0.0,0.0,0.0,0.0,0.5,0.0,0.0,0.0
337553643,337552909,0.0,0.0,0.0,0.0,0.5,0.0,0.0,0.0
337575071,337574533,0.0,0.0,0.0,0.0,0.5,0.0,0.0,0.0
337595065,337594519,0.0,0.0,0.0,0.0,0.5,0.0,0.0,0.0
337619022,337618543,0.0,0.0,0.0,0.0,0.5,0.0,0.0,0.0
337643737,337643220,0.0,0.0,0.0,0.0,0.5,0.0,0.0,0.0
337663107,337662578,0.0,0.0,0.0,0.0,0.5,0.0,0.0,0.0
337683269,337682574,0.0,0.0,0.0,0.0,0.5,0.0,0.0,0.0
337703117,337702567,0.0,0.0,0.0,0.0,0.5,0.0,0.0,0.0
337726998,337726518,0.0,0.0,0.0,0.0,0.5,0.0,0.0,0.0
337747105,337746564,0.0,0.0,0.0,0.0,0.5,0.0,0.0,0.0
337767306,337766589,0.0,0.0,0.0,0.0,0.5,0.0,0.0,0.0
337791068,337790537,0.0,0.0,0.0,0.0,0.5,0.0,0.0,0.0
337810999,337810489,0.0,0.0,0.0,0.0,0.5,0.0,0.0,0.0
337831072,337830526,0.0,0.0,0.0,0.0,0.5,0.0,0.0,0.0
337853087,337852327,0.0,0.0,0.0,0.0,0.5,0.0,0.0,0.0
337871890,337871263,0.0,0.0,0.0,0.0,0.5,0.0,0.0,0.0
337895074,337894577,0.0,0.0,0.0,0.0,0.5,0.0,0.0,0.0
337914994,337914534,0.0,0.0,0.0,0.0,0.5,0.0,0.0,0.0
337935722,337934995,0.0,0.0,0.0,0.0,0.5,0.0,0.0,0.0
337955690,337955219,0.0,0.0,0.0,0.0,0.5,0.0,0.0,0.0
337979462,337978966,0.0,0.0,0.0,0.0,0.5,0.0,0.0,0.0
337999014,337998522,0.0,0.0,0.0,0.0,0.5,0.0,0.0,0.0
338020683,338020108,0.0,0.0,0.0,0.0,0.5,0.0,0.0,0.0
338040992,338040253,0.0,0.0,0.0,0.0,0.5,0.0,0.0,0.0
338060687,338060099,0.0,0.0,0.0,0.0,0.5,0.0,0.0,0.0
338084713,338084162,0.0,0.0,0.0,0.0,0.5,0.0,0.0,0.0
338104698,338104152,0.0,0.0,0.0,0.0,0.5,0.0,0.0,0.0
338125108,338124664,0.0,0.0,0.0,0.0,0.5,0.0,0.0,0.0
338145723,338144931,0.0,0.0,0.0,0.0,0.5,0.0,0.0,0.0
338168678,338168086,0.0,0.0,0.0,0.0,0.5,0.0,0.0,0.0
338189057,338188595,0.0,0.0,0.0,0.0,0.5,0.0,0.0,0.0
338208645,338208080,0.0,0.0,0.0,0.0,0.5,0.0,0.0,0.0
338228686,338228115,0.0,0.0,0.0,0.0,0.5,0.0,0.0,0.0
338253264,338252790,0.0,0.0,0.0,0.0,0.5,0.0,0.0,0.0
338268633,338268073,0.0,0.0,0.0,0.0,0.5,0.0,0.0,0.0
338292726,338292141,0.0,0.0,0.0,0.0,0.5,0.0,0.0,0.0
338312775,338312184,0.0,0.0,0.0,0.0,0.5,0.0,0.0,0.0
338336621,338336103,0.0,0.0,0.0,0.0,0.5,0.0,0.0,0.0
338356644,338356111,0.0,0.0,0.0,0.0,0.5,0.0,0.0,0.0
338377108,338376620,0.0,0.0,0.0,0.0,0.5,0.0,0.0,0.0
338396645,338396096,0.0,0.0,0.0,0.0,0.5,0.0,0.0,0.0
338420682,338420137,0.0,0.0,0.0,0.0,0.5,0.0,0.0,0.0
338440701,338440167,0.0,0.0,0.0,0.0,0.5,0.0,0.0,0.0
338461950,338461463,0.0,0.0,0.0,0.0,0.5,0.0,0.0,0.0
338482433,338481823,0.0,0.0,0.0,0.0,0.5,0.0,0.0,0.0
338502691,338502133,0.0,0.0,0.0,0.0,0.5,0.0,0.0,0.0
338526334,338525820,0.0,0.0,0.0,0.0,0.5,0.0,0.0,0.0
338547046,338546543,0.0,0.0,0.0,0.0,0.5,0.0,0.0,0.0
338566987,338566507,0.0,0.0,0.0,0.0,0.5,0.0,0.0,0.0
338587277,338586730,0.0,0.0,0.0,0.0,0.5,0.0,0.0,0.0
338606250,338605714,0.0,0.0,0.0,0.0,0.5,0.0,0.0,0.0
338630270,338629723,0.0,0.0,0.0,0.0,0.5,0.0,0.0,0.0
338654272,338653771,0.0,0.0,0.0,0.0,0.5,0.0,0.0,0.0
338675010,338674510,0.0,0.0,0.0,0.0,0.5,0.0,0.0,0.0
338695234,338694551,0.0,0.0,0.0,0.0,0.5,0.0,0.0,0.0
338718843,338718330,0.0,0.0,0.0,0.0,0.5,0.0,0.0,0.0
338738791,338738270,0.0,0.0,0.0,0.0,0.5,0.0,0.0,0.0
338758210,338757695,0.0,0.0,0.0,0.0,0.5,0.0,0.0,0.0
338779362,338778681,0.0,0.0,0.0,0.0,0.5,0.0,0.0,0.0
338802788,338802258,0.0,0.0,0.0,0.0,0.5,0.0,0.0,0.0
338822422,338821883,0.0,0.0,0.0,0.0,0.5,0.0,0.0,0.0
338842304,338841802,0.0,0.0,0.0,0.0,0.5,0.0,0.0,0.0
338862364,338861849,0.0,0.0,0.0,0.0,0.5,0.0,0.0,0.0
338886338,338885825,0.0,0.0,0.0,0.0,0.5,0.0,0.0,0.0
338906314,338905797,0.0,0.0,0.0,0.0,0.5,0.0,0.0,0.0
338927859,338927304,0.0,0.0,0.0,0.0,0.5,0.0,0.0,0.0
338948253,338947800,0.0,0.0,0.0,0.0,0.5,0.0,0.0,0.0
338968439,338967980,0.0,0.0,0.0,0.0,0.5,0.0,0.0,0.0
338987846,338987294,0.0,0.0,0.0,0.0,0.5,0.0,0.0,0.0
339011924,339011314,0.0,0.0,0.0,0.0,0.5,0.0,0.0,0.0
339036510,339036059,0.0,0.0,0.0,0.0,0.5,0.0,0.0,0.0
339055875,339055320,0.0,0.0,0.0,0.0,0.5,0.0,0.0,0.0
339075858,339075297,0.0,0.0,0.0,0.0,0.5,0.0,0.0,0.0
339099882,339099343,0.0,0.0,0.0,0.0,0.5,0.0,0.0,0.0
339120735,339120247,0.0,0.0,0.0,0.0,0.5,0.0,0.0,0.0
339139845,339139320,0.0,0.0,0.0,0.0,0.5,0.0,0.0,0.0
339159890,339159341,0.0,0.0,0.0,0.0,0.5,0.0,0.0,0.0
339183933,339183375,0.0,0.0,0.0,0.0,0.5,0.0,0.0,0.0
339203893,339203326,0.0,0.0,0.0,0.0,0.5,0.0,0.0,0.0
339223899,339223333,0.0,0.0,0.0,0.0,0.5,0.0,0.0,0.0
339243828,339243288,0.0,0.0,0.0,0.0,0.5,0.0,0.0,0.0
339267771,339267312,0.0,0.0,0.0,0.0,0.5,0.0,0.0,0.0
339287941,339287394,0.0,0.0,0.0,0.0,0.5,0.0,0.0,0.0
339307902,339307348,0.0,0.0,0.0,0.0,0.5,0.0,0.0,0.0
339328771,339328039,0.0,0.0,0.0,0.0,0.5,0.0,0.0,0.0
339347793,339347302,0.0,0.0,0.0,0.0,0.5,0.0,0.0,0.0
339373172,339372659,0.0,0.0,0.0,0.0,0.5,0.0,0.0,0.0
339394051,339393530,0.0,0.0,0.0,0.0,0.5,0.0,0.0,0.0
339414451,339413923,0.0,0.0,0.0,0.0,0.5,0.0,0.0,0.0
339434512,339433991,0.0,0.0,0.0,0.0,0.5,0.0,0.0,0.0
339455389,339454631,0.0,0.0,0.0,0.0,0.5,0.0,0.0,0.0
339477461,339476944,0.0,0.0,0.0,0.0,0.5,0.0,0.0,0.0
339497963,339497511,0.0,0.0,0.0,0.0,0.5,0.0,0.0,0.0
339517948,339517494,0.0,0.0,0.0,0.0,0.5,0.0,0.0,0.0
339537464,339536951,0.0,0.0,0.0,0.0,0.5,0.0,0.0,0.0
339561456,339560928,0.0,0.0,0.0,0.0,0.5,0.0,0.0,0.0
339586226,339585697,0.0,0.0,-0.000843151,0.0,0.5,0.0,0.0,0.0
339606389,339605856,0.0,0.0,-0.00199787,0.0,0.5,0.0,0.0,0.0
339626795,339626004,0.0,0.0,-0.00141632,0.000417317,0.5,0.0,0.0,0.0
339645487,339644963,0.0,0.0,-0.000132153,0.00244946,0.5,0.0,0.0,0.0
339674105,339673619,0.0,0.0,0.000228503,0.00666587,0.5,0.0,0.0,0.0
339693841,339693426,0.0,0.0,0.000110316,0.0115819,0.5,0.0,0.0,0.0
339713525,339713028,0.0,0.0,-3.97979e-06,0.0163287,0.5,0.0,0.0,0.0
339737425,339736902,0.0,0.0,-2.30722e-05,0.0219193,0.5,0.0,0.0,0.0
339757430,339756926,0.0,0.0,-7.7465e-06,0.0288981,0.5,0.0,0.0,0.0
339777427,339776872,0.0,0.0,1.65535e-06,0.0370593,0.5,0.0,0.0,0.0
339797474,339796964,0.0,0.0,2.12859e-06,0.0495588,0.5,0.0,0.0,0.0
339821419,339820865,0.0,0.0,4.62426e-07,0.068229,0.5,0.0,0.0,0.0
339839531,339838789,0.0,0.0,-2.45931e-07,0.086452,0.5,0.0,0.0,0.0
339859035,339858515,0.0,0.0,-1.81429e-07,0.10038,0.5,0.0,0.0,0.0
339883250,339882696,0.0,0.0,-1.88856e-08,0.114061,0.5,0.0,0.0,0.0
339903722,339903278,0.0,0.0,2.85478e-08,0.135377,0.5,0.0,0.0,0.0
339924433,339923929,0.0,0.0,1.42473e-08,0.166449,0.5,0.0,0.0,0.0
339947048,339946555,0.0,0.0,-3.25353e-10,0.1965,0.5,0.0,0.0,0.0
339967446,339966884,0.0,0.0,-3.25353e-10,0.1965,0.5,0.0,0.0,0.0
339986918,339986504,0.0,0.0,-2.91007e-09,0.223639,0.5,0.0,0.0,0.0
340007343,340006560,0.0,0.0,-1.01164e-09,0.253447,0.5,0.0,0.0,0.0
340027645,340027210,0.0,0.0,1.96009e-10,0.279597,0.5,0.0,0.0,0.0
340051939,340051337,0.0,0.0,2.70526e-10,0.299072,0.5,0.0,0.0,0.0
340067839,340067369,0.0,0.0,6.15851e-11,0.320762,0.5,0.0,0.0,0.0
340092682,340092135,0.0,0.0,-3.02158e-11,0.34896,0.5,0.0,0.0,0.0
340112816,340112119,0.0,0.0,-2.32249e-11,0.376207,0.5,0.0,0.0,0.0
340134274,340133746,0.0,0.0,-2.6655e-12,0.397446,0.5,0.0,0.0,0.0
340154665,340153912,0.0,0.0,3.56283e-12,0.418948,0.5,0.0,0.0,0.0
340177462,340176898,0.0,0.0,1.83851e-12,0.446312,0.5,0.0,0.0,0.0
340197464,340196887,0.0,0.0,-1.82783e-14,0.47454,0.5,0.0,0.0,0.0
340217968,340217550,0.0,0.0,-3.66763e-13,0.497766,0.5,0.0,0.0,0.0
340238638,340237903,0.0,0.0,-3.66763e-13,0.497766,0.5,0.0,0.0,0.0
340257447,340256941,0.0,0.0,-1.3195e-13,0.522105,0.5,0.0,0.0,0.0
340285475,340284933,0.0,0.0,2.30589e-14,0.551381,0.5,0.0,0.0,0.0
340305886,340305468,0.0,0.0,3.43587e-14,0.575795,0.5,0.0,0.0,0.0
340326273,340325534,0.0,0.0,8.18119e-15,0.598072,0.5,0.0,0.0,0.0
340345870,340345452,0.0,0.0,-3.70481e-15,0.625936,0.5,0.0,0.0,0.0
340369417,340368863,0.0,0.0,-2.97103e-15,0.650859,0.5,0.0,0.0,0.0
340390403,340389854,0.0,0.0,-3.72418e-16,0.66901,0.5,0.0,0.0,0.0
340410434,340409698,0.0,0.0,4.44157e-16,0.688781,0.5,0.0,0.0,0.0
340429530,340428967,0.0,0.0,2.37053e-16,0.715694,0.5,0.0,0.0,0.0
340453566,340453014,0.0,0.0,-0.00210788,0.746389,0.5,0.0,0.0,0.0
340473488,340472949,0.0,0.0,-0.00710255,0.778127,0.5,0.0,0.0,0.0
340493613,340492919,0.0,0.0,-0.00853547,0.816187,0.5,0.0,0.0,0.0
340517401,340516870,0.0,0.0,-0.00387117,0.859717,0.5,0.0,0.0,0.0
340537429,340536893,0.0,0.0,0.000240874,0.89464,0.5,0.0,0.0,0.0
340557549,340557056,0.0,0.0,0.000847046,0.918218,0.5,0.0,0.0,0.0
340578077,340577415,0.0,0.0,0.000847046,0.918218,0.5,0.0,0.0,0.0
340599805,340599308,0.0,0.0,0.00026584,0.947636,0.5,0.0,0.0,0.0
340619793,340619053,0.0,0.0,-6.76299e-05,0.984144,0.5,0.0,0.0,0.0
340643844,340643092,0.0,0.0,-7.70467e-05,1.0,0.5,0.0,0.0,0.0
340663098,340662571,0.0,0.0,-1.52279e-05,1.0,0.5,0.0,0.0,0.0
340683121,340682592,0.0,0.0,9.45985e-06,1.0,0.5,0.0,0.0,0.0
340703091,340702555,0.0,0.0,6.47752e-06,0.999402,0.5,0.0,0.0,0.0
340727057,340726560,0.0,0.0,5.41235e-07,0.999605,0.5,0.0,0.0,0.0
340747014,340746531,0.0,0.0,-1.0684e-06,0.999971,0.5,0.0,0.0,0.0
340767303,340766723,0.0,0.0,-5.00785e-07,1.0,0.5,0.0,0.0,0.0
340788154,340787358,0.0,0.0,2.41557e-08,1.0,0.5,0.0,0.0,0.0
340811967,340811396,0.0,0.0,1.06988e-07,0.999998,0.5,0.0,0.0,0.0
340831581,340831092,0.0,0.0,3.48048e-08,0.999993,0.5,0.0,0.0,0.0
340851912,340851357,0.0,0.0,3.48048e-08,0.999993,0.5,0.0,0.0,0.0
340873137,340872415,0.0,0.0,-8.08856e-09,0.999998,0.5,0.0,0.0,0.0
340895892,340895396,0.0,0.0,-9.80428e-09,1.0,0.5,0.0,0.0,0.0
340915967,340915465,0.0,0.0,-2.03908e-09,1.0,0.5,0.0,0.0,0.0
340935790,340935308,0.0,0.0,1.16634e-09,1.0,0.5,0.0,0.0,0.0
340956237,340955494,0.0,0.0,8.30277e-10,1.0,0.5,0.0,0.0,0.0
340974990,340974485,0.0,0.0,7.84231e-11,1.0,0.5,0.0,0.0,0.0
340999126,340998610,0.0,0.0,-1.33602e-10,1.0,0.5,0.0,0.0,0.0
341019073,341018540,0.0,0.0,-6.4726e-11,1.0,0.5,0.0,0.0,0.0
341039088,341038552,0.0,0.0,2.24332e-12,1.0,0.5,0.0,0.0,0.0
341060844,341060088,0.0,0.0,1.35033e-11,1.0,0.5,0.0,0.0,0.0
341084691,341084131,0.0,0.0,4.55057e-12,1.0,0.5,0.0,0.0,0.0
341104700,341104139,0.0,0.0,-9.62604e-13,1.0,0.5,0.0,0.0,0.0
341125134,341124646,0.0,0.0,-1.24678e-12,1.0,0.5,0.0,0.0,0.0
341144908,341144203,0.0,0.0,-2.72227e-13,1.0,0.5,0.0,0.0,0.0
341168657,341168092,0.0,0.0,1.43544e-13,1.0,0.5,0.0,0.0,0.0
341188701,341188134,0.0,0.0,1.0635e-13,1.0,0.5,0.0,0.0,0.0
341209046,341208609,0.0,0.0,1.0635e-13,1.0,0.5,0.0,0.0,0.0
341228777,341228065,0.0,0.0,1.11909e-14,1.0,0.5,0.0,0.0,0.0
341248659,341248146,0.0,0.0,-1.66896e-14,1.0,0.5,0.0,0.0,0.0
341272745,341272168,0.0,0.0,-8.35863e-15,1.0,0.5,0.0,0.0,0.0
341292778,341292218,0.0,0.0,1.79347e-16,1.0,0.5,0.0,0.0,0.0
341313322,341312857,0.0,0.0,1.70302e-15,1.0,0.5,0.0,0.0,0.0
341336630,341336086,0.0,0.0,5.94195e-16,1.0,0.5,0.0,0.0,0.0
341356731,341356186,0.0,0.0,-1.13908e-16,1.0,0.5,0.0,0.0,0.0
341377384,341376824,0.0,0.0,-1.58445e-16,1.0,0.5,0.0,0.0,0.0
341397620,341396841,0.0,0.0,-1.58445e-16,1.0,0.5,0.0,0.0,0.0
341420652,341420148,0.0,0.0,1.76326e-17,1.0,0.5,0.0,0.0,0.0
341440634,341440134,0.0,0.0,1.76326e-17,1.0,0.5,0.0,0.0,0.0
341461499,341460941,0.0,0.0,1.3613e-17,1.0,0.5,0.0,0.0,0.0
341481532,341480794,0.0,0.0,1.57764e-18,1.0,0.5,0.0,0.0,0.0
341503005,341502502,0.0,0.0,-2.08266e-18,1.0,0.5,0.0,0.0,0.0
341523245,341522519,0.0,0.0,-1.07853e-18,1.0,0.5,0.0,0.0,0.0
341546707,341546202,0.0,0.0,9.27247e-21,1.0,0.5,0.0,0.0,0.0
341566360,341565796,0.0,0.0,2.14619e-19,1.0,0.5,0.0,0.0,0.0
341586257,341585709,0.0,0.0,7.74917e-20,1.0,0.5,0.0,0.0,0.0
341606271,341605706,0.0,0.0,-1.33904e-20,1.0,0.5,0.0,0.0,0.0
341630309,341629734,0.0,0.0,-2.01222e-20,1.0,0.5,0.0,0.0,0.0
341650211,341649717,0.0,0.0,-4.81366e-21,1.0,0.5,0.0,0.0,0.0
341670256,341669708,0.0,0.0,2.16147e-21,1.0,0.5,0.0,0.0,0.0
341690385,341689822,0.0,0.0,1.74131e-21,1.0,0.5,0.0,0.0,0.0
341714253,341713716,0.0,0.0,2.20213e-22,1.0,0.5,0.0,0.0,0.0
341734343,341733793,0.0,0.0,-2.59602e-22,1.0,0.5,0.0,0.0,0.0
341754264,341753687,0.0,0.0,-1.39051e-22,1.0,0.5,0.0,0.0,0.0
341774249,341773680,0.0,0.0,-5.49039e-25,1.0,0.5,0.0,0.0,0.0
341798195,341797702,0.0,0.0,2.70255e-23,1.0,0.5,0.0,0.0,0.0
341818186,341817714,0.0,0.0,1.00942e-23,1.0,0.5,0.0,0.0,0.0
341838429,341837872,0.0,0.0,-1.56194e-24,1.0,0.5,0.0,0.0,0.0
341858294,341857737,0.0,0.0,-2.55378e-24,1.0,0.5,0.0,0.0,0.0
341882259,341881735,0.0,0.0,-6.37836e-25,1.0,0.5,0.0,0.0,0.0
341902828,341902336,0.0,0.0,2.64371e-25,1.0,0.5,0.0,0.0,0.0
341944223,341943668,0.0,0.0,2.22591e-25,1.0,0.5,0.0,0.0,0.0
341965116,341964409,0.0,0.0,3.04853e-26,1.0,0.5,0.0,0.0,0.0
341983889,341983355,0.0,0.0,-3.23216e-26,1.0,0.5,0.0,0.0,0.0
342007934,342007395,0.0,0.0,-1.79132e-26,1.0,0.5,0.0,0.0,0.0
342032753,342032183,0.0,0.0,-2.9034e-28,1.0,0.5,0.0,0.0,0.0
342051922,342051274,0.0,0.0,3.4004e-27,1.0,0.5,0.0,0.0,0.0
342071923,342071302,0.0,0.0,1.31339e-27,1.0,0.5,0.0,0.0,0.0
342095897,342095320,0.0,0.0,-1.80517e-28,1.0,0.5,0.0,0.0,0.0
342115949,342115363,0.0,0.0,-3.23889e-28,1.0,0.5,0.0,0.0,0.0
342135958,342135417,0.0,0.0,-8.43378e-29,1.0,0.5,0.0,0.0,0.0
342156577,342155864,0.0,0.0,-8.43378e-29,1.0,0.5,0.0,0.0,0.0
342179939,342179390,0.0,-0.0179535,2.84347e-29,1.0,0.5,0.0,0.0,0.0
342200610,342200006,0.0,-0.0179535,2.84347e-29,1.0,0.5,0.0,0.0,0.0
342219875,342219301,0.0,-0.0625476,4.19087e-30,1.0,0.5,0.0,0.0,0.0
342241082,342240392,0.0,-0.135952,-4.01932e-30,1.0,0.5,0.0,0.0,0.0
342259860,342259339,0.0,-0.201983,-2.30589e-30,1.0,0.5,0.0,0.0,0.0
342283891,342283342,0.0189709,-0.248265,0.000843151,1.0,0.5,0.0,0.0,0.0
342303911,342303390,0.0723545,-0.293331,0.00537048,1.0,0.5,0.0,0.0,0.0
342323905,342323365,0.125043,-0.334647,0.0127804,1.0,0.5,0.0,0.0,0.0
342347846,342347286,0.134903,-0.365963,0.0171615,1.0,0.5,0.0,0.0,0.0
342367919,342367422,0.102513,-0.388415,0.0173295,1.0,0.5,0.0,0.0,0.0
342387893,342387367,0.0553092,-0.397325,0.0165336,1.0,0.5,0.0,0.0,0.0
342409479,342408939,0.0172275,-0.3958,0.0162067,1.0,0.5,0.0,0.0,0.0
342429609,342429038,-0.00151332,-0.392648,0.0145554,1.0,0.5,0.0,0.0,0.0
342449934,342449427,-0.00151332,-0.392648,0.0145554,1.0,0.5,0.0,0.0,0.0
342473514,342472918,-0.00393264,-0.391361,0.0089503,1.0,0.5,0.0,0.0,0.0
342494010,342493498,-0.00115688,-0.389394,0.00214351,1.0,0.5,0.0,0.0,0.0
342514033,342513527,0.000342572,-0.383017,-0.000960524,1.0,0.5,0.0,0.0,0.0
342533509,342532910,0.000353126,-0.374301,-0.000774673,1.0,0.5,0.0,0.0,0.0
342561482,342560918,6.34087e-05,-0.366005,-9.8177e-05,1.0,0.5,0.0,0.0,0.0
342581992,342581397,-4.57164e-05,-0.357058,0.000115414,1.0,0.5,0.0,0.0,0.0
342601410,342600868,-2.93099e-05,-0.34568,6.18732e-05,1.0,0.5,0.0,0.0,0.0
342621447,342620885,-1.87881e-06,-0.331423,2.63967e-07,1.0,0.5,0.0,0.0,0.0
342641496,342640913,5.04506e-06,-0.315736,-1.20182e-05,1.0,0.5,0.0,0.0,0.0
342667047,342666291,2.23219e-06,-0.296711,-4.49274e-06,1.0,0.5,0.0,0.0,0.0
342686103,342685386,-1.63048e-07,-0.273781,6.93163e-07,1.0,0.5,0.0,0.0,0.0
342705891,342704959,-4.97348e-07,-0.253435,1.13589e-06,1.0,0.5,0.0,0.0,0.0
342726198,342725476,-1.51856e-07,-0.236916,2.84011e-07,1.0,0.5,0.0,0.0,0.0
342750009,342749519,0.00295107,-0.21962,-1.17476e-07,1.0,0.5,0.0,0.0,0.0
342777841,342777378,0.0356597,-0.1996,-9.90243e-08,1.0,0.5,0.0,0.0,0.0
342797909,342797387,0.109562,-0.179147,-1.35886e-08,1.0,0.5,0.0,0.0,0.0
342813547,342813016,0.178525,-0.163706,1.43692e-08,1.0,0.5,0.0,0.0,0.0
342837451,342836944,0.219048,-0.155681,7.97066e-09,1.0,0.5,0.0,0.0,0.0
342859060,342858475,0.274902,-0.146043,0.00463733,1.0,0.5,0.0,0.0,0.0
342883114,342882570,0.371078,-0.125082,0.0168903,1.0,0.5,0.0,0.0,0.0
342907328,342906753,0.464398,-0.0989878,0.0302063,1.0,0.5,0.0,0.0,0.0
342927019,342926511,0.520942,-0.072371,0.040316,1.0,0.5,0.0,0.0,0.0
342947386,342946607,0.545907,-0.0448799,0.0469248,1.0,0.5,0.0,0.0,0.0
342971066,342970526,0.549962,-0.0234918,0.0490736,1.0,0.5,0.0,0.0,0.0
342991044,342990522,0.549944,-0.00958889,0.0477304,1.0,0.5,0.0,0.0,0.0
343011162,343010599,0.560526,-0.00105118,0.0430191,1.0,0.5,0.0,0.0,0.0
343031478,343030586,0.577509,0.00148922,0.0343744,1.0,0.5,0.0,0.0,0.0
343051410,343050856,0.577509,0.00148922,0.0343744,1.0,0.5,0.0,0.0,0.0
343075474,343074897,0.587193,0.000756143,0.0257788,1.0,0.5,0.0,0.0,0.0
343099484,343099004,0.587024,-1.21964e-05,0.0217658,1.0,0.5,0.0,0.0,0.0
343123529,343123009,0.572418,-0.000152572,0.0211229,1.0,0.5,0.0,0.0,0.0
343147562,343147049,0.537544,-0.0034266,0.0199849,1.0,0.5,0.0,0.0,0.0
343167107,343166578,0.499693,-0.0151483,0.0175823,1.0,0.5,0.0,0.0,0.0
343187023,343186520,0.479044,-0.0302213,0.0160742,1.0,0.5,0.0,0.0,0.0
343215486,343214991,0.479669,-0.0377116,0.0168305,1.0,0.5,0.0,0.0,0.0
343235608,343235143,0.495326,-0.0366848,0.0182485,1.0,0.5,0.0,0.0,0.0
343255627,343254980,0.512793,-0.0344171,0.0177812,1.0,0.5,0.0,0.0,0.0
343275063,343274483,0.52377,-0.0384175,0.0164877,1.0,0.5,0.0,0.0,0.0
343299076,343298516,0.528201,-0.0534087,0.0177875,1.0,0.5,0.0,0.0,0.0
343320013,343319444,0.526845,-0.0737633,0.0223153,1.0,0.5,0.0,0.0,0.0
343343829,343343306,0.522947,-0.0863593,0.0271066,1.0,0.5,0.0,0.0,0.0
343367859,343367335,0.519664,-0.0874497,0.0300983,1.0,0.5,0.0,0.0,0.0
343394502,343393905,0.514156,-0.0841214,0.0311088,1.0,0.5,0.0,0.0,0.0
343411934,343411356,0.502645,-0.0852074,0.0308964,1.0,0.5,0.0,0.0,0.0
343431886,343431325,0.463215,-0.10481,0.03062,1.0,0.5,0.0,0.0,0.0
343452121,343451452,0.374593,-0.148518,0.0305595,1.0,0.5,0.0,0.0,0.0
343479941,343479376,0.261878,-0.198351,0.0305912,1.0,0.5,0.0,0.0,0.0
343499890,343499365,0.159589,-0.238139,0.0301932,1.0,0.5,0.0,0.0,0.0
343523940,343523336,0.0861057,-0.262054,0.0296184,1.0,0.5,0.0,0.0,0.0
343539874,343539362,0.0460986,-0.270689,0.0299055,1.0,0.5,0.0,0.0,0.0
343566111,343565602,0.0246252,-0.274677,0.029281,1.0,0.5,0.0,0.0,0.0
343583900,343583358,0.0106123,-0.281205,0.0264645,1.0,0.5,0.0,0.0,0.0
343607944,343607356,0.00247212,-0.290425,0.0242813,1.0,0.5,0.0,0.0,0.0
343627929,343627326,-0.000742956,-0.30225,0.0248692,1.0,0.5,0.0,0.0,0.0
343649304,343648827,-0.000758622,-0.316197,0.0272003,1.0,0.5,0.0,0.0,0.0
343668820,343668050,-0.000134849,-0.328731,0.0283681,1.0,0.5,0.0,0.0,0.0
343687869,343687366,9.87198e-05,-0.334426,0.0275001,1.0,0.5,0.0,0.0,0.0
343707849,343707337,9.87198e-05,-0.334426,0.0275001,1.0,0.5,0.0,0.0,0.0
343736365,343735912,3.90692e-06,-0.319781,0.0263402,1.0,0.5,0.0,0.0,0.0
343756703,343756153,-1.08702e-05,-0.306778,0.0251958,1.0,0.5,0.0,0.0,0.0
343775940,343775372,-4.78187e-06,-0.296102,0.0222805,1.0,0.5,0.0,0.0,0.0
343800487,343799973,0.00210824,-0.289222,0.0193194,1.0,0.5,0.0,0.0,0.0
343819851,343819292,0.00836835,-0.284977,0.0171097,1.0,0.5,0.0,0.0,0.0
343840314,343839798,0.0165915,-0.280539,0.0156083,1.0,0.5,0.0,0.0,0.0
343863969,343863371,0.0243064,-0.272985,0.0150646,1.0,0.5,0.0,0.0,0.0
343883984,343883415,0.0318707,-0.263053,0.0155793,1.0,0.5,0.0,0.0,0.0
343903942,343903390,0.0394788,-0.254538,0.0158759,1.0,0.5,0.0,0.0,0.0
343924126,343923588,0.0450248,-0.248699,0.0154632,1.0,0.5,0.0,0.0,0.0
343945002,343944423,0.0476923,-0.245258,0.0156742,1.0,0.5,0.0,0.0,0.0
343968767,343968180,0.0488567,-0.244287,0.0158329,1.0,0.5,0.0,0.0,0.0
343984762,343984157,0.0487647,-0.244602,0.0154287,1.0,0.5,0.0,0.0,0.0
344008636,344008077,0.0455516,-0.244908,0.0152483,1.0,0.5,0.0,0.0,0.0
344036668,344036185,0.0363724,-0.24496,0.0148392,1.0,0.5,0.0,0.0,0.0
344056906,344056371,0.0213839,-0.244919,0.013037,1.0,0.5,0.0,0.0,0.0
344080749,344080205,0.0066817,-0.244894,0.00823543,1.0,0.5,0.0,0.0,0.0
344101140,344100647,0.0066817,-0.244894,0.00823543,1.0,0.5,0.0,0.0,0.0
344120635,344120137,-0.00087508,-0.244892,0.00217667,1.0,0.5,0.0,0.0,0.0
344143090,344142515,-0.00163175,-0.24321,-0.000808289,1.0,0.5,0.0,0.0,0.0
344164776,344164293,-0.000431621,-0.238373,-0.00072491,1.0,0.5,0.0,0.0,0.0
344184621,344184101,0.000160026,-0.231856,-0.000109598,1.0,0.5,0.0,0.0,0.0
344225733,344225222,0.000143652,-0.223229,0.000101449,1.0,0.5,0.0,0.0,0.0
344247175,344246298,2.17478e-05,-0.213307,5.89493e-05,1.0,0.5,0.0,0.0,0.0
344269063,344268503,-2.0093e-05,-0.207957,1.91803e-06,1.0,0.5,0.0,0.0,0.0
344289067,344288498,-1.16835e-05,-0.208766,-1.08344e-05,1.0,0.5,0.0,0.0,0.0
344309495,344309003,-3.82836e-07,-0.212221,-4.3792e-06,1.0,0.5,0.0,0.0,0.0
344332661,344332115,2.14634e-06,-0.21629,5.03319e-07,1.0,0.5,0.0,0.0,0.0
344353203,344352680,8.68095e-07,-0.219225,1.04351e-06,1.0,0.5,0.0,0.0,0.0
344372769,344372237,-9.95015e-08,-0.219934,2.87046e-07,1.0,0.5,0.0,0.0,0.0
344393001,344392429,-2.06755e-07,-0.220043,-9.82635e-08,1.0,0.5,0.0,0.0,0.0
344416699,344416186,-5.69177e-08,-0.220366,-9.25192e-08,1.0,0.5,0.0,0.0,0.0
344436818,344436315,1.94533e-08,-0.221307,-1.49468e-08,1.0,0.5,0.0,0.0,0.0
344456650,344456170,1.83339e-08,-0.224121,1.25935e-08,1.0,0.5,0.0,0.0,0.0
344476987,344476431,2.96562e-09,-0.228771,7.58045e-09,1.0,0.5,0.0,0.0,0.0
344500677,344500169,-2.49419e-09,-0.233732,3.35186e-10,1.0,0.5,0.0,0.0,0.0
344520665,344520164,-1.50239e-09,-0.237185,-1.36051e-09,1.0,0.5,0.0,0.0,0.0
344541954,344541386,-1.50239e-09,-0.237185,-1.36051e-09,1.0,0.5,0.0,0.0,0.0
344563677,344563254,-6.6771e-11,-0.240018,-5.68381e-10,1.0,0.5,0.0,0.0,0.0
344582447,344581549,2.69517e-10,-0.24334,5.63773e-11,1.0,0.5,0.0,0.0,0.0
344601464,344600904,1.12669e-10,-0.245278,1.32131e-10,0.998957,0.5,0.0,0.0,0.0
344625643,344625129,-1.11415e-11,-0.245343,3.77864e-11,0.995859,0.5,0.0,0.0,0.0
344647933,344647247,-2.61794e-11,-0.244567,-1.19102e-11,0.987824,0.5,0.0,0.0,0.0
344665706,344664992,-7.49231e-12,-0.243002,-1.18003e-11,0.972942,0.5,0.0,0.0,0.0
344685456,344684933,2.35772e-12,-0.241733,-2.02833e-12,0.957748,0.5,0.0,0.0,0.0
344709433,344708915,2.33835e-12,-0.241992,1.56116e-12,0.947328,0.5,0.0,0.0,0.0
344737877,344737419,4.02407e-13,-0.242336,9.74071e-13,0.938106,0.5,0.0,0.0,0.0
344759468,344758920,-3.09186e-13,-0.241569,5.42459e-14,0.926931,0.5,0.0,0.0,0.0
344778107,344777474,-1.9305e-13,-0.240375,-1.70693e-13,0.915218,0.5,0.0,0.0,0.0
344801497,344800933,-1.07939e-14,-0.23882,-7.36979e-14,0.904523,0.5,0.0,0.0,0.0
344817432,344816872,3.38137e-14,-0.236371,6.19099e-15,0.896605,0.5,0.0,0.0,0.0
344843898,344843360,1.46087e-14,-0.232819,1.6719e-14,0.892852,0.5,0.0,0.0,0.0
344861650,344860920,-1.22294e-15,-0.229457,4.96582e-15,0.891764,0.5,0.0,0.0,0.0
344881549,344880994,-3.31252e-15,-0.227224,-1.43883e-15,0.890636,0.5,0.0,0.0,0.0
344905444,344904927,-9.84595e-16,-0.225371,-1.50407e-15,0.884798,0.5,0.0,0.0,0.0
344933985,344933526,2.84809e-16,-0.223437,-2.7405e-16,0.873264,0.5,0.0,0.0,0.0
344953443,344952959,2.98044e-16,-0.220977,1.93252e-16,0.863676,0.5,0.0,0.0,0.0
344974056,344973315,5.43653e-17,-0.218761,1.25075e-16,0.860931,0.5,0.0,0.0,0.0
344993425,344992918,-3.82722e-17,-0.218002,8.37691e-18,0.861586,0.5,0.0,0.0,0.0
345017383,345016870,-2.47882e-17,-0.217734,-2.13962e-17,0.860278,0.5,0.0,0.0,0.0
345037662,345037122,-1.66561e-18,-0.216518,-9.5468e-18,0.853407,0.5,0.0,0.0,0.0
345057694,345056940,4.23843e-18,-0.215279,6.61905e-19,0.841526,0.5,0.0,0.0,0.0
345081609,345081084,1.89237e-18,-0.214637,2.11401e-18,0.830343,0.5,0.0,0.0,0.0
345101453,345100972,-1.30669e-19,-0.212956,6.51571e-19,0.822904,0.5,0.0,0.0,0.0
345121461,345120989,-4.18841e-19,-0.210775,-1.73182e-19,0.815876,0.5,0.0,0.0,0.0
345141823,345141054,-1.29186e-19,-0.209454,-1.91583e-19,0.807224,0.5,0.0,0.0,0.0
345162398,345161825,-1.29186e-19,-0.209454,-1.91583e-19,0.807224,0.5,0.0,0.0,0.0
345183126,345182610,3.42779e-20,-0.207707,-3.68835e-20,0.797474,0.5,0.0,0.0,0.0
345207098,345206527,7.31632e-21,-0.199684,1.60487e-20,0.776729,0.5,0.0,0.0,0.0
345227672,345227161,7.31632e-21,-0.199684,1.60487e-20,0.776729,0.5,0.0,0.0,0.0
345247592,345247084,-4.73023e-21,-0.194812,1.25328e-21,0.765236,0.5,0.0,0.0,0.0
345267331,345266839,-3.1806e-21,-0.190978,-2.67948e-21,0.757908,0.5,0.0,0.0,0.0
345291063,345290500,-2.49065e-22,-0.188407,-1.23555e-21,0.753695,0.5,0.0,0.0,0.0
345307213,345306693,5.30775e-22,-0.186943,6.81139e-23,0.748774,0.5,0.0,0.0,0.0
345331488,345331075,2.44907e-22,-0.185641,2.6711e-22,0.745067,0.5,0.0,0.0,0.0
345351915,345351043,-1.34344e-23,-0.184182,8.53667e-23,0.744244,0.5,0.0,0.0,0.0
345375077,345374504,-5.2921e-23,-0.182633,-2.0759e-23,0.74404,0.5,0.0,0.0,0.0
345395517,345395046,-1.69251e-23,-0.179395,-2.43872e-23,0.74183,0.5,0.0,0.0,0.0
345415124,345414602,4.10848e-24,-0.17513,-4.94678e-24,0.737924,0.5,0.0,0.0,0.0
345435086,345434550,4.83239e-24,-0.171658,2.94742e-24,0.735244,0.5,0.0,0.0,0.0
345459015,345458510,9.81195e-25,-0.169102,2.05781e-24,0.73481,0.5,0.0,0.0,0.0
345487890,345487375,-5.8368e-25,-0.167995,1.83265e-25,0.735174,0.5,0.0,0.0,0.0
345507697,345507209,-4.07819e-25,-0.168086,-3.3523e-25,0.735394,0.5,0.0,0.0,0.0
345527812,345527289,-3.64065e-26,-0.169179,-1.59763e-25,0.735404,0.5,0.0,0.0,0.0
345547413,345546903,6.64041e-26,-0.169987,6.60658e-27,0.735364,0.5,0.0,0.0,0.0
345571583,345571120,3.16671e-26,-0.167964,3.37254e-26,0.735556,0.5,0.0,0.0,0.0
345591470,345591014,-1.30111e-27,-0.163685,1.11688e-26,0.735844,0.5,0.0,0.0,0.0
345611120,345610556,-1.30111e-27,-0.163685,1.11688e-26,0.735844,0.5,0.0,0.0,0.0
345632305,345631614,-2.2143e-27,-0.158593,-3.10226e-27,0.735178,0.5,0.0,0.0,0.0
345653008,345652449,4.90142e-28,-0.158811,-6.61376e-28,0.734803,0.5,0.0,0.0,0.0
345674367,345673653,4.90142e-28,-0.158811,-6.61376e-28,0.734803,0.5,0.0,0.0,0.0
345697132,345696631,6.14715e-28,-0.159162,3.63076e-28,0.734767,0.5,0.0,0.0,0.0
345717093,345716632,1.31176e-28,-0.159248,2.63674e-28,0.734827,0.5,0.0,0.0,0.0
345736910,345736348,-7.18975e-29,-0.157947,2.63389e-29,0.735065,0.5,0.0,0.0,0.0
345760776,345760242,-5.22545e-29,-0.15492,-4.18986e-29,0.73535,0.5,0.0,0.0,0.0
345780635,345780161,-5.23079e-30,-0.152791,-2.06402e-29,0.735409,0.5,0.0,0.0,0.0
345800684,345800190,8.29933e-30,-0.152598,5.77272e-31,0.735375,0.5,0.0,0.0,0.0
345820835,345820330,4.0911e-30,-0.153364,4.255e-30,0.735351,0.5,0.0,0.0,0.0
345844690,345844165,-1.13366e-31,-0.155793,1.4593e-30,0.735348,0.5,0.0,0.0,0.0
345864784,345864266,-8.42994e-31,-0.160335,-2.93945e-31,0.735352,0.5,0.0,0.0,0.0
345885374,345884820,-2.8931e-31,-0.16491,-3.94375e-31,0.735354,0.5,0.0,0.0,0.0
345905527,345905041,-2.8931e-31,-0.16491,-3.94375e-31,0.735354,0.5,0.0,0.0,0.0
345924687,345924162,5.81634e-32,-0.167398,-8.81731e-32,0.735354,0.5,0.0,0.0,0.0
345953385,345952832,7.81445e-32,-0.168265,4.46424e-32,0.735354,0.5,0.0,0.0,0.0
345972687,345972133,1.74872e-32,-0.168941,3.37623e-32,0.735145,0.5,0.0,0.0,0.0
345992646,345992121,0.00126473,-0.170286,3.7344e-33,0.734859,0.5,0.0,0.0,0.0
346012692,346012163,0.00552626,-0.172758,-5.23122e-33,0.735003,0.5,0.0,0.0,0.0
346032690,346032168,0.0123338,-0.175516,-2.66433e-33,0.735321,0.5,0.0,0.0,0.0
346056639,346056178,0.0203386,-0.177738,3.9812e-35,0.73541,0.5,0.0,0.0,0.0
346076643,346076161,0.0287087,-0.180969,5.3643e-34,0.735381,0.5,0.0,0.0,0.0
346096697,346096230,0.0361363,-0.186788,1.9043e-34,0.735353,0.5,0.0,0.0,0.0
346117527,346117002,0.0406146,-0.193364,-3.46724e-35,0.735348,0.5,0.0,0.0,0.0
346141483,346140926,0.0416582,-0.198449,-5.01015e-35,0.735352,0.5,0.0,0.0,0.0
346161439,346160898,0.0403238,-0.204942,-1.17245e-35,0.735354,0.5,0.0,0.0,0.0
346181598,346181075,0.0370969,-0.215199,5.47815e-36,0.735354,0.5,0.0,0.0,0.0
346201943,346201406,0.0370969,-0.215199,5.47815e-36,0.735354,0.5,0.0,0.0,0.0
346225580,346225017,0.03195,-0.22362,4.32016e-36,0.735562,0.5,0.0,0.0,0.0
346245426,346244918,0.025621,-0.226409,5.23709e-37,0.735848,0.5,0.0,0.0,0.0
346267080,346266575,0.0200744,-0.226213,-6.52431e-37,0.735704,0.5,0.0,0.0,0.0
346286402,346285624,0.0150483,-0.224329,-3.43641e-37,0.735386,0.5,0.0,0.0,0.0
346310214,346309632,0.00837509,-0.220299,7.71349e-40,0.735297,0.5,0.0,0.0,0.0
346329751,346329277,0.00183443,-0.214963,6.75754e-38,0.735326,0.5,0.0,0.0,0.0
346349727,346349241,-0.000962101,-0.210407,2.48199e-38,0.735355,0.5,0.0,0.0,0.0
346369703,346369155,-0.000714733,-0.208083,-4.06069e-39,0.735359,0.5,0.0,0.0,0.0
346393469,346392932,-7.57189e-05,-0.206851,-6.36067e-39,0.735355,0.5,0.0,0.0,0.0
346413435,346412914,0.000111976,-0.204743,-1.55529e-39,0.735353,0.5,0.0,0.0,0.0
346434323,346433801,0.00258566,-0.19999,6.70796e-40,0.735353,0.5,0.0,0.0,0.0
346453533,346453022,0.0110514,-0.192744,5.52428e-40,0.735353,0.5,0.0,0.0,0.0
346477474,346476920,0.0225484,-0.187203,7.27848e-41,0.735354,0.5,0.0,0.0,0.0
346501564,346500968,0.0306196,-0.185309,-8.12781e-41,0.735354,0.5,0.0,0.0,0.0
346521539,346520959,0.035145,-0.183165,-4.4288e-41,0.735562,0.5,0.0,0.0,0.0
346542496,346541619,0.035145,-0.183165,-4.4288e-41,0.735562,0.5,0.0,0.0,0.0
346561431,346560925,0.0411389,-0.177685,-4.49817e-43,0.735848,0.5,0.0,0.0,0.0
346585976,346585523,0.0496344,-0.171442,8.50448e-42,0.735704,0.5,0.0,0.0,0.0
346606004,346605560,0.0600316,-0.166836,3.22999e-42,0.735386,0.5,0.0,0.0,0.0
346626101,346625417,0.0714847,-0.163827,-4.72238e-43,0.735297,0.5,0.0,0.0,0.0
346649687,346648932,0.0787399,-0.162774,-8.05747e-43,0.735326,0.5,0.0,0.0,0.0
346669641,346668906,0.0825508,-0.160866,-2.0459e-43,0.735355,0.5,0.0,0.0,0.0
346690413,346689671,0.0926562,-0.154465,8.26766e-44,0.735359,0.5,0.0,0.0,0.0
346709896,346708993,0.110821,-0.146571,7.14662e-44,0.735355,0.5,0.0,0.0,0.0
346731076,346730553,0.126937,-0.142378,9.80909e-45,0.735353,0.5,0.0,0.0,0.0
346751025,346750535,0.126937,-0.142378,9.80909e-45,0.735353,0.5,0.0,0.0,0.0
346775021,346774519,0.135237,-0.141953,-9.80909e-45,0.735353,0.5,0.0,0.0,0.0
346799082,346798552,0.137798,-0.142945,0.0,0.735145,0.5,0.0,0.0,0.0
346823104,346822614,0.137786,-0.142937,1.4013e-45,0.734859,0.5,0.0,0.0,0.0
346843176,346842675,0.137758,-0.142869,0.0,0.735003,0.5,0.0,0.0,0.0
346863083,346862591,0.137758,-0.142869,0.0,0.735003,0.5,0.0,0.0,0.0
346887107,346886539,0.143435,-0.14385,0.0,0.73541,0.5,0.0,0.0,0.0
346907073,346906556,0.143435,-0.14385,0.0,0.73541,0.5,0.0,0.0,0.0
346927102,346926588,0.147113,-0.143565,0.0,0.735381,0.5,0.0,0.0,0.0
346947073,346946542,0.148532,-0.143346,0.0,0.735144,0.5,0.0,0.0,0.0
346971050,346970485,0.147915,-0.144585,0.0,0.734853,0.5,0.0,0.0,0.0
346991022,346990476,0.146144,-0.147194,0.0,0.735001,0.5,0.0,0.0,0.0
347011064,347010536,0.143925,-0.150023,0.0,0.735321,0.5,0.0,0.0,0.0
347031887,347031014,0.143029,-0.151401,0.0,0.735411,0.5,0.0,0.0,0.0
347055506,347055035,0.143977,-0.151356,0.0,0.735381,0.5,0.0,0.0,0.0
347075083,347074557,0.145345,-0.151492,0.0,0.735352,0.5,0.0,0.0,0.0
347095097,347094572,0.146087,-0.153237,0.0,0.735139,0.5,0.0,0.0,0.0
347115109,347114583,0.145671,-0.156384,0.0,0.734857,0.5,0.0,0.0,0.0
347139059,347138495,0.144951,-0.158892,0.0,0.735003,0.5,0.0,0.0,0.0
347159001,347158464,0.145188,-0.159624,0.0,0.735321,0.5,0.0,0.0,0.0
347179969,347179414,0.147524,-0.159403,0.0,0.73541,0.5,0.0,0.0,0.0
347200109,347199562,0.152557,-0.159179,0.0,0.735381,0.5,0.0,0.0,0.0
347220889,347220135,0.157753,-0.159139,0.0,0.735353,0.5,0.0,0.0,0.0
347244731,347244152,0.160374,-0.159168,0.0,0.735348,0.5,0.0,0.0,0.0
347261102,347260615,0.160374,-0.159168,0.0,0.735348,0.5,0.0,0.0,0.0
347285419,347284860,0.161168,-0.159187,0.0,0.735352,0.5,0.0,0.0,0.0
347305491,347304957,0.160106,-0.159188,0.0,0.735354,0.5,0.0,0.0,0.0
347324711,347324129,0.155763,-0.159185,0.0,0.735354,0.5,0.0,0.0,0.0
347348663,347348128,0.145092,-0.159183,0.0,0.735354,0.5,0.0,0.0,0.0
347368666,347368138,0.126401,-0.159183,0.0,0.735353,0.5,0.0,0.0,0.0
347388846,347388114,0.107671,-0.159184,0.0,0.735353,0.5,0.0,0.0,0.0
347412896,347412257,0.0959788,-0.159184,0.0,0.735353,0.5,0.0,0.0,0.0
347432724,347432134,0.0873157,-0.159184,0.0,0.735354,0.5,0.0,0.0,0.0
