timestamp,voltage_v,voltage_filtered_v,current_a,current_filtered_a,discharged_mah,remaining,scale,cell_count,connected,warning
327014376,12.2426,12.2504,0.0,0.00240988,0.421003,0.993674,1.00108,3,1,0
327322344,12.2016,12.2449,0.0,0.00197609,0.421085,0.995362,1.00079,3,1,0
327623911,12.2344,12.2432,0.0124,0.0021695,0.421292,0.998403,1.00027,3,1,0
327925520,12.3164,12.2468,0.0,0.00130922,0.421292,0.999876,1.0,3,1,0
328225564,12.1688,12.2074,0.0,0.00248546,0.421662,0.983932,1.00275,3,1,0
328527928,12.259,12.2157,0.0,0.00166883,0.421709,0.990293,1.00166,3,1,0
328829493,12.2754,12.2249,0.0,0.00100708,0.421709,0.996586,1.00058,3,1,0
329131147,12.2344,12.2346,0.0,0.00241612,0.422163,0.999876,1.0,3,1,0
329431110,12.3,12.242,0.0,0.00145804,0.422163,0.999876,1.0,3,1,0
329732784,12.3328,12.2477,0.0,0.000879879,0.422163,0.999876,1.0,3,1,0
330034374,12.2754,12.2523,0.0,0.00166099,0.422378,0.999876,1.0,3,1,0
330334362,12.2754,12.2509,0.0,0.00190997,0.422585,0.999876,1.0,3,1,0
330635935,12.3082,12.2562,0.0,0.0013395,0.422626,0.999876,1.0,3,1,0
330937525,12.1524,12.2568,0.0,0.000808343,0.422626,0.999454,1.00009,3,1,0
331238293,12.2672,12.2608,0.0,0.000707496,0.422668,0.999876,1.0,3,1,0
331539983,12.2918,12.264,0.0,0.000637938,0.422709,0.999876,1.0,3,1,0
331841494,12.218,12.2649,0.0,0.00089181,0.422833,0.999876,1.0,3,1,0
332143121,12.1688,12.2499,5.9148,1.00824,0.614369,0.999871,1.0,3,1,0
332443329,11.8326,12.1859,11.9288,4.14516,1.33483,0.999835,1.0,3,1,0
332744707,11.808,12.0798,19.5176,10.3389,2.9698,0.999726,1.0,3,1,0
333046293,12.2344,12.0718,0.8556,9.05288,3.62323,0.999555,1.0,3,1,0
333346320,12.218,12.1119,0.0,5.47289,3.62567,0.99941,1.0,3,1,0
333647896,11.7342,12.1352,0.0,3.30546,3.62621,0.99532,1.0008,3,1,0
333949498,12.136,12.1425,0.0,1.99668,3.62658,0.991052,1.00153,3,1,0
334249498,12.3164,12.1506,0.0,1.21251,3.6282,0.988873,1.0019,3,1,0
334551135,12.218,12.1789,0.0,0.732192,3.62832,0.997659,1.0004,3,1,0
334852836,12.3328,12.2082,0.0,0.442226,3.6284,0.999046,1.0,3,1,0
335152709,12.2262,12.225,0.0,0.268034,3.62865,0.999014,1.0,3,1,0
335454343,12.3082,12.2391,0.0,0.162188,3.62873,0.998989,1.0,3,1,0
335755933,12.1934,12.2425,0.0248,0.0988966,3.62895,0.99897,1.00008,3,1,0
336055933,12.1524,12.2334,0.0,0.0598333,3.62899,0.99788,1.00036,3,1,0
336357493,12.3,12.2301,0.0,0.0361073,3.62899,0.998391,1.00027,3,1,0
336658326,12.2344,12.2345,0.0,0.0217895,3.62899,0.998933,1.0,3,1,0
336959143,12.2508,12.2352,0.0,0.0131492,3.62899,0.998926,1.00006,3,1,0
337260677,12.2016,12.2331,0.0,0.00793508,3.62899,0.998921,1.00007,3,1,0
337562340,12.341,12.239,0.0,0.00478854,3.62899,0.998916,1.0,3,1,0
337862365,12.1606,12.2391,0.0,0.00288972,3.62899,0.998913,1.00005,3,1,0
338163950,12.2672,12.2398,0.0,0.00193075,3.62903,0.99891,1.0,3,1,0
338464730,12.2754,12.2417,0.0,0.00116514,3.62903,0.998909,1.0,3,1,0
338765507,12.2426,12.2427,0.0,0.00070312,3.62903,0.998907,1.00005,3,1,0
339067112,12.3164,12.2472,0.0,0.000424309,3.62903,0.998906,1.0,3,1,0
339367102,12.3492,12.2505,0.0,0.000256055,3.62903,0.998904,1.0,3,1,0
339668699,12.2262,12.2518,0.0,0.00015452,3.62903,0.998904,1.0,3,1,0
339970330,12.2016,12.2517,0.0,9.32477e-05,3.62903,0.998904,1.0,3,1,0
340272888,12.0376,12.2495,2.1204,0.196497,3.66448,0.998903,1.0,3,1,0
340572749,11.7506,12.1944,11.098,3.0286,4.24356,0.998884,1.0,3,1,0
340874329,11.6932,12.0735,22.3944,10.3301,6.00575,0.998786,1.0,3,1,0
341176012,11.685,11.9839,22.2704,15.1193,7.88394,0.998583,1.0,3,1,0
341475985,11.6194,11.9092,22.3448,17.9646,9.7417,0.9983,1.0,3,1,0
341777551,11.726,11.8555,22.2456,19.6675,11.6063,0.997954,1.0,3,1,0
342079228,11.6276,11.8026,22.4316,20.7535,13.4833,0.997559,1.0,3,1,0
342379125,11.5784,11.6822,22.3696,21.3555,15.3405,0.978023,1.00377,3,1,0
342680771,11.5866,11.6343,22.2456,21.7132,17.2048,0.989941,1.00172,3,1,0
342982379,10.6436,11.5163,21.6752,21.8011,19.0439,0.960786,1.00674,3,1,0
343282339,10.5616,11.4502,21.7496,21.956,20.8926,0.950328,1.00855,3,1,0
343583118,10.2336,11.3502,21.3776,21.9216,22.7224,0.919046,1.01402,3,1,0
343883127,11.2586,11.3685,22.0596,22.0041,24.5659,0.940486,1.01027,3,1,0
344495965,11.4472,11.402,22.072,21.9864,28.3064,0.974295,1.00441,3,1,0
344796699,11.4554,11.4172,21.7992,21.9619,30.1378,0.98461,1.00263,3,1,0
345096746,11.5948,11.4367,19.7408,21.8234,31.9429,0.987781,1.00209,3,1,0
345398331,11.8818,11.4915,12.5984,18.8407,33.1666,0.991946,1.0,3,1,0
345699897,11.89,11.5463,11.5816,16.0543,34.1593,0.991466,1.0,3,1,0
345999896,11.6358,11.5687,11.78,14.3209,35.1318,0.991027,1.00012,3,1,0
346300777,11.6604,11.5882,11.8668,13.3394,36.1228,0.990619,1.00007,3,1,0
346600818,11.5866,11.5982,11.718,12.7211,37.1047,0.990236,1.00002,3,1,0
346902343,11.5538,11.5882,11.4576,12.3149,38.0848,0.989872,1.00116,3,1,0
347204031,11.5784,11.6091,11.47,12.1087,39.0728,0.989522,1.00003,3,1,0
347503937,10.9552,11.5943,11.5568,11.8992,40.0379,0.989185,1.0017,3,1,0
347805522,11.6768,11.6049,11.8668,11.8713,41.0285,0.988856,1.00086,3,1,0
348105587,11.48,11.62,11.47,11.7944,42.0027,0.988534,1.00016,3,1,0
348407182,11.5702,11.6345,11.0608,11.743,42.982,0.988218,1.00004,3,1,0
348708725,11.9474,11.6426,11.9536,11.6978,43.9553,0.987907,1.0,3,1,0
349008801,11.5784,11.6495,11.9536,11.6795,44.9265,0.987599,1.00003,3,1,0
349310293,10.8978,11.6244,11.1848,11.7184,45.9136,0.987294,1.00166,3,1,0
349611156,11.644,11.6243,11.3708,11.7567,46.9023,0.98699,1.00116,3,1,0
349911105,11.8818,11.6251,11.6808,11.7251,47.8759,0.986687,1.00069,3,1,0
350213009,11.6194,11.6304,11.6188,11.675,48.8481,0.986387,1.00011,3,1,0
350512820,11.6522,11.6339,11.6312,11.6528,49.8156,0.986088,1.0,3,1,0
350814310,11.7424,11.6367,11.284,11.6091,50.7835,0.985789,1.00004,3,1,0
351115939,11.5292,11.6293,11.3584,11.7076,51.7772,0.985492,1.0003,3,1,0
351415934,11.6112,11.64,11.4576,11.6724,52.7468,0.985194,1.0,3,1,0
351717527,11.5866,11.6432,11.9536,11.7215,53.7339,0.984896,1.00019,3,1,0
352017496,11.7014,11.6537,11.2716,11.6789,54.7021,0.984599,1.0,3,1,0
352319102,11.644,11.6474,11.408,11.6351,55.6735,0.984303,1.00122,3,1,0
352620835,11.7752,11.6369,11.8668,11.6318,56.6475,0.984007,1.00124,3,1,0
352920693,11.5456,11.6416,11.6312,11.5697,57.6034,0.983712,1.00021,3,1,0
353222389,11.562,11.6523,11.2592,11.5305,58.5653,0.983417,1.00004,3,1,0
353523967,11.5046,11.648,11.2716,11.4752,59.5199,0.983124,1.00009,3,1,0
353823974,11.6686,11.653,11.4948,11.4857,60.4774,0.982832,1.0,3,1,0
354125581,11.7424,11.6606,11.8296,11.4892,61.4407,0.98254,1.0,3,1,0
354426371,11.5948,11.6604,11.3088,11.4707,62.3969,0.982248,1.00004,3,1,0
354726302,11.5538,11.6582,11.5816,11.4378,63.3447,0.981957,1.0001,3,1,0
355027255,11.6112,11.6514,11.6312,11.4396,64.3015,0.981666,1.00008,3,1,0
355327104,10.947,11.6142,11.098,11.4238,65.254,0.981376,1.00247,3,1,0
355627318,11.6276,11.608,11.4328,11.4588,66.2139,0.981085,1.00247,3,1,0
356831980,11.5784,11.6177,11.3584,11.343,70.0077,0.979928,1.00061,3,1,0
357133497,11.6194,11.6274,11.3088,11.3479,70.9596,0.97964,1.00024,3,1,0
357433524,11.8162,11.6304,11.8048,11.4119,71.9176,0.979351,1.00001,3,1,0
357735123,11.644,11.6181,11.5816,11.4471,72.8816,0.979062,1.00083,3,1,0
358035446,11.5538,11.6271,11.3584,11.3649,73.8207,0.978773,1.00005,3,1,0
358336677,11.7506,11.6432,11.284,11.364,74.7725,0.978484,1.0,3,1,0
358638327,11.726,11.6559,11.1476,11.4204,75.7366,0.978195,1.0,3,1,0
358938328,11.5784,11.6442,11.4452,11.4671,76.6973,0.977906,1.00111,3,1,0
359239922,11.6768,11.635,11.6932,11.4857,77.6619,0.977616,1.00111,3,1,0
359541563,11.7096,11.6365,11.3212,11.4875,78.6243,0.977326,1.0004,3,1,0
359841538,11.6276,11.6383,11.1352,11.5456,79.5955,0.977034,1.0,3,1,0
360142377,11.5374,11.6405,11.3584,11.5074,80.5514,0.976744,1.00006,3,1,0
360442370,11.357,11.6266,11.3336,11.4699,81.5039,0.976453,1.00121,3,1,0
360743907,11.5538,11.6156,11.2592,11.5313,82.4784,0.976162,1.00166,3,1,0
361044055,11.5784,11.6117,11.532,11.532,83.439,0.975871,1.00162,3,1,0
361345517,11.808,11.6102,12.1148,11.5831,84.4142,0.975579,1.00148,3,1,0
361647340,11.4226,11.5963,11.8544,11.5424,85.3755,0.975286,1.0024,3,1,0
361947114,11.5292,11.595,11.5072,11.584,86.3452,0.974994,1.00233,3,1,0
362247897,11.5784,11.5921,11.718,11.6446,87.3243,0.974702,1.00245,3,1,0
362559899,11.562,11.6012,11.0112,11.6233,88.331,0.974396,1.0016,3,1,0
362861556,11.7752,11.5925,11.6312,11.5833,89.296,0.974103,1.00223,3,1,0
363161477,11.6276,11.5737,11.7304,11.5389,90.2508,0.97381,1.00371,3,1,0
363463178,11.4226,11.5702,11.5072,11.5631,91.2211,0.973518,1.00395,3,1,0
363752708,11.6768,11.5654,11.3956,11.5927,92.1566,0.973236,1.00431,3,1,0
364064794,11.5948,11.5806,11.7056,11.5513,93.1524,0.972932,1.00303,3,1,0
364366309,11.2832,11.579,11.718,11.5352,94.1176,0.972639,1.00314,3,1,0
364667897,11.644,11.5768,11.1848,11.5123,95.0808,0.972347,1.0033,3,1,0
364967937,11.5128,11.5663,11.3336,11.5709,96.0546,0.972053,1.00415,3,1,0
365269534,11.6932,11.5881,11.4204,11.575,97.0233,0.971761,1.00235,3,1,0
365569493,11.726,11.5872,11.7304,11.5452,97.979,0.971468,1.00242,3,1,0
365871107,11.5128,11.5776,11.4576,11.5482,98.9472,0.971176,1.0032,3,1,0
366172938,11.644,11.5867,11.2344,11.512,99.9083,0.970884,1.00245,3,1,0
366472712,11.7834,11.5998,11.1352,11.4423,100.853,0.970592,1.00138,3,1,0
366773507,11.562,11.6178,11.4824,11.3483,101.788,0.970302,1.00006,3,1,0
367073625,11.6932,11.5354,11.2592,11.2892,102.721,0.960633,1.00677,3,1,0
367375133,11.6932,11.4454,11.16,11.2086,103.651,0.917932,1.01421,3,1,0
367675118,11.8818,11.4547,2.294,8.70471,104.092,0.913575,1.01498,3,1,0
367976064,12.0048,11.508,1.798,6.15273,104.284,0.92502,1.01297,3,1,0
368275901,11.9556,11.5621,2.046,4.34741,104.415,0.935418,1.01115,3,1,0
368577519,11.8818,11.6267,1.8724,3.39525,104.578,0.955394,1.00767,3,1,0
368878309,11.9474,11.6728,1.9592,2.81184,104.739,0.968748,1.00533,3,1,0
369178337,11.8736,11.6683,2.1948,2.44454,104.897,0.960285,1.00683,3,1,0
369478363,11.8326,11.5573,2.0956,2.11474,105.032,0.902339,1.01696,3,1,0
369779963,11.9146,11.5563,2.108,2.0484,105.193,0.897868,1.01775,3,1,0
370081537,12.0048,11.5975,2.1948,2.04929,105.366,0.914442,1.01482,3,1,0
370381597,11.8982,11.6675,2.0336,2.1263,105.552,0.945387,1.00941,3,1,0
370682342,11.8736,11.7243,2.1204,2.14488,105.734,0.968228,1.00505,3,1,0
370982440,10.9552,11.6801,1.4012,1.99386,105.883,0.948059,1.00895,3,1,0
371283907,10.7338,11.6374,1.0664,1.86194,106.023,0.926612,1.01269,3,1,0
371583923,11.2832,11.6199,1.7484,1.79325,106.164,0.917364,1.01431,3,1,0
371885536,11.9064,11.6571,1.9468,1.84132,106.323,0.934948,1.01123,3,1,0
372187090,11.9392,11.7068,2.1948,1.95669,106.501,0.959782,1.00691,3,1,0
372487089,11.6768,11.7519,2.2568,2.03662,106.681,0.967886,1.00301,3,1,0
372788697,12.0704,11.7964,2.1328,2.10504,106.867,0.967832,1.0,3,1,0
373089551,11.9474,11.8377,2.1452,2.15635,107.053,0.967777,1.0,3,1,0
373389505,12.054,11.8696,2.2444,2.17567,107.237,0.967722,1.0,3,1,0
373690331,10.7994,11.8822,1.2648,2.1843,107.422,0.967667,1.00096,3,1,0
373991147,11.972,11.8457,2.3064,2.20287,107.607,0.967612,1.00188,3,1,0
374291941,12.0376,11.8185,2.542,2.21086,107.793,0.967557,1.00249,3,1,0
374603955,11.9146,11.8323,2.6536,2.32197,108.007,0.967498,1.00007,3,1,0
374893539,11.9392,11.853,3.1248,2.68383,108.266,0.967441,1.0,3,1,0
375205647,12.0294,11.8898,2.3436,2.66206,108.497,0.967374,1.0,3,1,0
375506334,11.7178,11.9113,2.604,2.62648,108.712,0.96731,1.00005,3,1,0
375806293,11.5374,11.7963,3.1372,2.70914,108.942,0.958908,1.00707,3,1,0
376107893,11.1192,11.8223,2.1576,2.82719,109.197,0.96718,1.00287,3,1,0
376407928,11.849,11.8142,3.0876,2.83475,109.434,0.967111,1.002,3,1,0
376709493,12.0212,11.8525,3.1372,2.87188,109.679,0.967042,1.0,3,1,0
377011096,12.095,11.8921,4.2532,2.95216,109.934,0.966971,1.0,3,1,0
377311108,11.9064,11.9071,2.9636,3.2336,110.243,0.966897,1.0,3,1,0
377612759,11.931,11.9037,2.6784,2.98838,110.461,0.966821,1.0,3,1,0
377914634,12.136,11.9014,2.8024,2.8624,110.685,0.966748,1.0,3,1,0
378214311,12.1032,11.8678,2.9016,2.7375,110.897,0.966676,1.00061,3,1,0
378515159,12.0786,11.8604,3.906,2.95606,111.17,0.966604,1.00021,3,1,0
378815154,11.9392,11.8249,6.3116,3.83978,111.588,0.966526,1.00061,3,1,0
379116693,11.9228,11.837,6.4232,4.79177,112.111,0.966432,1.0,3,1,0
379416882,11.972,11.792,6.2,5.31262,112.618,0.966324,1.0012,3,1,0
379718327,11.849,11.7873,6.2496,5.675,113.14,0.966205,1.00075,3,1,0
380019896,11.808,11.7417,6.4108,5.8794,113.658,0.966077,1.00275,3,1,0
380319893,12.0048,11.7482,6.2496,6.04774,114.183,0.965943,1.00087,3,1,0
380621515,11.9392,11.7226,6.3984,6.09074,114.699,0.965804,1.00192,3,1,0
380921727,11.808,11.755,5.9272,6.14596,115.218,0.96566,1.0,3,1,0
381223094,11.8408,11.7885,6.1504,6.19252,115.742,0.965514,1.0,3,1,0
381524707,11.9064,11.7982,6.4356,6.25544,116.274,0.965364,1.0,3,1,0
381824804,11.9392,11.8278,6.5968,6.31329,116.808,0.965212,1.0,3,1,0
382126277,11.3242,11.7945,6.0512,6.31549,117.338,0.965057,1.00273,3,1,0
382427877,10.7748,11.7005,5.5304,6.20398,117.845,0.952698,1.00814,3,1,0
382727913,11.193,11.6477,5.6916,6.1243,118.345,0.937962,1.01071,3,1,0
383029488,11.1684,11.624,6.0016,6.13316,118.86,0.934803,1.01126,3,1,0
383330292,10.824,11.6152,5.7164,6.13854,119.375,0.936902,1.01089,3,1,0
383631095,11.2586,11.5289,6.0636,6.08179,119.875,0.90074,1.01724,3,1,0
383932745,11.9638,11.5524,6.6092,6.14244,120.398,0.91572,1.0146,3,1,0
384232788,11.8736,11.5944,6.2992,6.19944,120.922,0.938659,1.01058,3,1,0
384533515,11.9474,11.6653,6.696,6.27891,121.457,0.963818,1.00433,3,1,0
384833676,11.8326,11.702,6.2,6.31544,121.988,0.96366,1.00102,3,1,0
385135151,11.9064,11.7344,6.2744,6.32919,122.52,0.963502,1.0,3,1,0
385436888,11.7588,11.7678,6.2,6.34797,123.054,0.963343,1.0,3,1,0
385736738,11.8326,11.7997,6.2,6.36994,123.587,0.963184,1.0,3,1,0
386038297,11.8572,11.8185,6.2248,6.379,124.122,0.963023,1.0,3,1,0
386338344,12.0048,11.7875,6.448,6.32271,124.642,0.962863,1.00093,3,1,0
386639896,11.7506,11.79,6.2744,6.33262,125.172,0.962704,1.0,3,1,0
386941501,12.0048,11.8108,6.5348,6.33431,125.702,0.962544,1.0,3,1,0
387241532,11.9064,11.7908,6.3488,6.31586,126.225,0.962384,1.0,3,1,0
387543118,11.7834,11.7816,6.1504,6.2989,126.749,0.962225,1.0,3,1,0
387844780,11.9228,11.7996,6.5224,6.3417,127.286,0.962065,1.0,3,1,0
388144695,11.8408,11.8141,6.3736,6.32852,127.811,0.961905,1.0,3,1,0
388446333,11.8572,11.8221,6.7084,6.36864,128.35,0.961744,1.0,3,1,0
388746293,11.9146,11.8307,6.076,6.35376,128.878,0.961583,1.0,3,1,0
389047897,11.9392,11.7911,6.696,6.27263,129.392,0.961423,1.00123,3,1,0
389349536,11.8244,11.8097,6.262,6.29266,129.922,0.961263,1.0,3,1,0
389649655,11.9556,11.8023,6.3984,6.26813,130.442,0.961104,1.0,3,1,0
389951119,11.849,11.8162,6.2992,6.26995,130.968,0.960944,1.0,3,1,0
390253226,11.9392,11.7979,6.4232,6.24103,131.487,0.960786,1.0,3,1,0
390552752,11.644,11.7826,6.2,6.21678,132.001,0.960627,1.00005,3,1,0
390854318,11.972,11.8013,6.5844,6.26967,132.533,0.960469,1.0,3,1,0
391154307,11.9392,11.8073,6.6216,6.30165,133.062,0.960309,1.00001,3,1,0
391455965,11.89,11.8043,6.448,6.29876,133.589,0.96015,1.00008,3,1,0
391757554,11.972,11.8198,6.4852,6.32853,134.123,0.95999,1.0,3,1,0
392057511,11.8408,11.8217,6.1132,6.32014,134.648,0.959831,1.00007,3,1,0
392359125,11.8982,11.8064,6.2496,6.29547,135.172,0.959671,1.00001,3,1,0
392659925,12.0048,11.7771,6.696,6.28214,135.695,0.959512,1.00057,3,1,0
392959885,11.808,11.7907,6.2248,6.31003,136.223,0.959353,1.0,3,1,0
393259915,11.6768,11.7934,6.3488,6.30647,136.747,0.959193,1.00002,3,1,0
393561583,11.767,11.8063,6.1256,6.29944,137.275,0.959034,1.0,3,1,0
393863152,11.2176,11.7794,5.9396,6.29304,137.803,0.958874,1.00249,3,1,0
394163119,11.1028,11.668,5.766,6.16843,138.301,0.943857,1.00968,3,1,0
394463923,10.7994,11.6143,5.6296,6.09622,138.801,0.927238,1.01258,3,1,0
394764038,11.9884,11.5941,6.2992,6.08312,139.306,0.924567,1.01305,3,1,0
395065478,11.808,11.6519,5.9148,6.12934,139.826,0.957509,1.00731,3,1,0
395365547,11.2832,11.648,5.6792,6.07401,140.325,0.958092,1.0069,3,1,0
395666323,11.2668,11.6087,5.6048,5.97753,140.811,0.944436,1.00958,3,1,0
395978506,11.767,11.5514,6.0512,5.907,141.314,0.919781,1.01389,3,1,0
396267963,11.7752,11.5666,5.8404,5.92352,141.792,0.928905,1.01229,3,1,0
396569573,10.6928,11.5708,5.6668,5.97685,142.299,0.932447,1.01167,3,1,0
396881538,11.7752,11.6009,6.014,5.99324,142.821,0.948003,1.00896,3,1,0
397182348,11.2832,11.5795,5.828,5.94234,143.311,0.938768,1.01056,3,1,0
397482363,11.2094,11.5569,5.7164,5.89229,143.796,0.928696,1.01232,3,1,0
397783907,12.013,11.6057,6.1752,5.96057,144.303,0.952521,1.00817,3,1,0
398083915,11.808,11.6601,5.9272,6.00781,144.81,0.956719,1.00363,3,1,0
398385682,11.8408,11.7051,5.8652,6.01741,145.315,0.956567,1.0,3,1,0
398687163,10.8076,11.707,5.0344,5.94209,145.806,0.956415,1.00201,3,1,0
398987104,11.5292,11.6616,5.642,5.81203,146.274,0.956266,1.00518,3,1,0
399288755,11.4144,11.6132,5.5552,5.67887,146.732,0.949295,1.00873,3,1,0
399589528,11.8408,11.6216,5.6916,5.64262,147.199,0.955239,1.0077,3,1,0
399889493,11.4472,11.672,5.4436,5.60142,147.66,0.955827,1.0033,3,1,0
400189518,11.8572,11.7097,5.3072,5.52632,148.111,0.955684,1.00003,3,1,0
400491088,11.808,11.7506,5.3072,5.48669,148.566,0.955541,1.0,3,1,0
400791947,12.0294,11.7726,5.6544,5.39139,149.004,0.955401,1.0,3,1,0
401091978,11.7588,11.7804,5.2576,5.35442,149.446,0.955262,1.0,3,1,0
401393543,11.9884,11.7837,5.518,5.31179,149.886,0.955124,1.0002,3,1,0
401693615,11.8736,11.8006,5.1088,5.30268,150.327,0.954987,1.0,3,1,0
401994336,11.7096,11.8056,5.4932,5.32799,150.775,0.954851,1.00031,3,1,0
402294307,11.972,11.8233,5.58,5.35476,151.224,0.954715,1.0,3,1,0
402595907,11.7506,11.8349,5.3568,5.41119,151.685,0.954578,1.0,3,1,0
402895920,11.767,11.7834,5.4064,5.33648,152.12,0.954442,1.00202,3,1,0
403197528,11.7752,11.7499,5.4312,5.35674,152.572,0.954307,1.00281,3,1,0
403499148,11.7588,11.7735,5.6172,5.45944,153.041,0.95417,1.0,3,1,0
403799107,11.8162,11.7047,5.3816,5.46128,153.495,0.954033,1.00442,3,1,0
404100716,11.9392,11.6846,6.076,5.51344,153.964,0.953894,1.00503,3,1,0
404412707,11.8818,11.6754,5.9892,5.61452,154.461,0.953749,1.00493,3,1,0
404714374,11.7506,11.6053,6.138,5.58137,154.925,0.941515,1.01009,3,1,0
405003913,10.7338,11.5534,5.2576,5.61665,155.381,0.919554,1.01393,3,1,0
405315898,11.9392,11.5436,6.0512,5.6426,155.874,0.917152,1.01435,3,1,0
405617584,11.8982,11.5574,5.828,5.75461,156.368,0.925478,1.01289,3,1,0
405917518,11.9228,11.5916,6.1132,5.86645,156.872,0.943064,1.00982,3,1,0
406219280,11.8572,11.4893,6.1132,5.80153,157.349,0.895395,1.01818,3,1,0
406508788,10.496,11.4251,5.3196,5.80543,157.814,0.865609,1.02348,3,1,0
406820739,11.8162,11.441,6.0388,5.88702,158.335,0.873824,1.02202,3,1,0
407121502,11.9392,11.4556,6.4728,5.95118,158.84,0.881241,1.0207,3,1,0
407421493,12.0048,11.4935,6.6588,6.02713,159.351,0.89971,1.01742,3,1,0
407723112,10.332,11.4138,5.2576,5.97847,159.848,0.862053,1.02412,3,1,0
408023142,10.127,11.3444,5.3692,5.91858,160.334,0.829211,1.03003,3,1,0
408324816,9.594,11.3329,4.5012,5.92951,160.834,0.823929,1.03099,3,1,0
408626293,10.6928,11.2773,5.3072,5.90283,161.325,0.797556,1.0358,3,1,0
408926309,10.3238,11.26,5.1584,5.85311,161.806,0.789427,1.03729,3,1,0
409227909,10.3812,11.281,5.0964,5.8308,162.293,0.799513,1.03544,3,1,0
409529519,11.2012,11.3325,5.58,5.82034,162.78,0.824114,1.03096,3,1,0
409829500,10.7994,11.3268,5.2948,5.71891,163.246,0.821436,1.03145,3,1,0
410131106,10.5534,11.2985,4.7988,5.6056,163.702,0.808007,1.03389,3,1,0
410443157,11.6358,11.3431,5.6544,5.59777,164.186,0.829304,1.03002,3,1,0
410744794,11.2258,11.3737,5.2824,5.57442,164.651,0.843886,1.02738,3,1,0
411034332,11.9474,11.403,5.58,5.52435,165.09,0.857817,1.02488,3,1,0
411346449,11.4144,11.3745,5.456,5.43108,165.548,0.844282,1.02731,3,1,0
411647898,10.3648,11.3567,4.4268,5.33323,165.984,0.835838,1.02884,3,1,0
411947917,10.3812,11.3413,7.8864,5.85452,166.52,0.830869,1.02973,3,1,0
412249628,10.086,11.3346,8.2336,6.99629,167.25,0.832971,1.02935,3,1,0
412539102,11.8736,11.3359,10.8252,8.09254,168.038,0.839372,1.0282,3,1,0
412851115,10.4058,11.2734,9.3992,8.85857,168.904,0.814834,1.03265,3,1,0
413152711,11.7424,11.2765,10.2176,9.37917,169.755,0.820188,1.03167,3,1,0
413452748,11.8408,11.2976,10.1432,9.62157,170.587,0.833233,1.02931,3,1,0
413754434,11.6276,11.259,10.168,9.72435,171.413,0.817203,1.03221,3,1,0
414055149,11.5866,11.2462,10.0192,9.77853,172.237,0.812941,1.03299,3,1,0
414355159,11.5784,11.22,10.1184,9.85961,173.069,0.801886,1.03501,3,1,0
414656757,11.6276,11.2549,10.7508,9.98172,173.92,0.819585,1.03178,3,1,0
414956693,11.8162,11.2677,10.5276,9.99867,174.755,0.826558,1.03052,3,1,0
415258300,11.5702,11.2596,10.044,9.99968,175.594,0.823363,1.0311,3,1,0
415558293,11.6194,11.1928,10.0688,9.90557,176.409,0.792067,1.03681,3,1,0
415859890,11.4964,11.2018,10.0688,9.95146,177.249,0.796758,1.03595,3,1,0
416161537,11.6112,11.1871,10.168,9.96481,178.087,0.790044,1.03718,3,1,0
416461536,11.8244,11.1634,10.788,9.92492,178.907,0.779046,1.0392,3,1,0
416763214,11.0618,11.1446,9.8952,9.89487,179.735,0.770247,1.04083,3,1,0
417063128,10.7666,11.1178,9.5604,9.83368,180.547,0.757632,1.04317,3,1,0
417364733,10.2008,11.1475,9.1016,9.92523,181.392,0.771922,1.04052,3,1,0
417666335,11.0044,11.1797,9.8952,9.97503,182.234,0.787308,1.03768,3,1,0
417966293,9.5612,11.1024,8.6676,9.81186,183.032,0.750571,1.04448,3,1,0
418267918,10.2172,11.0712,9.052,9.80281,183.85,0.735759,1.04725,3,1,0
418567918,9.9876,11.073,8.804,9.77642,184.663,0.736657,1.04708,3,1,0
418869558,10.3484,11.0788,9.92,9.802,185.487,0.739437,1.04656,3,1,0
419170365,10.2992,11.0823,9.6844,9.81508,186.31,0.741147,1.04624,3,1,0
419470329,10.2418,11.0035,9.7216,9.76878,187.117,0.703658,1.05329,3,1,0
419770446,10.6026,10.962,9.9696,9.78355,187.933,0.683875,1.05705,3,1,0
420071957,11.7096,10.9867,9.0768,9.8017,188.758,0.695412,1.05486,3,1,0
420373518,11.5128,11.0394,8.0104,9.00003,189.409,0.717374,1.0507,3,1,0
420673607,11.8244,11.1245,8.3576,8.64827,190.084,0.755423,1.04358,3,1,0
420975120,11.6276,11.1239,8.37,8.30602,190.737,0.753192,1.04399,3,1,0
421275151,11.726,11.075,8.2088,8.05432,191.376,0.728441,1.04862,3,1,0
421576696,11.6932,11.1011,8.4444,7.99735,192.038,0.739681,1.04651,3,1,0
421878332,11.644,11.1071,8.2584,7.99137,192.707,0.741634,1.04615,3,1,0
422178293,11.5702,11.1188,8.3328,8.00121,193.374,0.7465,1.04524,3,1,0
422479909,11.6276,11.1409,8.4444,8.0601,194.057,0.756457,1.04338,3,1,0
422779931,11.7014,11.201,8.5064,8.1365,194.743,0.784671,1.03817,3,1,0
423081503,11.5128,11.2537,8.1096,8.18031,195.434,0.809421,1.03363,3,1,0
423383123,10.783,11.2712,7.502,8.19926,196.126,0.817504,1.03216,3,1,0
423683123,11.3242,11.2208,8.2336,8.14355,196.797,0.793285,1.03658,3,1,0
423984745,11.7588,11.2447,8.5064,8.1653,197.483,0.804533,1.03452,3,1,0
424284707,10.6026,11.2502,7.6012,8.16697,198.164,0.80705,1.03406,3,1,0
424585629,11.2832,11.3043,7.8864,8.20359,198.855,0.832721,1.0294,3,1,0
424885559,11.1848,11.3228,7.8368,8.23275,199.545,0.841443,1.02782,3,1,0
425186343,10.6272,11.3298,7.7748,8.21005,200.229,0.844705,1.02724,3,1,0
425486331,11.767,11.3653,8.494,8.21076,200.913,0.861556,1.02421,3,1,0
425787988,11.5538,11.3444,8.246,8.19132,201.596,0.851574,1.026,3,1,0
426087893,11.111,11.3564,7.936,8.17743,202.276,0.857244,1.02498,3,1,0
426389538,11.1192,11.3782,7.9856,8.19348,202.964,0.867596,1.02313,3,1,0
426701527,11.808,11.4106,8.6552,8.21639,203.681,0.882987,1.02039,3,1,0
426991108,11.4308,11.3764,8.4816,8.17664,204.333,0.866719,1.02329,3,1,0
427291937,11.8326,11.3693,8.6056,8.18521,205.017,0.863345,1.02389,3,1,0
427603911,11.357,11.3705,8.1468,8.20431,205.73,0.863919,1.02379,3,1,0
427903907,11.1356,11.3934,8.0476,8.21131,206.414,0.874831,1.02184,3,1,0
428205518,11.2422,11.4103,8.2336,8.22139,207.103,0.88284,1.02041,3,1,0
428507206,11.6276,11.4488,8.0352,8.25776,207.801,0.901192,1.01716,3,1,0
428807116,11.152,11.4324,7.8492,8.20342,208.477,0.893406,1.01854,3,1,0
429108714,11.1192,11.4144,7.8864,8.16794,209.157,0.884814,1.02006,3,1,0
429408735,11.1028,11.4179,7.8492,8.15535,209.835,0.88646,1.01977,3,1,0
429709485,11.0946,11.4267,7.8368,8.17585,210.52,0.890649,1.01902,3,1,0
430009567,11.07,11.4302,7.7748,8.15116,211.197,0.892341,1.01872,3,1,0
430311118,10.209,11.397,7.2788,8.1106,211.873,0.876536,1.02153,3,1,0
430611434,11.5538,11.4373,8.2708,8.20084,212.569,0.895679,1.01813,3,1,0
430912717,11.7424,11.425,8.804,8.20256,213.254,0.889869,1.01916,3,1,0
431214414,11.8408,11.3889,8.7296,8.14061,213.928,0.872692,1.02222,3,1,0
431514335,11.5784,11.3398,8.246,8.06189,214.589,0.849266,1.02641,3,1,0
431816139,11.5292,11.3812,8.4816,8.14361,215.282,0.869003,1.02288,3,1,0
432115891,11.6604,11.3953,8.06,8.16797,215.966,0.875702,1.02168,3,1,0
432417646,11.6358,11.3592,8.184,8.08641,216.634,0.8585,1.02476,3,1,0
432717480,11.7178,11.3369,8.5312,7.98823,217.286,0.847896,1.02666,3,1,0
433019564,11.6194,11.2572,8.1344,7.84247,217.926,0.809984,1.03353,3,1,0
433320718,11.644,11.1992,7.9608,7.73577,218.559,0.782318,1.0386,3,1,0
433620742,11.6112,11.2332,7.8864,7.78775,219.218,0.798543,1.03562,3,1,0
433922464,11.3324,11.2361,8.1096,7.86173,219.886,0.799893,1.03537,3,1,0
434222340,10.701,11.1978,7.626,7.83252,220.535,0.781635,1.03873,3,1,0
434523998,11.849,11.2494,7.9856,7.86987,221.197,0.806209,1.03422,3,1,0
434824773,11.7096,11.3178,7.936,7.9132,221.864,0.838824,1.0283,3,1,0
435125631,11.3816,11.3457,7.7872,7.9095,222.524,0.852098,1.02591,3,1,0
435427342,10.3812,11.3237,7.2788,7.82265,223.169,0.841584,1.0278,3,1,0
435727174,11.0044,11.2836,7.7872,7.84201,223.824,0.822508,1.03125,3,1,0
436027963,11.2504,11.2497,8.0848,7.81578,224.473,0.806331,1.0342,3,1,0
436327917,10.7092,11.2653,7.1424,7.79199,225.12,0.813803,1.03283,3,1,0
436629522,10.6682,11.2682,7.4276,7.77164,225.768,0.815149,1.03259,3,1,0
436941493,11.5784,11.2604,7.7872,7.71148,226.429,0.811433,1.03327,3,1,0
437243122,9.8154,11.1903,6.7084,7.59886,227.053,0.778078,1.03938,3,1,0
437543125,11.1848,11.1636,7.502,7.63274,227.693,0.765364,1.04173,3,1,0
437844695,10.5698,11.213,7.254,7.7865,228.364,0.78888,1.03739,3,1,0
438145520,10.3402,11.2148,7.0928,7.86299,229.031,0.789727,1.03724,3,1,0
438445504,10.537,11.2303,7.254,7.85973,229.687,0.797176,1.03587,3,1,0
438745507,11.48,11.2484,8.5932,7.98839,230.368,0.806371,1.03419,3,1,0
439059137,11.5784,11.1696,10.0688,8.33988,231.135,0.770722,1.04074,3,1,0
439359127,11.5784,11.0813,9.6472,8.67331,231.899,0.730894,1.04816,3,1,0
439659963,11.5292,11.0845,9.6348,8.94917,232.682,0.734154,1.04755,3,1,0
439959931,11.5538,11.103,9.5604,9.11808,233.464,0.744329,1.04564,3,1,0
440261592,11.7178,11.1473,9.9572,9.22303,234.251,0.766451,1.04153,3,1,0
440561517,11.7588,11.1694,9.6472,9.29985,235.036,0.777791,1.03943,3,1,0
440863151,10.0368,11.1887,8.432,9.30239,235.818,0.787611,1.03763,3,1,0
442066401,10.7994,11.1308,8.7172,9.24363,238.898,0.761427,1.04246,3,1,0
442367904,11.2176,11.1287,9.1016,9.23129,239.668,0.760622,1.04261,3,1,0
442667899,10.3648,11.1399,8.7668,9.26065,240.444,0.766062,1.0416,3,1,0
442969526,10.5616,11.1616,8.8908,9.27464,241.225,0.776473,1.03968,3,1,0
443271125,11.6604,11.1813,9.4116,9.28724,242.004,0.785961,1.03793,3,1,0
443571113,10.66,11.1465,8.7172,9.25658,242.772,0.769483,1.04097,3,1,0
443872781,11.4882,11.1575,9.4736,9.25393,243.545,0.774753,1.03999,3,1,0
444172746,11.5784,11.1244,9.9076,9.27319,244.319,0.759064,1.0429,3,1,0
444474406,11.5456,11.0973,9.8456,9.248,245.092,0.746164,1.0453,3,1,0
444774310,11.4964,11.066,9.5728,9.19885,245.853,0.731267,1.04809,3,1,0
445075923,11.5046,11.0717,9.6348,9.22795,246.629,0.734028,1.04757,3,1,0
445376783,11.6768,11.115,9.548,9.26724,247.407,0.754664,1.04372,3,1,0
445677493,11.5456,11.1601,9.7712,9.2765,248.184,0.776151,1.03974,3,1,0
445979109,11.6358,11.1782,9.8208,9.30396,248.966,0.784786,1.03815,3,1,0
446279141,11.7424,11.1421,9.6596,9.26642,249.733,0.76757,1.04132,3,1,0
446580693,11.562,11.1643,9.3,9.26779,250.509,0.778173,1.03936,3,1,0
446892870,11.5866,11.1829,9.424,9.31567,251.323,0.78705,1.03773,3,1,0
447182374,11.0044,11.2394,9.0024,9.3573,252.081,0.813935,1.03281,3,1,0
447494339,11.521,11.2046,9.424,9.27916,252.876,0.79735,1.03584,3,1,0
447796297,11.4882,11.2236,9.3496,9.25989,253.651,0.806458,1.03417,3,1,0
448085507,10.2008,11.2245,8.3824,9.24696,254.394,0.806838,1.0341,3,1,0
448397515,11.5948,11.211,10.0192,9.2725,255.2,0.800409,1.03528,3,1,0
448699258,11.6194,11.2612,9.5356,9.33638,255.99,0.824302,1.03092,3,1,0
448999174,11.562,11.3061,9.3744,9.36045,256.774,0.845702,1.02706,3,1,0
449300772,11.5538,11.2803,9.7216,9.31973,257.546,0.833392,1.02928,3,1,0
449600698,11.6112,11.3008,9.362,9.32267,258.323,0.843188,1.02751,3,1,0
449902377,11.5866,11.3168,9.486,9.35113,259.109,0.850814,1.02614,3,1,0
450202402,10.5616,11.3055,8.8412,9.32391,259.881,0.845429,1.02711,3,1,0
450503993,11.726,11.3168,9.8208,9.32671,260.664,0.850821,1.02614,3,1,0
450805511,10.7584,11.3219,9.1512,9.35563,261.451,0.853245,1.0257,3,1,0
451105542,10.5698,11.3165,8.556,9.31727,262.223,0.850661,1.02616,3,1,0
451407206,11.5784,11.3215,9.5852,9.35977,263.012,0.853043,1.02574,3,1,0
451707126,11.439,11.3669,9.4364,9.43767,263.807,0.87467,1.02187,3,1,0
452008718,10.6026,11.3706,8.8908,9.47382,264.607,0.876422,1.02155,3,1,0
452308772,11.152,11.3536,9.0768,9.43254,265.389,0.868316,1.023,3,1,0
452621857,10.5616,11.3622,8.6428,9.41128,266.205,0.872432,1.02226,3,1,0
452921539,11.3816,11.3669,9.548,9.42651,266.99,0.874671,1.02187,3,1,0
453223176,11.111,11.3211,9.5728,9.34627,267.762,0.852884,1.02576,3,1,0
453523118,10.0368,11.2736,8.4816,9.30869,268.535,0.830249,1.02985,3,1,0
453824707,10.0122,11.2268,8.2584,9.23538,269.299,0.807979,1.0339,3,1,0
454124691,10.6026,11.2393,8.928,9.29722,270.083,0.813918,1.03281,3,1,0
454426284,10.4632,11.2198,9.0024,9.30232,270.864,0.804679,1.0345,3,1,0
454726313,11.0618,11.2228,9.1388,9.28995,271.638,0.806055,1.03425,3,1,0
455027988,11.7424,11.2432,9.7216,9.37153,272.434,0.815806,1.03247,3,1,0
455329643,10.988,11.2477,9.0272,9.39555,273.224,0.817903,1.03209,3,1,0
455629563,10.7912,11.2777,8.9776,9.39682,274.008,0.832158,1.0295,3,1,0
455931116,10.2582,11.2491,8.6924,9.30334,274.777,0.818547,1.03197,3,1,0
456231324,10.5616,11.149,8.4568,9.11169,275.514,0.770928,1.0407,3,1,0
456531987,11.6194,11.1003,9.3124,9.09017,276.268,0.747723,1.04501,3,1,0
456831912,11.4964,11.1341,9.3496,9.14967,277.038,0.763822,1.04202,3,1,0
457133570,11.726,11.1672,9.92,9.19796,277.815,0.779546,1.03911,3,1,0
457433507,11.5538,11.1714,9.7464,9.22287,278.583,0.781591,1.03873,3,1,0
457735159,11.5948,11.1882,9.8704,9.33048,279.379,0.789586,1.03726,3,1,0
458035244,11.6112,11.1791,9.9572,9.35981,280.162,0.785238,1.03806,3,1,0
458336693,11.5456,11.1847,9.7092,9.36304,280.947,0.787914,1.03757,3,1,0
458636701,11.4554,11.1978,9.6224,9.42214,281.739,0.794128,1.03643,3,1,0
458938315,11.562,11.2005,9.7092,9.40465,282.525,0.795397,1.0362,3,1,0
459250324,11.7424,11.2061,9.6472,9.39277,283.338,0.798068,1.03571,3,1,0
459551904,11.4554,11.2027,9.2876,9.35588,284.116,0.79645,1.036,3,1,0
459852000,11.5702,11.2213,9.5232,9.32874,284.89,0.805267,1.03439,3,1,0
460153507,11.5128,11.22,9.3992,9.2569,285.656,0.804625,1.03451,3,1,0
460455192,11.7096,11.1723,9.3992,9.15028,286.407,0.781929,1.03867,3,1,0
460755138,11.7096,11.128,9.8952,9.10804,287.16,0.760873,1.04256,3,1,0
461056732,11.4882,11.1556,9.7464,9.16806,287.934,0.774006,1.04013,3,1,0
461356700,11.6604,11.1489,9.672,9.15902,288.695,0.770826,1.04072,3,1,0
461657496,11.4882,11.122,9.3744,9.09484,289.447,0.757993,1.0431,3,1,0
461957494,11.4554,11.1207,9.548,9.1012,290.205,0.757387,1.04321,3,1,0
462257615,11.5866,11.1361,9.548,9.20614,290.985,0.7647,1.04185,3,1,0
462559326,11.48,11.0723,9.5356,9.0774,291.729,0.734343,1.04751,3,1,0
462859922,11.7834,11.0358,9.6844,9.09464,292.49,0.716982,1.05077,3,1,0
463160699,11.5702,11.0977,9.362,9.19847,293.271,0.746453,1.04525,3,1,0
463462363,10.8404,11.1033,9.0396,9.18941,294.04,0.749128,1.04475,3,1,0
463762477,10.8076,11.1065,8.9404,9.1941,294.807,0.750664,1.04446,3,1,0
464064816,10.5124,11.094,8.4692,9.14398,295.569,0.744715,1.04557,3,1,0
464364004,11.521,11.1532,9.5232,9.25467,296.352,0.772925,1.04033,3,1,0
464665507,11.5128,11.1902,9.6348,9.32743,297.141,0.790503,1.03709,3,1,0
464965574,11.0536,11.2406,9.176,9.37101,297.928,0.814525,1.0327,3,1,0
465267095,10.168,11.1731,8.6428,9.26503,298.692,0.78237,1.03859,3,1,0
465579136,11.644,11.1192,9.8456,9.21739,299.484,0.756688,1.04334,3,1,0
465879893,11.5128,11.1229,9.4364,9.25874,300.262,0.758474,1.04301,3,1,0
466179896,11.644,11.1192,9.5728,9.2646,301.035,0.756704,1.04334,3,1,0
466481504,11.4226,11.1597,9.2132,9.24474,301.809,0.775963,1.03977,3,1,0
466781493,11.5374,11.1543,9.4488,9.20384,302.57,0.773397,1.04025,3,1,0
467083125,11.2832,11.1301,9.2256,9.23202,303.347,0.76189,1.04238,3,1,0
467383156,10.045,11.1079,8.184,9.1748,304.104,0.751307,1.04434,3,1,0
467683942,10.66,11.1096,8.9032,9.17576,304.87,0.752097,1.0442,3,1,0
467983907,11.0864,11.1522,9.1884,9.24233,305.649,0.77243,1.04042,3,1,0
468285635,10.5288,11.1813,8.6428,9.24854,306.425,0.786284,1.03787,3,1,0
468585508,10.6354,11.2065,8.9652,9.23124,307.191,0.798258,1.03567,3,1,0
468887395,10.5616,11.2073,8.742,9.24347,307.968,0.798625,1.03561,3,1,0
469187136,11.0946,11.1996,9.0396,9.21138,308.732,0.794945,1.03628,3,1,0
469487949,11.2012,11.1835,9.4364,9.23188,309.505,0.787319,1.03768,3,1,0
469787899,11.5046,11.1883,9.3744,9.22639,310.274,0.789591,1.03726,3,1,0
470087922,9.9794,11.1706,8.2832,9.20056,311.039,0.78117,1.03881,3,1,0
470401495,11.6768,11.2018,9.6472,9.31593,311.866,0.796046,1.03608,3,1,0
470702339,11.1192,11.188,8.9528,9.26951,312.637,0.789472,1.03728,3,1,0
471002378,10.2008,11.1654,8.0972,9.22871,313.402,0.778747,1.03926,3,1,0
471302385,10.9306,11.1245,9.1512,9.17948,314.16,0.759254,1.04286,3,1,0
471603916,11.48,11.1905,9.5108,9.30257,314.955,0.790711,1.03706,3,1,0
471903955,11.0618,11.2165,9.0024,9.31134,315.733,0.803074,1.03479,3,1,0
472205507,11.4718,11.2431,9.2256,9.35412,316.522,0.81574,1.03248,3,1,0
472505557,11.5456,11.2482,9.4116,9.30945,317.292,0.818162,1.03204,3,1,0
472807293,11.3816,11.2622,9.4736,9.34965,318.079,0.824862,1.03082,3,1,0
473107088,11.1192,11.2277,8.9032,9.26054,318.84,0.808387,1.03382,3,1,0
473408693,11.4964,11.25,9.7712,9.29375,319.622,0.818985,1.03189,3,1,0
473710300,10.7256,11.2638,8.8536,9.35044,320.413,0.825508,1.03071,3,1,0
474010370,10.578,11.238,8.9404,9.32533,321.188,0.81323,1.03294,3,1,0
474311949,11.5292,11.2108,9.5976,9.3437,321.973,0.800316,1.0353,3,1,0
474611942,11.4308,11.2124,9.3744,9.32198,322.747,0.801079,1.03516,3,1,0
474913526,11.4144,11.2336,9.7216,9.36888,323.536,0.811152,1.03332,3,1,0
475213543,11.521,11.2463,9.9324,9.40788,324.325,0.817226,1.03221,3,1,0
475514308,11.4554,11.2243,9.5976,9.3468,325.1,0.80677,1.03412,3,1,0
475814353,11.6768,11.2196,9.672,9.31905,325.875,0.80451,1.03453,3,1,0
476114345,11.4144,11.2132,9.238,9.29392,326.647,0.801454,1.03509,3,1,0
476415907,11.5128,11.2342,9.4984,9.34889,327.438,0.811479,1.03326,3,1,0
476717508,11.4636,11.2642,9.3248,9.41017,328.234,0.825734,1.03067,3,1,0
477017526,11.48,11.2646,9.6224,9.40539,329.016,0.82592,1.03063,3,1,0
477319091,11.4472,11.2956,9.5728,9.45895,329.815,0.840695,1.02796,3,1,0
477619171,11.48,11.2981,9.796,9.47989,330.606,0.841908,1.02774,3,1,0
477920885,11.5292,11.2733,9.7836,9.41601,331.386,0.830094,1.02987,3,1,0
478220764,11.4472,11.2822,9.5976,9.43852,332.176,0.834339,1.02911,3,1,0
478522385,11.0372,11.2489,8.9528,9.37048,332.953,0.818469,1.03198,3,1,0
478822481,10.5616,11.2233,8.6924,9.34157,333.729,0.806298,1.0342,3,1,0
479123910,10.332,11.1853,8.618,9.28818,334.501,0.788203,1.03752,3,1,0
479424006,11.234,11.2141,9.7092,9.36287,335.29,0.801906,1.035,3,1,0
479725508,10.496,11.2167,8.7544,9.37371,336.077,0.803123,1.03478,3,1,0
480025511,10.742,11.2348,8.9528,9.41192,336.868,0.811729,1.03321,3,1,0
480327118,11.029,11.2181,9.362,9.3969,337.656,0.803817,1.03466,3,1,0
480639150,11.357,11.1902,9.548,9.37519,338.466,0.790507,1.03709,3,1,0
480940706,11.5948,11.2049,9.7464,9.39998,339.256,0.797503,1.03581,3,1,0
481240880,11.4144,11.2094,9.6472,9.38942,340.036,0.79967,1.03541,3,1,0
481542419,10.4878,11.2237,8.6304,9.40637,340.828,0.806441,1.03418,3,1,0
481842324,11.0208,11.2004,9.2504,9.36193,341.603,0.795383,1.0362,3,1,0
482143907,10.9962,11.2446,9.2132,9.43513,342.402,0.816407,1.03236,3,1,0
482445528,11.4554,11.2831,9.4364,9.49825,343.205,0.834711,1.02904,3,1,0
482745552,11.0044,11.2931,9.176,9.49486,343.997,0.839485,1.02818,3,1,0
483046278,11.0864,11.288,9.2504,9.47426,344.786,0.837033,1.02862,3,1,0
483346327,11.3898,11.2661,9.6968,9.4593,345.571,0.826615,1.03051,3,1,0
483646280,11.3734,11.2323,9.6968,9.40883,346.348,0.810521,1.03343,3,1,0
483947893,11.0618,11.2053,9.4116,9.38828,347.132,0.797693,1.03578,3,1,0
484247895,11.2422,11.1953,9.4116,9.37161,347.911,0.792947,1.03665,3,1,0
484549530,10.4632,11.2096,8.866,9.47481,348.719,0.79974,1.0354,3,1,0
484849477,10.2172,11.1808,8.6428,9.46471,349.507,0.786044,1.03791,3,1,0
485151104,10.7584,11.1216,13.268,10.1589,350.425,0.759987,1.04273,3,1,0
485451159,10.2992,11.058,12.4496,11.3589,351.526,0.733317,1.0477,3,1,0
485752726,11.2258,11.0382,13.5408,12.1321,352.64,0.726634,1.04896,3,1,0
486064724,11.0208,11.0574,13.1936,12.6794,353.808,0.738005,1.04683,3,1,0
486366320,10.5862,10.9906,13.1936,12.855,354.908,0.707935,1.05248,3,1,0
486667546,9.9384,10.9063,19.8648,14.697,356.343,0.673331,1.05907,3,1,0
486967900,10.0696,10.9052,19.3688,16.8737,358.03,0.680942,1.05761,3,1,0
487269806,10.2418,10.8843,19.3192,18.1684,359.72,0.677813,1.05821,3,1,0
487569493,10.701,10.8891,19.8648,18.948,361.395,0.685394,1.05676,3,1,0
487870335,10.0368,10.8627,19.2572,19.3202,363.059,0.67691,1.05838,3,1,0
488170468,10.1352,10.8014,19.1952,19.4749,364.702,0.650893,1.06338,3,1,0
488470298,10.3074,10.7742,19.5052,19.5713,366.345,0.640406,1.06541,3,1,0
488771937,11.2258,10.8062,20.4352,19.7782,368.027,0.65757,1.06209,3,1,0
489071969,11.0864,10.8195,20.026,19.8043,369.681,0.665382,1.06059,3,1,0
489373562,11.0372,10.8394,20.0136,19.8576,371.351,0.675993,1.05856,3,1,0
489673528,11.2586,10.8571,20.1376,19.8685,373.008,0.685318,1.05678,3,1,0
489975126,11.1684,10.8341,19.9392,19.7628,374.65,0.675095,1.05873,3,1,0
490275158,11.152,10.8245,19.84,19.7091,376.286,0.671082,1.0595,3,1,0
490576811,11.1192,10.8325,19.9764,19.6722,377.929,0.675317,1.05869,3,1,0
490876693,11.193,10.8287,19.84,19.6353,379.56,0.673836,1.05897,3,1,0
491177522,11.07,10.8412,19.7656,19.6673,381.208,0.680012,1.05779,3,1,0
491489520,10.742,10.8559,19.1456,19.6335,382.906,0.687263,1.05641,3,1,0
491779110,11.0864,10.8477,19.716,19.5326,384.465,0.6835,1.05712,3,1,0
492091144,10.7584,10.8229,19.2696,19.4269,386.137,0.671791,1.05936,3,1,0
492391943,11.152,10.8113,19.8028,19.3918,387.753,0.666371,1.0604,3,1,0
492691951,11.0372,10.8225,19.8896,19.4143,389.372,0.671755,1.05937,3,1,0
492991944,11.029,10.8497,19.9392,19.4984,391.007,0.684771,1.05688,3,1,0
493293547,11.0864,10.8309,19.8152,19.5154,392.644,0.675835,1.05859,3,1,0
493593561,11.1848,10.8314,19.8524,19.5254,394.272,0.676134,1.05853,3,1,0
493894388,11.2012,10.8186,19.964,19.512,395.9,0.670033,1.0597,3,1,0
494194320,11.111,10.8141,19.6168,19.445,397.513,0.667911,1.06011,3,1,0
494495931,10.9224,10.8041,19.7036,19.4239,399.136,0.663177,1.06102,3,1,0
494795948,10.9224,10.8062,19.4432,19.3987,400.75,0.664205,1.06082,3,1,0
495097561,11.0864,10.8095,19.344,19.3754,402.372,0.665767,1.06052,3,1,0
495397545,10.8896,10.8082,19.3068,19.3253,403.976,0.665197,1.06063,3,1,0
495699158,10.9388,10.7948,19.6168,19.2874,405.587,0.658507,1.06191,3,1,0
495999109,11.1684,10.7985,18.414,19.1268,407.164,0.657865,1.06204,3,1,0
496299899,11.0208,10.8038,17.2856,18.537,408.639,0.657674,1.06207,3,1,0
496599937,11.3242,10.8488,15.128,17.5973,409.996,0.675238,1.0587,3,1,0
496899894,11.439,10.8828,12.0032,15.9246,411.123,0.685587,1.05673,3,1,0
497201577,11.1848,10.9535,8.3328,13.2712,411.906,0.709646,1.05216,3,1,0
497502339,10.9634,11.0271,6.5224,10.9436,412.53,0.734623,1.04746,3,1,0
497803158,11.3816,11.0681,7.7128,9.48852,413.137,0.745859,1.04536,3,1,0
498104814,11.398,11.0994,8.1096,8.67278,413.758,0.754299,1.04379,3,1,0
498404720,10.865,11.1274,7.2168,8.24338,414.391,0.762615,1.04224,3,1,0
498706331,11.07,11.1597,8.5188,8.10012,415.047,0.774495,1.04004,3,1,0
499006298,10.8896,11.1466,8.7048,8.36946,415.776,0.767059,1.04142,3,1,0
499307933,10.1024,11.1039,8.2584,8.6257,416.533,0.746343,1.04527,3,1,0
499607979,10.1926,11.0672,8.1716,8.78538,417.287,0.728605,1.04859,3,1,0
499909534,10.742,11.0745,8.5064,8.86239,418.039,0.731916,1.04797,3,1,0
500209517,10.9552,11.1066,8.7544,8.99547,418.805,0.74712,1.04512,3,1,0
500511167,11.3816,11.1374,9.114,9.04259,419.569,0.761719,1.04241,3,1,0
500811108,10.9798,11.1649,8.618,8.99438,420.312,0.774768,1.03999,3,1,0
501123955,11.0864,11.1777,8.5064,8.96324,421.086,0.780746,1.03889,3,1,0
501423907,11.2176,11.1874,8.5436,8.83586,421.807,0.785336,1.03804,3,1,0
501724007,10.9962,11.2017,8.3824,8.86501,422.55,0.792119,1.0368,3,1,0
502025539,11.0372,11.2081,8.8536,8.85994,423.291,0.795141,1.03624,3,1,0
502325534,11.1274,11.2192,8.5684,8.83746,424.024,0.800434,1.03527,3,1,0
502627284,11.1192,11.2383,8.432,8.87014,424.772,0.809496,1.03362,3,1,0
502927177,11.3734,11.2487,8.7544,8.81068,425.498,0.814371,1.03273,3,1,0
503228677,11.6522,11.2938,3.968,7.38337,425.947,0.830421,1.02982,3,1,0
503528693,11.5784,11.3674,0.0,4.92747,426.059,0.835461,1.0289,3,1,0
503830320,11.4554,11.4282,0.0,3.0105,426.067,0.812316,1.0331,3,1,0
504130426,11.6112,11.4744,0.0,1.83448,426.071,0.792419,1.03674,3,1,0
504431915,11.8408,11.535,0.0,1.10704,426.071,0.788711,1.03742,3,1,0
504731922,11.767,11.5779,0.0,0.668375,426.071,0.783801,1.03833,3,1,0
505033766,11.7588,11.6119,0.0,0.403665,426.071,0.780272,1.03898,3,1,0
505335125,11.8326,11.6376,0.0,0.246477,426.072,0.777208,1.03954,3,1,0
505635232,11.8162,11.6442,0.0,0.149085,426.072,0.768402,1.04117,3,1,0
505936713,11.7916,11.6578,0.0,0.0971139,426.073,0.765624,1.04168,3,1,0
506236738,11.8326,11.6719,0.0,0.065109,426.075,0.7651,1.04178,3,1,0
506538298,11.8572,11.6788,0.0,0.0610497,426.079,0.762805,1.04221,3,1,0
506838373,11.7916,11.6745,0.0,0.0391863,426.08,0.756361,1.0434,3,1,0
507139998,11.8162,11.6932,0.0372,0.0252705,426.08,0.761887,1.04238,3,1,0
507439893,11.8654,11.711,0.0,0.0436803,426.086,0.767705,1.0413,3,1,0
507741520,11.7588,11.7289,0.0,0.0367326,426.088,0.774207,1.0401,3,1,0
508041607,11.808,11.7416,0.2108,0.0313032,426.09,0.778626,1.03928,3,1,0
508342325,11.6358,11.7463,0.0,0.0356869,426.094,0.779661,1.03909,3,1,0
508642454,11.6522,11.7508,0.0,0.0241141,426.094,0.780818,1.03888,3,1,0
508954322,11.8572,11.7481,0.0124,0.0246085,426.097,0.778734,1.03926,3,1,0
509255907,11.8162,11.7485,0.1488,0.0352744,426.1,0.778377,1.03933,3,1,0
509555960,11.849,11.7616,0.1612,0.0481132,426.106,0.784161,1.03826,3,1,0
509857497,11.8408,11.7769,0.0,0.040895,426.109,0.791097,1.03699,3,1,0
510157527,11.8408,11.7891,0.0,0.0515434,426.115,0.796634,1.03597,3,1,0
510458306,11.9064,11.7824,0.1488,0.0407555,426.117,0.793233,1.03659,3,1,0
510758299,11.8818,11.7888,0.186,0.0356858,426.119,0.796104,1.03607,3,1,0
511059088,11.849,11.7949,0.0496,0.0370552,426.122,0.798905,1.03555,3,1,0
511359150,11.8654,11.797,0.0,0.0393562,426.126,0.799785,1.03539,3,1,0
511659197,11.9228,11.8079,0.0,0.0347914,426.128,0.804901,1.03446,3,1,0
511960696,11.8408,11.8123,0.31,0.0532669,426.135,0.806908,1.03409,3,1,0
512260755,11.7998,11.8175,0.062,0.0447284,426.138,0.809346,1.03365,3,1,0
512561493,11.9146,11.8208,0.0,0.0566425,426.144,0.810873,1.03337,3,1,0
512861743,11.808,11.8212,0.0,0.0614711,426.15,0.811043,1.03334,3,1,0
513163153,11.8654,11.8239,0.0,0.0491232,426.152,0.812329,1.0331,3,1,0
513463288,11.849,11.8266,0.0248,0.0529478,426.157,0.813597,1.03287,3,1,0
513764721,11.8162,11.8308,0.0496,0.0592546,426.163,0.815591,1.03251,3,1,0
514064733,11.9064,11.8343,0.124,0.074036,426.171,0.817232,1.03221,3,1,0
514365507,11.8408,11.8443,0.0,0.0732854,426.177,0.821982,1.03135,3,1,0
514665508,11.685,11.8469,0.0,0.0622375,426.181,0.823225,1.03112,3,1,0
514965590,11.644,11.8417,0.0,0.0735466,426.188,0.820728,1.03157,3,1,0
515266302,11.6358,11.8221,0.0,0.0681139,426.193,0.811413,1.03327,3,1,0
515566320,11.6932,11.8164,0.0248,0.0721055,426.2,0.808702,1.03376,3,1,0
515867133,11.8736,11.822,0.0496,0.0611557,426.204,0.81134,1.03328,3,1,0
516167947,11.8244,11.8303,0.0,0.066936,426.21,0.815288,1.03256,3,1,0
516469505,11.8736,11.8397,0.0,0.0598446,426.214,0.819756,1.03175,3,1,0
516769526,11.89,11.8472,0.0,0.0563198,426.218,0.823357,1.0311,3,1,0
517071112,11.7834,11.849,0.0248,0.0604464,426.223,0.824184,1.03095,3,1,0
517371120,11.89,11.8528,0.0,0.0544762,426.227,0.825989,1.03062,3,1,0
517672726,11.8982,11.8592,0.0248,0.0763536,426.237,0.829064,1.03006,3,1,0
517984707,11.9146,11.8639,0.2356,0.0785409,426.244,0.831286,1.02966,3,1,0
518285545,11.8408,11.8679,0.2604,0.10675,426.256,0.833191,1.02931,3,1,0
518585507,11.9392,11.8742,0.0496,0.103054,426.265,0.836183,1.02877,3,1,0
518885511,11.9392,11.8785,0.3596,0.13391,426.28,0.83822,1.02841,3,1,0
519187104,11.8408,11.8813,0.2604,0.112048,426.286,0.839572,1.02816,3,1,0
519487108,11.9884,11.8893,0.0,0.0868937,426.29,0.843386,1.02747,3,1,0
519788696,11.8982,11.8926,0.186,0.0759364,426.295,0.844979,1.02719,3,1,0
520088810,11.9146,11.896,0.0,0.0858835,426.304,0.846559,1.0269,3,1,0
520390332,11.849,11.894,0.062,0.0766961,426.31,0.845619,1.02707,3,1,0
520691141,11.9802,11.894,0.0,0.0783473,426.317,0.845637,1.02707,3,1,0
520991923,11.8818,11.8942,0.1984,0.1039,426.328,0.84573,1.02705,3,1,0
521293507,11.8572,11.8923,0.0992,0.109222,426.338,0.844836,1.02721,3,1,0
521593554,11.9392,11.8947,0.0,0.100288,426.346,0.847623,1.02671,3,1,0
521894337,11.8818,11.8944,0.0744,0.107394,426.356,0.853096,1.02573,3,1,0
522194391,11.9228,11.8927,0.1488,0.11658,426.367,0.863145,1.02392,3,1,0
522494308,11.9064,11.8946,0.0,0.0927633,426.372,0.870806,1.0208,3,1,0
522795907,11.8818,11.897,0.1488,0.102162,426.382,0.870803,1.01726,3,1,0
523095950,11.9146,11.8955,1.0044,0.313163,426.432,0.8708,1.01337,3,1,0
523397526,11.9392,11.8871,3.7324,0.92838,426.581,0.870791,1.00945,3,1,0
523697493,11.3898,11.8347,8.5932,3.13335,427.103,0.870761,1.00828,3,1,0
523999103,11.3324,11.7488,14.4336,6.20223,427.996,0.87069,1.00959,3,1,0
524299326,11.1274,11.6447,21.7992,11.1468,429.53,0.870552,1.01249,3,1,0
524600769,11.1602,11.5304,21.2784,15.0722,431.293,0.870329,1.01668,3,1,0
524902340,11.1192,11.4438,20.7824,17.351,433.037,0.870038,1.01977,3,1,0
525202404,10.9962,11.3771,20.4848,18.6477,434.757,0.869695,1.02214,3,1,0
525503949,11.1356,11.3262,20.6708,19.4526,436.489,0.863306,1.0239,3,1,0
525803907,11.2176,11.2869,20.3608,19.8714,438.199,0.855796,1.02524,3,1,0
526105608,10.9634,11.24,20.2244,20.0646,439.906,0.842169,1.02769,3,1,0
526405541,11.0208,11.1997,20.2616,20.153,441.596,0.829761,1.02994,3,1,0
526706304,11.234,11.1743,20.46,20.1812,443.286,0.82295,1.03117,3,1,0
527006333,11.0946,11.1446,20.5468,20.168,444.965,0.812896,1.033,3,1,0
527306294,11.0536,11.1274,20.4724,20.1679,446.647,0.807901,1.03391,3,1,0
528519982,11.193,11.0751,20.3112,20.105,453.425,0.790085,1.03717,3,1,0
528819915,10.988,11.0719,19.9392,20.0554,455.09,0.789498,1.03728,3,1,0
529121523,11.0044,11.0686,19.9888,20.0067,456.759,0.788626,1.03744,3,1,0
529421522,11.0208,11.0667,19.8648,20.0202,458.429,0.788281,1.0375,3,1,0
529723181,11.0208,11.0606,19.9144,19.9775,460.098,0.785761,1.03797,3,1,0
530023199,10.9388,11.0443,19.8896,19.9329,461.754,0.77831,1.03934,3,1,0
530324692,10.988,11.0361,19.7656,19.8967,463.415,0.774657,1.04001,3,1,0
530624746,10.9388,11.0334,19.6912,19.9543,465.085,0.773574,1.04021,3,1,0
530926294,10.9224,11.0417,19.8896,19.9956,466.766,0.77769,1.03945,3,1,0
531226293,11.0372,11.0434,20.1872,19.9632,468.426,0.778625,1.03928,3,1,0
531527918,10.9962,11.0244,19.8896,19.9583,470.096,0.769648,1.04094,3,1,0
531829570,11.1028,11.029,19.5424,19.8532,471.748,0.771916,1.04052,3,1,0
532129493,11.1848,11.0308,20.0012,19.8037,473.39,0.772853,1.04035,3,1,0
532430310,11.029,11.031,19.8524,19.7544,475.034,0.772982,1.04032,3,1,0
532730341,11.0208,11.0262,19.8152,19.7769,476.684,0.770769,1.04073,3,1,0
533030368,11.07,11.0234,19.7532,19.7692,478.331,0.769427,1.04098,3,1,0
533331152,10.9962,11.0209,19.5424,19.7479,479.978,0.768288,1.04119,3,1,0
533631096,11.1766,11.0214,19.716,19.7234,481.618,0.768526,1.04115,3,1,0
533931284,11.1356,11.0263,19.7656,19.6499,483.247,0.770888,1.04071,3,1,0
534232750,10.9634,11.0168,19.406,19.5697,484.876,0.766378,1.04154,3,1,0
534532739,11.0946,11.0123,19.2696,19.4337,486.478,0.764228,1.04194,3,1,0
534834342,10.9388,11.0042,19.3936,19.3418,488.087,0.760351,1.04266,3,1,0
535135371,10.9388,10.9885,19.1952,19.3202,489.7,0.752909,1.04404,3,1,0
535435911,10.9634,10.9852,18.8728,19.2426,491.296,0.751304,1.04434,3,1,0
535737522,10.9306,10.9728,19.0216,19.173,492.894,0.745392,1.04545,3,1,0
536037753,10.824,10.9663,18.7116,19.0632,494.471,0.742326,1.04602,3,1,0
536339362,11.1684,10.97,18.91,18.9528,496.045,0.744064,1.04569,3,1,0
536639188,10.9552,10.9811,18.7736,18.9307,497.619,0.749358,1.04471,3,1,0
536940697,10.8978,10.9759,18.7488,18.8636,499.191,0.746908,1.04516,3,1,0
537240736,10.9552,10.9706,18.5628,18.8271,500.756,0.744357,1.04564,3,1,0
537542337,10.9142,10.9639,18.7984,18.7715,502.321,0.741169,1.04623,3,1,0
537842339,10.9306,10.9634,18.7736,18.7595,503.883,0.740964,1.04627,3,1,0
538143978,10.9388,10.9668,19.096,18.8026,505.464,0.742594,1.04597,3,1,0
538443907,10.824,10.9503,19.0588,18.7964,507.029,0.734721,1.04744,3,1,0
538745495,10.7912,10.9403,18.972,18.7857,508.602,0.729938,1.04834,3,1,0
539045583,10.7912,10.9284,19.0216,18.7533,510.162,0.724293,1.0494,3,1,0
539347136,11.1192,10.928,18.5504,18.7262,511.727,0.722788,1.04968,3,1,0
539647158,10.9142,10.9466,15.004,17.4225,513.023,0.726398,1.049,3,1,0
539948677,11.07,10.9664,15.1032,16.4811,514.283,0.731331,1.04808,3,1,0
540248771,10.9962,10.987,15.1776,15.9373,515.542,0.737606,1.0469,3,1,0
540550311,11.029,11.0022,15.19,15.5895,516.803,0.7422,1.04604,3,1,0
540850301,10.8978,10.9914,18.6248,16.5365,518.286,0.737386,1.04694,3,1,0
541151919,10.9388,10.9785,18.8604,17.4055,519.855,0.732098,1.04793,3,1,0
541451979,10.9306,10.9773,18.4264,17.9002,521.412,0.732187,1.04791,3,1,0
541753515,10.8158,10.9645,18.4264,18.0852,522.95,0.726628,1.04896,3,1,0
542053517,10.9142,10.9567,18.2404,18.2477,524.491,0.723326,1.04958,3,1,0
542355141,10.8568,10.9545,18.2776,18.2872,526.028,0.722598,1.04972,3,1,0
542655123,10.9224,10.949,18.2776,18.2665,527.549,0.720409,1.05013,3,1,0
542967979,10.8732,10.942,18.0296,18.2421,529.132,0.717382,1.0507,3,1,0
543267948,11.0208,10.9374,18.0668,18.2343,530.651,0.715453,1.05106,3,1,0
543568722,10.906,10.9345,17.98,18.1683,532.16,0.714323,1.05127,3,1,0
543869528,10.865,10.9309,17.9056,18.1327,533.671,0.713014,1.05152,3,1,0
544171176,11.0782,10.925,18.5008,18.1521,535.193,0.710495,1.052,3,1,0
544471104,10.9552,10.9338,18.2528,18.131,536.701,0.714934,1.05116,3,1,0
544772819,11.152,10.9469,18.352,18.1418,538.222,0.721403,1.04994,3,1,0
545072750,10.9306,10.9473,18.2032,18.1876,539.744,0.72173,1.04988,3,1,0
545374291,10.8978,10.9508,18.4264,18.2435,541.279,0.723455,1.04955,3,1,0
545674321,10.906,10.9491,18.1784,18.307,542.813,0.722724,1.04969,3,1,0
545975167,10.8896,10.9407,18.4264,18.2918,544.34,0.718817,1.05043,3,1,0
546275122,10.9962,10.9368,18.352,18.3177,545.87,0.717018,1.05077,3,1,0
546575124,10.8322,10.9217,18.4512,18.3376,547.4,0.709886,1.05211,3,1,0
546875996,10.8486,10.9186,18.3892,18.3497,548.935,0.708419,1.05239,3,1,0
547175907,10.9634,10.9157,18.6372,18.3973,550.473,0.707071,1.05265,3,1,0
547475920,10.865,10.9107,18.3768,18.4131,552.01,0.704718,1.05309,3,1,0
547777481,10.906,10.9102,18.7116,18.4873,553.567,0.704468,1.05314,3,1,0
548077497,10.8404,10.9071,18.4264,18.5409,555.119,0.703001,1.05342,3,1,0
548379331,10.906,10.915,18.6248,18.5482,556.675,0.706784,1.0527,3,1,0
548679107,10.8404,10.9103,19.1208,18.6544,558.241,0.704544,1.05312,3,1,0
548980703,11.0618,10.9128,19.096,18.6731,559.808,0.705768,1.05289,3,1,0
549280728,11.0208,10.9184,19.096,18.7324,561.376,0.708423,1.05239,3,1,0
549582382,10.8486,10.9072,18.9224,18.7852,562.957,0.703072,1.0534,3,1,0
549894315,10.865,10.9102,19.0836,18.7984,564.586,0.704426,1.05315,3,1,0
550183917,10.9224,10.9151,18.2404,18.8239,566.105,0.70659,1.05274,3,1,0
550495914,11.234,10.9561,11.5568,16.7875,567.328,0.720832,1.05005,3,1,0
550797502,11.1192,11.008,10.1804,14.2516,568.201,0.737744,1.04687,3,1,0
551097512,11.0372,11.0357,10.168,12.6925,569.061,0.744631,1.04559,3,1,0
551399158,11.07,11.0645,10.3292,11.8221,569.941,0.753441,1.04395,3,1,0
551699893,11.0208,11.0876,10.5152,11.3178,570.822,0.76068,1.0426,3,1,0
552000861,11.0372,11.1018,10.3044,11.0328,571.71,0.764459,1.0419,3,1,0
552302413,11.1356,11.1217,10.4532,10.9025,572.606,0.771614,1.04057,3,1,0
552602616,11.0208,11.1219,10.7012,10.8363,573.501,0.769946,1.04088,3,1,0
552903139,11.2832,11.1334,10.912,10.8293,574.404,0.774055,1.04012,3,1,0
553203932,11.1766,11.1489,10.5648,10.8182,575.308,0.780329,1.03897,3,1,0
553505647,11.1028,11.1528,10.7136,10.7951,576.21,0.781315,1.03878,3,1,0
553817534,11.193,11.1633,10.9616,10.7823,577.143,0.785618,1.03799,3,1,0
554107109,11.3324,11.1825,8.99,10.3779,577.931,0.793062,1.03662,3,1,0
554419104,11.2914,11.1917,9.052,9.85519,578.719,0.795155,1.03624,3,1,0
554720736,11.2504,11.2076,8.7544,9.56166,579.483,0.800915,1.03519,3,1,0
555020698,11.2422,11.2203,8.68,9.37508,580.24,0.805486,1.03435,3,1,0
555322409,11.4144,11.2235,8.6304,9.0117,580.95,0.805068,1.03443,3,1,0
555622343,11.3816,11.2368,7.8864,8.79294,581.655,0.809572,1.0336,3,1,0
555923937,11.4226,11.2857,1.1904,6.42263,581.911,0.817819,1.0321,3,1,0
556224087,11.5456,11.3409,0.062,4.04089,581.95,0.815454,1.03253,3,1,0
556525617,11.6112,11.3893,0.0868,2.48642,581.961,0.792363,1.03675,3,1,0
556825507,11.5292,11.433,0.0,1.53427,581.968,0.771577,1.04058,3,1,0
557127180,11.5374,11.4601,0.0,0.925878,581.968,0.752178,1.04418,3,1,0
557427108,11.5948,11.4857,0.0,0.561088,581.969,0.7392,1.0466,3,1,0
557728801,11.5948,11.5117,0.1116,0.347219,581.97,0.732049,1.04794,3,1,0
558028846,11.644,11.5321,0.0,0.211924,581.971,0.726567,1.04897,3,1,0
558330333,11.6358,11.5523,0.0,0.142076,581.973,0.72432,1.04939,3,1,0
558630287,12.3328,11.5731,0.0,0.0884798,581.974,0.725049,1.04925,3,1,0
558931922,11.6358,11.583,0.0,0.057584,581.975,0.722611,1.04971,3,1,0
559231985,11.6932,11.5943,0.0,0.0391897,581.976,0.722405,1.04975,3,1,0
559533518,11.5374,11.6052,0.0124,0.026476,581.976,0.723273,1.04959,3,1,0
559833534,11.6522,11.6135,0.0,0.0182197,581.977,0.723864,1.04948,3,1,0
560135152,11.685,11.6183,0.0,0.0177451,581.978,0.723501,1.04955,3,1,0
560435222,11.5948,11.6197,0.0,0.0115385,581.979,0.722152,1.0498,3,1,0
560735945,11.6522,11.6239,0.0992,0.00966715,581.979,0.722533,1.04973,3,1,0
561035955,11.6768,11.631,0.0,0.0139135,581.981,0.7247,1.04932,3,1,0
561335919,11.6276,11.6389,0.0,0.0101837,581.981,0.72753,1.04879,3,1,0
561637682,11.7178,11.644,0.0,0.0146558,581.983,0.729184,1.04848,3,1,0
561937592,11.644,11.6505,0.0,0.0103443,581.983,0.73169,1.04801,3,1,0
562238267,11.6276,11.652,0.0,0.00905935,581.984,0.731982,1.04795,3,1,0
562550368,11.7424,11.6564,0.0,0.00692638,581.984,0.733682,1.04763,3,1,0
562851104,11.7014,11.6638,0.062,0.00590591,581.985,0.736968,1.04702,3,1,0
563151976,11.7424,11.6669,0.0,0.00595582,581.985,0.738226,1.04678,3,1,0
563453549,11.685,11.668,0.0,0.00555635,581.986,0.738573,1.04672,3,1,0
563753556,11.6768,11.6736,0.0,0.00928255,581.987,0.741114,1.04624,3,1,0
564054316,11.7588,11.678,0.0,0.00560169,581.987,0.743123,1.04587,3,1,0
564355123,11.7588,11.6832,0.0,0.0106245,581.989,0.745532,1.04542,3,1,0
564656764,11.6768,11.6854,0.0,0.0120082,581.99,0.746513,1.04524,3,1,0
564956684,11.6522,11.688,0.0,0.00904065,581.99,0.747673,1.04502,3,1,0
565257496,11.7014,11.687,0.0496,0.00644772,581.99,0.747201,1.04511,3,1,0
565557562,11.6768,11.6892,0.0,0.0043945,581.99,0.748198,1.04492,3,1,0
565857493,11.6358,11.6898,0.0,0.00402057,581.991,0.748444,1.04488,3,1,0
566159347,11.7178,11.6849,0.0,0.00242627,581.991,0.746128,1.04531,3,1,0
566459150,11.6112,11.6842,0.0,0.00215985,581.991,0.745782,1.04537,3,1,0
566760693,11.7178,11.6863,0.0,0.00130339,581.991,0.746748,1.04519,3,1,0
567060703,11.6932,11.6898,0.0,0.000786551,581.991,0.748428,1.04488,3,1,0
567373516,11.6768,11.6946,0.0,0.000835684,581.991,0.750697,1.04446,3,1,0
567673508,11.7834,11.6974,0.0,0.00222193,581.991,0.752012,1.04421,3,1,0
567973574,11.6768,11.6961,0.062,0.00507407,581.992,0.751411,1.04432,3,1,0
568274307,11.644,11.6967,0.0,0.00527495,581.992,0.751701,1.04427,3,1,0
568574401,11.726,11.7018,0.0,0.00361384,581.992,0.754119,1.04382,3,1,0
568875942,11.7424,11.7056,0.0,0.00452961,581.993,0.755922,1.04348,3,1,0
569176027,11.7096,11.7086,0.0,0.00665654,581.994,0.757361,1.04322,3,1,0
569477493,11.7506,11.7086,0.0,0.00694492,581.995,0.757341,1.04322,3,1,0
569777550,11.7178,11.7125,0.0,0.007527,581.995,0.761497,1.04245,3,1,0
570079319,11.7096,11.7169,0.0,0.0114071,581.996,0.775558,1.03985,3,1,0
570379143,11.6932,11.7133,0.1736,0.0156567,581.998,0.794416,1.03638,3,1,0
570680712,11.644,11.7067,1.364,0.328083,582.062,0.820643,1.03159,3,1,0
570980681,11.6768,11.696,2.9016,0.937479,582.212,0.823629,1.02694,3,1,0
571282377,11.6112,11.6561,8.2832,2.97249,582.705,0.823601,1.02417,3,1,0
571582409,11.2914,11.5951,10.4036,5.62395,583.5,0.823534,1.02346,3,1,0
571883965,11.2832,11.5215,15.8844,8.70266,584.604,0.823418,1.02434,3,1,0
572183961,11.1848,11.4413,20.9312,12.2796,586.068,0.82324,1.02625,3,1,0
572485554,11.1274,11.3695,20.0508,15.4619,587.772,0.822992,1.02764,3,1,0
572785542,11.152,11.3165,19.9516,17.2732,589.442,0.822686,1.02679,3,1,0
573087261,11.111,11.2681,19.964,18.3135,591.109,0.822336,1.02642,3,1,0
573387089,11.0454,11.22,19.5672,18.7988,592.737,0.821952,1.02703,3,1,0
573688737,10.9552,11.1804,19.1952,19.0406,594.364,0.821544,1.02768,3,1,0
573988793,11.0208,11.1434,19.0712,19.1187,595.968,0.821119,1.02873,3,1,0
574289535,11.0864,11.123,18.972,19.0975,597.561,0.82068,1.02882,3,1,0
574589628,10.9634,11.1079,18.9472,18.9853,599.129,0.820232,1.02883,3,1,0
574901519,10.9306,11.083,18.724,18.9378,600.765,0.81976,1.02993,3,1,0
575191172,10.9306,11.0584,19.1456,18.9316,602.286,0.819319,1.03131,3,1,0
575503264,10.9716,11.0353,18.7736,18.865,603.914,0.814651,1.03268,3,1,0
575804707,10.9962,11.0332,19.0588,18.8748,605.495,0.816251,1.03239,3,1,0
576104691,11.0208,11.0314,19.1952,18.9914,607.091,0.817419,1.03218,3,1,0
576406375,11.0618,11.0363,19.2944,19.0745,608.7,0.817427,1.03147,3,1,0
576706296,11.0864,11.0379,19.2448,19.1837,610.312,0.81695,1.0311,3,1,0
577007108,11.1192,11.0366,19.592,19.2702,611.933,0.816471,1.03105,3,1,0
577307166,10.9798,11.022,19.096,19.3095,613.549,0.815989,1.03218,3,1,0
577608677,11.0454,11.0124,19.4928,19.3362,615.171,0.813411,1.0329,3,1,0
577908780,10.9388,11.0128,19.4556,19.3738,616.79,0.814059,1.03279,3,1,0
578210309,10.9552,11.0125,19.4928,19.3877,618.416,0.81425,1.03275,3,1,0
578510319,10.988,11.0099,19.2944,19.3924,620.033,0.813286,1.03293,3,1,0
578811111,10.9552,11.0099,19.4432,19.422,621.661,0.813516,1.03289,3,1,0
579111960,11.0208,11.0051,19.5672,19.4998,623.3,0.811383,1.03327,3,1,0
579413643,11.0208,11.0077,19.6168,19.5068,624.935,0.812574,1.03303,3,1,0
579713519,10.947,11.0062,19.6292,19.5428,626.567,0.812083,1.03314,3,1,0
580015143,11.0208,11.0059,19.5176,19.5548,628.208,0.811589,1.03315,3,1,0
580315153,11.0044,11.0019,19.3564,19.5517,629.837,0.810198,1.03349,3,1,0
580616734,10.906,10.9985,19.2696,19.4851,631.461,0.80862,1.03378,3,1,0
580916693,10.9224,10.9924,19.4928,19.4405,633.074,0.805797,1.03429,3,1,0
581218341,10.988,10.9879,19.3936,19.4334,634.702,0.803663,1.03468,3,1,0
581518293,10.9306,10.9868,19.5424,19.4327,636.32,0.80316,1.03478,3,1,0
581819920,10.9716,10.9852,19.4308,19.4313,637.949,0.802402,1.03491,3,1,0
582119903,10.9962,10.98,19.3068,19.4404,639.57,0.799957,1.03536,3,1,0
582421643,10.8896,10.9795,19.3688,19.4356,641.198,0.79972,1.0354,3,1,0
582721477,11.0044,10.9658,19.22,19.3643,642.802,0.793198,1.0366,3,1,0
583022413,10.8076,10.937,19.1952,19.2832,644.403,0.77948,1.03912,3,1,0
583323368,10.8568,10.919,19.096,19.2288,646.004,0.770922,1.0407,3,1,0
583624707,10.7994,10.9018,18.7612,19.1281,647.593,0.762724,1.04222,3,1,0
