timestamp,rollspeed,pitchspeed,yawspeed,q[0],q[1],q[2],q[3]
327015088,0.037894,-0.00622018,-0.00955403,0.913752,0.010073,0.000367006,-0.406147
327070475,0.0526883,-0.0138796,-0.011468,0.913728,0.0102405,0.000228608,-0.406197
327078581,0.0526878,-0.0161131,-0.0129582,0.913702,0.0104077,8.51221e-05,-0.406252
327090505,0.0517402,-0.0173844,-0.0140183,0.91366,0.0106543,-0.000138403,-0.40634
327166576,0.0318373,-0.0304805,-0.0254143,0.913293,0.0117937,-0.00169278,-0.407129
327178549,0.0283483,-0.0265453,-0.0254167,0.913224,0.0118947,-0.00192286,-0.40728
327186618,0.0261091,-0.0232565,-0.0257362,0.913178,0.0119564,-0.00205606,-0.407381
327198489,0.0219692,-0.0177226,-0.0282983,0.913104,0.0120404,-0.00222353,-0.407543
327211243,0.0190831,-0.0132458,-0.0286134,0.913027,0.0121181,-0.00235771,-0.407711
327222605,0.0151503,-0.0113311,-0.0286134,0.912953,0.0121819,-0.00246343,-0.407876
327235282,0.0113182,-0.00856228,-0.0259541,0.912881,0.0122269,-0.00255374,-0.408034
327246564,0.00770387,-0.00802925,-0.0262737,0.912813,0.0122574,-0.00262473,-0.408186
327259446,0.00537011,-0.00548642,-0.0257499,0.912744,0.0122825,-0.00267897,-0.40834
327271215,0.00291385,-0.00250489,-0.0254262,0.912676,0.0122997,-0.00270631,-0.40849
327282571,0.00398543,-0.002284,-0.0244698,0.912611,0.012321,-0.00273352,-0.408635
327295007,0.00503158,-0.00154469,-0.0235179,0.912545,0.0123453,-0.00275401,-0.408781
327306635,0.00943627,-0.00110841,-0.0223495,0.912483,0.012393,-0.00278616,-0.408918
327318488,0.0102833,-0.00355768,-0.0240528,0.912417,0.0124501,-0.00283028,-0.409063
327326552,0.0156162,-0.00344895,-0.0221342,0.912375,0.0125028,-0.00287369,-0.409154
327338546,0.0181679,-0.0051559,-0.0222458,0.912314,0.0125986,-0.00294705,-0.409287
327350586,0.0234898,-0.0061078,-0.0217085,0.912251,0.0127119,-0.00303815,-0.409423
327362608,0.0269976,-0.00749523,-0.0200124,0.912194,0.0128447,-0.00314486,-0.409546
327374616,0.0325293,-0.00951709,-0.0173535,0.91214,0.0129997,-0.00327329,-0.409659
327384220,0.0352252,-0.00855948,-0.0143582,0.912107,0.0131292,-0.0033739,-0.409728
327395351,0.0361447,-0.00855931,-0.013847,0.912063,0.0133136,-0.00351756,-0.40982
327405060,0.0374281,-0.00962362,-0.0148033,0.912029,0.0134539,-0.00362682,-0.409888
327416147,0.0349769,-0.01037,-0.0134184,0.911985,0.0136323,-0.00377164,-0.40998
327424388,0.0354007,-0.00856023,-0.0116109,0.911958,0.0137522,-0.003868,-0.410034
327437060,0.0352903,-0.00643271,-0.00991214,0.911925,0.0139423,-0.00400123,-0.4101
327448121,0.0332688,-0.00111161,-0.00671083,0.911896,0.014127,-0.00410752,-0.410157
327456225,0.0326305,0.00293763,-0.0042675,0.911882,0.0142579,-0.00415977,-0.410185
327468205,0.0293455,0.00824142,-0.00245648,0.911864,0.0144487,-0.004209,-0.410217
327480132,0.0243516,0.0131384,-0.00097167,0.911852,0.014631,-0.00421915,-0.410237
327492225,0.0194524,0.0182602,-0.000657345,0.911843,0.0147986,-0.00419457,-0.410252
327504169,0.0150905,0.0231404,-0.000973155,0.911833,0.0149554,-0.00412984,-0.410268
327512204,0.0111451,0.0269756,9.09406e-05,0.911828,0.0150488,-0.00405987,-0.410276
327524191,0.00455576,0.0336766,8.96281e-05,0.911822,0.0151693,-0.00391282,-0.410287
327536185,-0.00163013,0.0375106,0.00243611,0.911819,0.0152721,-0.00372465,-0.410291
327548631,-0.00566701,0.0420748,0.00338884,0.911822,0.0153582,-0.0035007,-0.410283
327561250,-0.0138708,0.0412395,0.00360599,0.911828,0.0154083,-0.00325796,-0.410271
327572775,-0.0159984,0.0425079,0.00392234,0.911833,0.015439,-0.00300082,-0.41026
327585179,-0.0230192,0.047302,0.00338331,0.911839,0.0154468,-0.00271307,-0.410248
327596623,-0.0311116,0.0524086,0.00295922,0.911844,0.0154209,-0.00237862,-0.41024
327608942,-0.0371608,0.0601713,-0.000553503,0.911843,0.0153811,-0.00198938,-0.410245
327616690,-0.0438803,0.0619818,-0.00151853,0.91184,0.0153349,-0.00170032,-0.410255
327628651,-0.0498082,0.0665595,-0.00417189,0.911832,0.0152428,-0.00123651,-0.410279
327640322,-0.0570715,0.0658133,-0.00651559,0.911818,0.0151121,-0.000745869,-0.410316
327648863,-0.0572766,0.0642184,-0.00853555,0.911804,0.0150143,-0.000421139,-0.410351
327662398,-0.057516,0.0645513,-0.0118361,0.911777,0.0148656,6.43595e-05,-0.410418
327672265,-0.0578184,0.0621157,-0.0141888,0.911744,0.014696,0.000549873,-0.410497
327681281,-0.0557055,0.0633816,-0.0161933,0.911717,0.0145988,0.000868845,-0.410559
327692179,-0.0484472,0.0616787,-0.018223,0.911672,0.0144728,0.0013388,-0.410662
327700181,-0.0453816,0.0602964,-0.0196038,0.91164,0.0144071,0.00163422,-0.410735
327712181,-0.0391974,0.0549577,-0.0207878,0.911587,0.0143248,0.00205099,-0.410853
327724265,-0.0309111,0.0477512,-0.0208784,0.911532,0.0142669,0.00240939,-0.410975
327733073,-0.0280177,0.0397433,-0.0212004,0.911496,0.0142306,0.00261151,-0.411055
327744207,-0.0221786,0.0309234,-0.0206687,0.911442,0.0141876,0.00285424,-0.411174
327756155,-0.015911,0.0224096,-0.0158785,0.911396,0.0141583,0.00303515,-0.411276
327764229,-0.0115577,0.0171959,-0.0139781,0.911369,0.0141431,0.00312382,-0.411335
327777137,-0.00653559,0.0147464,-0.00916679,0.91134,0.0141389,0.00322802,-0.411398
327784161,-0.00239155,0.0126206,-0.00651601,0.911326,0.0141493,0.00328161,-0.411429
327796785,0.00143805,0.0121975,-0.000119543,0.911316,0.0141804,0.00334481,-0.411449
327808183,0.00463555,0.0110222,0.00392278,0.911319,0.0142341,0.00339929,-0.411442
327816876,0.00889501,0.00953241,0.00818812,0.911328,0.0142801,0.00342086,-0.411419
327828181,0.0129386,0.00899953,0.0140316,0.911354,0.0143682,0.00344321,-0.411359
327838436,0.0163237,0.0095315,0.0173734,0.911383,0.0144583,0.0034525,-0.411291
327849782,0.0198488,0.00644531,0.0227541,0.911431,0.0145796,0.00344718,-0.411181
327857767,0.0210228,0.00591334,0.0260565,0.91147,0.0146659,0.00343448,-0.41109
327870491,0.0226217,0.00419794,0.0288259,0.911536,0.0148045,0.00339761,-0.41094
327882721,0.0226227,0.00207011,0.031061,0.911607,0.0149371,0.00335389,-0.410777
327893756,0.0244335,-0.000587642,0.0340455,0.911687,0.0150695,0.00329323,-0.410597
327905806,0.0235773,-0.00292759,0.0359546,0.91177,0.0151929,0.00322164,-0.410409
327914655,0.02123,-0.00325248,0.0384071,0.91183,0.0152693,0.00316904,-0.410272
327926252,0.020919,-0.00378376,0.0383009,0.911921,0.0153736,0.00309802,-0.410067
327938610,0.0161269,-0.00527011,0.0374421,0.912013,0.0154558,0.0030295,-0.409858
327950471,0.0137915,-0.0053793,0.0353192,0.912101,0.0155194,0.00296365,-0.409662
327961840,0.00771387,-0.00730409,0.0333997,0.912185,0.0155578,0.00290058,-0.409472
327970436,0.00357304,-0.00825301,0.0312756,0.912237,0.0155635,0.00286334,-0.409358
327982342,0.00228494,-0.0105975,0.0266993,0.912306,0.015554,0.00280027,-0.409205
327994788,-0.00111181,-0.0115491,0.0213841,0.912364,0.0155233,0.0027388,-0.409077
328006264,-0.00388151,-0.0105951,0.0195751,0.912414,0.0154809,0.0026864,-0.408966
328018587,-0.00504076,-0.00963471,0.0138218,0.912453,0.0154363,0.00264313,-0.408881
328025752,-0.00461241,-0.00846607,0.0119183,0.912474,0.0154042,0.0026176,-0.408835
328037728,-0.00611294,-0.0075079,0.00531217,0.912493,0.0153571,0.00258703,-0.408795
328050513,-0.00717552,-0.00644366,0.000846862,0.912501,0.0153007,0.00256873,-0.408779
328062691,-0.00845029,-0.00687134,-0.00416412,0.912496,0.0152392,0.00255054,-0.408794
328073785,-0.00749506,-0.0109146,-0.0084236,0.91248,0.0151745,0.00251551,-0.408831
328082770,-0.00673901,-0.00974661,-0.0108624,0.912464,0.0151325,0.00249054,-0.408869
328095269,-0.00344555,-0.00963677,-0.0160762,0.91243,0.0150779,0.00245315,-0.408947
328106468,-0.00142477,-0.00782533,-0.0192617,0.912389,0.0150422,0.00241173,-0.409041
328114898,0.00134135,-0.00762391,-0.0211845,0.912356,0.0150315,0.00238236,-0.409114
328126192,0.00857953,-0.00718957,-0.0222487,0.912304,0.0150434,0.00233072,-0.409231
328137702,0.0158141,-0.00623203,-0.0243808,0.912245,0.0151011,0.00226039,-0.40936
328146442,0.019017,-0.00782621,-0.0242697,0.912204,0.0151554,0.00220482,-0.409449
328158695,0.0256093,-0.0109139,-0.0266158,0.91214,0.0152604,0.0020984,-0.40959
328166459,0.029558,-0.00932605,-0.0255451,0.912096,0.0153481,0.0020164,-0.409685
328177770,0.03423,-0.011446,-0.0226781,0.912036,0.0154957,0.00187107,-0.409813
328190406,0.0389122,-0.0119806,-0.0231022,0.911977,0.0156704,0.00171252,-0.409939
328201829,0.0405118,-0.0132464,-0.0238436,0.911919,0.0158578,0.00154594,-0.410062
328213768,0.0435778,-0.0128432,-0.0227768,0.91186,0.0160581,0.00137305,-0.410186
328221837,0.0463571,-0.0135717,-0.0222496,0.911821,0.016205,0.00125041,-0.410267
328234595,0.0457272,-0.0126245,-0.0215036,0.911763,0.0164255,0.00106438,-0.410387
328245746,0.0467883,-0.0100635,-0.0224657,0.911705,0.0166496,0.000889322,-0.410506
328254633,0.044232,-0.00857228,-0.0220408,0.911668,0.0167986,0.000785787,-0.410585
328265768,0.0433843,-0.00793343,-0.02172,0.911611,0.0170183,0.000633269,-0.4107
328279425,0.0417871,-0.0061274,-0.0219337,0.911554,0.0172332,0.000496184,-0.410819
328290635,0.0404617,-0.00387504,-0.020565,0.911496,0.0174656,0.000358854,-0.410938
328300031,0.0388047,-0.00293641,-0.0210785,0.911455,0.0176209,0.000274581,-0.411023
328311415,0.0367812,-0.00219072,-0.0200149,0.911404,0.0178213,0.000170144,-0.411127
328324251,0.0332721,-0.00314832,-0.0190575,0.911354,0.0180039,7.139e-05,-0.411229
328335413,0.0306239,-0.00367454,-0.0170418,0.911308,0.0181702,-2.4658e-05,-0.411324
328347359,0.0250733,-0.00527807,-0.0158673,0.911266,0.0183074,-0.000114289,-0.411411
328355547,0.0215685,-0.00655885,-0.0159728,0.911238,0.0183796,-0.000174623,-0.411469
328368491,0.0154867,-0.00953617,-0.013846,0.9112,0.0184585,-0.000262582,-0.411551
328379419,0.00623552,-0.00868387,-0.0149109,0.911164,0.0184893,-0.000330949,-0.41163
328392621,-0.00185148,-0.00783681,-0.01405,0.911129,0.0184723,-0.000378394,-0.411707
328403351,-0.0112147,-0.00464579,-0.0116066,0.911101,0.0184139,-0.000391409,-0.411771
328412306,-0.0165356,-0.00251128,-0.0105428,0.911085,0.0183525,-0.000376929,-0.41181
328423300,-0.0255832,0.000679895,-0.00670668,0.911069,0.0182311,-0.000324004,-0.41185
328435834,-0.0317478,0.00536162,-0.00341531,0.911062,0.018079,-0.000230808,-0.411873
328448241,-0.0352929,0.0104931,-0.00309266,0.911059,0.0178983,-8.64533e-05,-0.411887
328456636,-0.0397337,0.0118557,-0.00192623,0.911059,0.0177779,1.96092e-05,-0.411892
328468152,-0.0417319,0.0133419,0.00116474,0.911065,0.0175846,0.000186701,-0.411886
328480202,-0.0398067,0.0174945,0.00361254,0.911078,0.0174074,0.00037083,-0.411866
328488167,-0.0390696,0.0195143,0.00541886,0.911089,0.0173001,0.000501128,-0.411845
328500229,-0.0379947,0.0213224,0.0080758,0.911111,0.0171451,0.000704103,-0.411803
328512221,-0.0382014,0.0214342,0.0110675,0.911141,0.016993,0.000913257,-0.411744
328520208,-0.0372478,0.0217524,0.011803,0.911163,0.0168971,0.00104734,-0.411699
328532224,-0.0374761,0.0217554,0.0139312,0.9112,0.0167529,0.00125324,-0.411622
328540165,-0.0385163,0.0212195,0.013928,0.911225,0.0166526,0.001391,-0.411569
328552187,-0.0387415,0.0208953,0.0163787,0.911266,0.0164979,0.0015979,-0.411485
328564218,-0.0374639,0.0202611,0.0190348,0.911314,0.0163505,0.00179317,-0.411384
328572415,-0.0358698,0.0222822,0.0203117,0.911349,0.0162581,0.00192953,-0.411309
328584181,-0.0353332,0.0212195,0.0204189,0.911401,0.0161253,0.00213161,-0.411197
328596177,-0.0323527,0.022282,0.0230922,0.91146,0.0159993,0.00232511,-0.411071
328604919,-0.0299018,0.0212197,0.0256318,0.911507,0.0159194,0.00246004,-0.410968
328613814,-0.0284195,0.0201538,0.0266064,0.911556,0.0158459,0.00258775,-0.410862
328625729,-0.024906,0.0180263,0.0278648,0.911624,0.0157534,0.00274846,-0.410713
328637852,-0.0196868,0.013024,0.0310488,0.911699,0.0156787,0.00287332,-0.410549
328647813,-0.01861,0.0090968,0.0298819,0.91175,0.0156325,0.00293594,-0.410438
328657746,-0.012864,0.00580026,0.0323382,0.911827,0.0155761,0.00300246,-0.410267
328669740,-0.0112681,0.00207006,0.0320104,0.911905,0.0155287,0.00303996,-0.410096
328678054,-0.00914995,0.00206804,0.0308393,0.911955,0.0155044,0.00305818,-0.409987
328689819,-0.00924828,0.00206925,0.029879,0.912028,0.0154684,0.00308531,-0.409826
328698728,-0.00935769,0.00313227,0.0299828,0.912076,0.0154453,0.00310703,-0.409718
328709729,-0.0120148,0.00302602,0.0298764,0.912148,0.0154034,0.00314377,-0.409559
328721803,-0.0124484,0.00206737,0.031688,0.912222,0.0153503,0.00317988,-0.409396
328730782,-0.0117036,0.00238754,0.0310431,0.912272,0.0153169,0.00320322,-0.409286
328741870,-0.0139439,0.00186022,0.0310433,0.912347,0.0152548,0.00323734,-0.409121
328754618,-0.0145793,4.43475e-05,0.0316782,0.912422,0.0151846,0.00327027,-0.408956
328765777,-0.0130989,-6.20151e-05,0.0305097,0.912496,0.0151158,0.0032984,-0.408793
328777744,-0.0101131,-0.00166363,0.0276332,0.912564,0.015058,0.00331628,-0.408642
328786063,-0.00659461,-0.0040053,0.0265701,0.912606,0.0150305,0.00331236,-0.408551
328797722,-0.00117174,-0.00676749,0.0251855,0.912665,0.0150049,0.00328129,-0.40842
328809854,0.00754437,-0.00613332,0.0246503,0.912723,0.0150214,0.00323245,-0.408291
328817752,0.0129823,-0.00570369,0.0245439,0.912759,0.0150589,0.00318965,-0.408208
328829780,0.020426,-0.00581155,0.0233716,0.912812,0.0151496,0.00310718,-0.408088
328837747,0.0275576,-0.00613043,0.0225204,0.912845,0.015238,0.00303922,-0.408011
328849784,0.0361768,-0.00442693,0.0213494,0.91289,0.0154154,0.00292519,-0.407903
328861883,0.0408624,-0.00230716,0.0199631,0.912932,0.0156315,0.00280614,-0.407804
328869947,0.0438565,-0.000837358,0.0186997,0.912956,0.0157904,0.00272693,-0.407744
328881788,0.0474666,0.00288596,0.0160262,0.912988,0.0160512,0.00261441,-0.407663
328893717,0.04725,0.00511977,0.0148561,0.913014,0.0163312,0.00250652,-0.407593
328901871,0.0478836,0.0070345,0.0147424,0.913031,0.0165181,0.00244639,-0.407549
328914325,0.0478909,0.00712115,0.0125213,0.913054,0.0167988,0.00235908,-0.407487
328922443,0.044483,0.0085235,0.0125113,0.913067,0.0169807,0.00231009,-0.40745
328934548,0.0428864,0.00841693,0.0109201,0.913084,0.0172431,0.00224337,-0.407401
328945728,0.0380996,0.00841713,0.00857051,0.913096,0.0174866,0.00218636,-0.407363
328954034,0.0339596,0.00787331,0.00666011,0.913101,0.0176318,0.00215257,-0.407346
328965845,0.0315053,0.0108652,0.00856898,0.913111,0.0178381,0.00211804,-0.407316
328978595,0.0239383,0.0128807,0.0069728,0.913121,0.0180157,0.00211531,-0.407286
328989852,0.0156347,0.0148018,0.00750113,0.913128,0.0181589,0.00214124,-0.407263
329002527,0.0108504,0.0148009,0.00845846,0.91314,0.0182637,0.00218757,-0.407231
329013836,0.0046805,0.0137366,0.00866827,0.913153,0.0183359,0.00224067,-0.407198
329026605,-0.0029866,0.0121424,0.00962304,0.913169,0.0183645,0.00230397,-0.40716
329033854,-0.00447227,0.0105428,0.00962304,0.913181,0.0183684,0.00234509,-0.407134
329046265,-0.00691984,0.012136,0.00940693,0.913196,0.0183675,0.00241421,-0.407099
329055556,-0.00710539,0.012856,0.00961287,0.913211,0.018367,0.00247751,-0.407066
329067954,-0.00657782,0.0156622,0.00854871,0.913225,0.0183703,0.00256435,-0.407034
329079337,-0.0020055,0.0169383,0.00748004,0.913236,0.0183995,0.0026563,-0.407008
329091869,0.00853373,0.0180019,0.00886365,0.913247,0.0184759,0.00273088,-0.406978
329103318,0.0185328,0.0202368,0.010566,0.913261,0.0186142,0.00279194,-0.40694
329112082,0.02705,0.0247077,0.0121615,0.913272,0.0187468,0.00283262,-0.406909
329123440,0.0430066,0.0352388,0.0149277,0.913293,0.0190364,0.00290578,-0.406848
329135853,0.0560919,0.0535237,0.0191892,0.913322,0.0194472,0.00302424,-0.406763
329147359,0.0663113,0.0749279,0.024507,0.913361,0.0199647,0.0032324,-0.406649
329159350,0.0720629,0.0962275,0.03526,0.91342,0.0205763,0.00353926,-0.406482
329167537,0.0747227,0.110375,0.0434487,0.913474,0.0210268,0.00380241,-0.406335
329179908,0.0702448,0.12667,0.0594305,0.913585,0.021728,0.00427784,-0.406044
329191427,0.0624708,0.140924,0.0746407,0.913736,0.0224329,0.00485582,-0.405658
329203902,0.0451517,0.148566,0.0892934,0.913922,0.0230722,0.00551765,-0.405196
329215412,0.0294769,0.159334,0.103051,0.914145,0.0236529,0.00626736,-0.404648
329224741,0.0150396,0.163376,0.108468,0.914308,0.0239898,0.0068169,-0.404251
329235391,0.00045179,0.16475,0.115801,0.914568,0.0244242,0.00768109,-0.403622
329248388,-0.0158425,0.164864,0.120281,0.914843,0.0247789,0.00859312,-0.402957
329259387,-0.0243533,0.158586,0.124855,0.915128,0.0250555,0.00950876,-0.402272
329273342,-0.0267919,0.151775,0.131027,0.915427,0.0252958,0.0103953,-0.401555
329283378,-0.0274393,0.139856,0.136881,0.915739,0.0255035,0.0112268,-0.400806
329295386,-0.0195533,0.124643,0.141238,0.916064,0.0257085,0.011968,-0.400028
329303445,-0.0176475,0.111437,0.141666,0.916282,0.0258376,0.0123999,-0.399508
329315351,-0.00732266,0.0839918,0.140492,0.916606,0.0260172,0.0129178,-0.398735
329327347,-0.00253706,0.0534228,0.138147,0.916927,0.0261675,0.0132501,-0.397977
329336499,0.00118623,0.0339754,0.136555,0.917138,0.0262407,0.013375,-0.397479
329347358,0.00704514,0.0044587,0.133039,0.917449,0.0263163,0.0134203,-0.396755
329360025,0.0117358,-0.0205356,0.128782,0.917753,0.0263625,0.0133063,-0.396053
329371325,0.0187439,-0.0474276,0.123042,0.918043,0.0263756,0.0130351,-0.395388
329383483,0.0274826,-0.0810892,0.11686,0.91832,0.0263612,0.0125723,-0.39476
329392106,0.0326868,-0.104376,0.111437,0.918495,0.0263281,0.0121467,-0.394368
329404433,0.0448312,-0.133224,0.101749,0.918741,0.0262724,0.0113469,-0.393822
329415871,0.0548232,-0.145248,0.0930293,0.918963,0.0262315,0.0104171,-0.393333
329427378,0.06835,-0.133768,0.0847227,0.919161,0.0262611,0.0094878,-0.392891
329439303,0.079515,-0.108449,0.0757793,0.919336,0.026409,0.00864766,-0.392491
329447592,0.0857099,-0.0920173,0.0716213,0.919441,0.0265744,0.00815379,-0.392244
329459832,0.0984603,-0.0766144,0.0634385,0.919578,0.0269102,0.00747556,-0.391913
329471401,0.107032,-0.0785461,0.0555421,0.919695,0.0273162,0.00679446,-0.391622
329483826,0.117121,-0.0930023,0.0486366,0.919794,0.0277465,0.00603182,-0.391373
329495370,0.128306,-0.120567,0.0422485,0.919875,0.0281816,0.00511627,-0.391164
329504014,0.135007,-0.14197,0.0385211,0.91992,0.0284648,0.00439715,-0.391046
329516959,0.146289,-0.179839,0.0312877,0.919981,0.0289266,0.00296303,-0.390882
329525600,0.151075,-0.199542,0.0272394,0.920005,0.0291791,0.00200609,-0.390813
329537005,0.155544,-0.220495,0.0190457,0.920025,0.029533,0.000456095,-0.390746
329545495,0.154797,-0.225605,0.010737,0.920022,0.0297578,-0.000623399,-0.390734
329557026,0.155759,-0.217591,-0.00194335,0.919991,0.0301038,-0.00222077,-0.390775
329569408,0.152564,-0.195599,-0.0129885,0.91993,0.0304849,-0.00370286,-0.390879
329577072,0.148205,-0.176118,-0.0182077,0.919877,0.0307585,-0.00460254,-0.390971
329589087,0.146187,-0.148787,-0.0243752,0.919785,0.0312072,-0.00581923,-0.391136
329600949,0.143946,-0.126954,-0.024381,0.919688,0.0317044,-0.00689427,-0.391307
329608967,0.141923,-0.11492,-0.0222486,0.919626,0.0320457,-0.00754992,-0.391412
329621602,0.140862,-0.0979002,-0.0176813,0.919542,0.0325918,-0.00844766,-0.391548
329628962,0.140115,-0.0911999,-0.0128013,0.919493,0.0329693,-0.00900732,-0.391618
329641132,0.140648,-0.0849146,-0.00416578,0.919436,0.0335471,-0.00982017,-0.391683
329655167,0.140215,-0.0873338,0.00390869,0.919398,0.0341311,-0.0106324,-0.391701
329664981,0.141292,-0.09542,0.017642,0.919386,0.0347107,-0.011477,-0.391655
329677781,0.142985,-0.100638,0.0336083,0.919408,0.0352746,-0.0123582,-0.391526
329684980,0.139581,-0.0973399,0.0463722,0.919446,0.0356347,-0.0129456,-0.391385
329697002,0.137128,-0.082875,0.0678585,0.919545,0.036191,-0.0137708,-0.391073
329708969,0.132454,-0.0630691,0.0857497,0.919691,0.0367676,-0.0144858,-0.39065
329717094,0.12405,-0.052226,0.0972267,0.919812,0.0371485,-0.0148967,-0.390313
329728913,0.116486,-0.0413567,0.1064,0.920017,0.037707,-0.0154384,-0.389755
329741586,0.106898,-0.0398773,0.115126,0.920244,0.0382251,-0.0159396,-0.389147
329752994,0.095308,-0.0490167,0.120439,0.920486,0.0386629,-0.0164506,-0.388511
329766106,0.0827121,-0.0602304,0.126835,0.920744,0.0390134,-0.0169925,-0.387841
329777424,0.0655288,-0.0705114,0.136375,0.921021,0.0392388,-0.0175575,-0.387134
329789763,0.0453042,-0.071049,0.151295,0.921334,0.039356,-0.0181027,-0.38635
329796966,0.0340177,-0.0702037,0.161615,0.921565,0.0393765,-0.0184435,-0.385782
329809949,0.0158068,-0.0712685,0.173437,0.921939,0.0393236,-0.0189226,-0.384869
329821523,-0.00516464,-0.0735009,0.185894,0.922343,0.0391469,-0.0193698,-0.383894
329833997,-0.0257978,-0.0771152,0.196421,0.922777,0.0388594,-0.0197944,-0.382859
329845495,-0.0491066,-0.0805247,0.203227,0.92323,0.0384302,-0.020182,-0.381789
329853011,-0.0665362,-0.086372,0.205887,0.923541,0.0380603,-0.020431,-0.38106
329865463,-0.0936826,-0.0908453,0.210245,0.92402,0.0373683,-0.0207802,-0.379947
329877448,-0.119134,-0.0969158,0.214186,0.924511,0.0365183,-0.0211008,-0.378814
329885840,-0.132938,-0.095957,0.213972,0.924842,0.0358808,-0.0212901,-0.378057
329897450,-0.153399,-0.09319,0.21344,0.92534,0.0348259,-0.0215275,-0.376922
329909947,-0.168411,-0.079561,0.204066,0.925825,0.033706,-0.0216681,-0.375821
329921035,-0.185546,-0.0571014,0.18746,0.926282,0.0325366,-0.0216577,-0.374798
329932985,-0.198087,-0.0272318,0.166524,0.9267,0.0313554,-0.0214635,-0.373877
329941505,-0.205976,-0.0072032,0.147983,0.926947,0.0305694,-0.0212214,-0.373341
329952948,-0.219591,0.0194957,0.121387,0.927273,0.0293865,-0.0207016,-0.372657
329962784,-0.228434,0.0347794,0.10637,0.92748,0.0285088,-0.0202143,-0.372237
329974573,-0.23949,0.0527076,0.0850979,0.92774,0.0272096,-0.0193822,-0.37173
329983446,-0.243974,0.0575065,0.0735795,0.92788,0.026389,-0.0188201,-0.371469
329994579,-0.246523,0.06048,0.0604985,0.928061,0.0251469,-0.0179455,-0.371144
330006550,-0.243962,0.0566452,0.0479279,0.928213,0.0239068,-0.0170809,-0.370888
330015009,-0.235674,0.053669,0.0381517,0.928295,0.0230996,-0.0165256,-0.370759
330027400,-0.219719,0.0444141,0.026125,0.928391,0.0219489,-0.0157642,-0.370622
330038585,-0.195311,0.0374868,0.0180301,0.92846,0.0209075,-0.0150928,-0.370537
330050530,-0.174661,0.0448529,0.0184568,0.928519,0.0199832,-0.0144564,-0.370466
330062877,-0.14964,0.0658331,0.0278314,0.928589,0.0192379,-0.0137808,-0.370356
330074721,-0.124861,0.0936986,0.0412308,0.928686,0.0186906,-0.0130163,-0.370168
330086751,-0.0975548,0.111861,0.0546201,0.928811,0.01834,-0.0121902,-0.3699
330095040,-0.0947471,0.115626,0.0611329,0.928908,0.018156,-0.0116255,-0.369684
330106602,-0.0793233,0.114666,0.0677196,0.929062,0.0179538,-0.0108029,-0.369329
330118528,-0.0775067,0.104467,0.0695398,0.929225,0.0177697,-0.0100309,-0.368951
330126731,-0.0796278,0.0892503,0.0679467,0.929331,0.0176153,-0.00956943,-0.368704
330139264,-0.0879454,0.0548478,0.0679315,0.929485,0.017283,-0.0090118,-0.368344
330146540,-0.0867749,0.0351487,0.0652698,0.929585,0.0170192,-0.00873967,-0.36811
330158492,-0.0915572,0.0158066,0.0648469,0.929732,0.0165656,-0.00842356,-0.367767
330170748,-0.0966706,0.00419161,0.0653801,0.92988,0.0160532,-0.00817893,-0.367423
330178515,-0.0958219,0.00206314,0.0584623,0.929971,0.0156985,-0.00803133,-0.367211
330190588,-0.100719,0.00525531,0.0476015,0.930087,0.0151565,-0.0077951,-0.366944
330203578,-0.110102,0.00429665,0.0373645,0.930182,0.0145723,-0.00753426,-0.366731
330214595,-0.128176,-0.00623638,0.0171676,0.93024,0.0138944,-0.00727703,-0.366615
330227045,-0.150603,-0.0254551,-0.00280955,0.930252,0.0130639,-0.00706505,-0.366621
330234598,-0.160109,-0.0399682,-0.0155035,0.930237,0.0124245,-0.00696733,-0.366683
330246546,-0.184153,-0.0599808,-0.0353007,0.930179,0.0113205,-0.00687557,-0.366867
330258682,-0.201303,-0.0660488,-0.0483046,0.930085,0.0100916,-0.00680406,-0.367143
330266546,-0.207466,-0.0652973,-0.056599,0.930008,0.00923358,-0.0067424,-0.367362
330279359,-0.210402,-0.0536918,-0.069054,0.929867,0.00794688,-0.00660128,-0.367751
330290571,-0.211679,-0.0287942,-0.0817131,0.929697,0.00669707,-0.00633963,-0.36821
330303086,-0.209874,0.000338649,-0.0974501,0.929497,0.00551036,-0.00592366,-0.368742
330314548,-0.198701,0.0301381,-0.112986,0.92926,0.00443962,-0.00535183,-0.369361
330323129,-0.192003,0.0459983,-0.121611,0.929084,0.00379013,-0.00490929,-0.369816
330334651,-0.178089,0.0666365,-0.140633,0.928786,0.00291954,-0.00416657,-0.370581
330347257,-0.158982,0.0801794,-0.157178,0.928446,0.00217792,-0.00337634,-0.371445
330358668,-0.13048,0.0853872,-0.168872,0.928077,0.00160019,-0.00259659,-0.372375
330370564,-0.0941215,0.089237,-0.178996,0.927681,0.00121545,-0.00186826,-0.373368
330378725,-0.0690813,0.0909206,-0.181112,0.927409,0.00107895,-0.00141966,-0.374045
330391058,-0.0179952,0.0884563,-0.17876,0.926998,0.00109483,-0.000843359,-0.375063
330402642,0.0379099,0.0817773,-0.175581,0.926596,0.00139574,-0.00042204,-0.376055
330415095,0.095586,0.0809205,-0.174298,0.926195,0.0020134,-0.000145708,-0.377039
330423352,0.137916,0.0871577,-0.172608,0.925905,0.0026738,-1.07092e-05,-0.377748
330437183,0.196731,0.111064,-0.165564,0.925487,0.0039727,0.000165627,-0.378758
330444268,0.233815,0.13094,-0.155998,0.925239,0.00500263,0.000292388,-0.379351
330456815,0.274185,0.15853,-0.131816,0.924905,0.00680259,0.000527626,-0.380137
330468136,0.302862,0.173182,-0.102271,0.924629,0.00883192,0.000800077,-0.380765
330476459,0.315545,0.178086,-0.0827607,0.92448,0.0102613,0.000978108,-0.381092
330488173,0.322588,0.186675,-0.0552563,0.924305,0.012476,0.00125518,-0.381449
330500171,0.314183,0.203725,-0.030745,0.924184,0.0147036,0.00162142,-0.381661
330508713,0.301426,0.211909,-0.0162891,0.924131,0.0161601,0.00193057,-0.381729
330520158,0.274384,0.213197,0.0025633,0.924086,0.0182395,0.00246412,-0.38174
330528999,0.248957,0.205217,0.0138438,0.924079,0.0195104,0.00283713,-0.381692
330540170,0.204261,0.179679,0.025547,0.924094,0.0211705,0.00337416,-0.381563
330552715,0.152011,0.151857,0.0365211,0.924138,0.022506,0.00386732,-0.381375
330564254,0.0978854,0.127446,0.0482045,0.924216,0.0234632,0.00434196,-0.381123
330576671,0.0430375,0.104013,0.0587454,0.924327,0.0240734,0.00480487,-0.380811
330584181,0.00974179,0.089441,0.0681044,0.92442,0.0242912,0.00511081,-0.380566
330596196,-0.0311293,0.0703897,0.0835356,0.924595,0.02438,0.00556191,-0.380131
330608149,-0.0674412,0.0504771,0.101314,0.924814,0.0242144,0.00598654,-0.3796
330616485,-0.0862814,0.0377979,0.116439,0.924989,0.0239847,0.00624848,-0.379185
330628161,-0.106815,0.0182318,0.13739,0.925293,0.0235014,0.00659186,-0.378466
330640153,-0.119789,-0.00837574,0.158675,0.925649,0.0228752,0.00683522,-0.377629
330648712,-0.125862,-0.0243364,0.171018,0.925912,0.0223953,0.00692708,-0.377012
330660199,-0.131397,-0.0404171,0.184971,0.926333,0.021612,0.00699508,-0.376021
330668231,-0.133198,-0.0505144,0.193046,0.926629,0.0210598,0.0069967,-0.375321
330680844,-0.13745,-0.0632696,0.199642,0.927088,0.0201904,0.00694455,-0.374234
330693136,-0.138838,-0.0764924,0.202199,0.927557,0.0192768,0.00682769,-0.373121
330704663,-0.144893,-0.0904005,0.201133,0.928021,0.0183182,0.00664248,-0.372017
330717008,-0.149911,-0.102139,0.195695,0.928477,0.0172931,0.00640291,-0.370931
330724152,-0.153845,-0.10691,0.190701,0.928772,0.0165807,0.00622083,-0.370229
330737187,-0.155442,-0.116393,0.182812,0.929198,0.0154787,0.00591101,-0.369211
330748166,-0.155971,-0.11819,0.173882,0.929603,0.0143693,0.00558333,-0.36824
330756334,-0.152769,-0.116059,0.166011,0.929858,0.013636,0.00536393,-0.367627
330768276,-0.146175,-0.108715,0.153762,0.930216,0.0125732,0.00505454,-0.366763
330780158,-0.132551,-0.0996704,0.139614,0.930541,0.011596,0.0047706,-0.365974
330788228,-0.120856,-0.0954188,0.13089,0.930739,0.0110037,0.00458641,-0.36549
330800176,-0.102968,-0.0874328,0.118328,0.931012,0.0102098,0.00431168,-0.364819
330808214,-0.0925339,-0.0791258,0.109597,0.931177,0.00974261,0.00414228,-0.364413
330821233,-0.0770041,-0.0670013,0.0981079,0.931401,0.00913826,0.00391749,-0.363858
330832218,-0.0583618,-0.0544277,0.0853174,0.931598,0.00866274,0.00372453,-0.363369
330840153,-0.0481832,-0.0445608,0.0775762,0.931712,0.00841121,0.00362026,-0.363083
330852216,-0.0359008,-0.0304866,0.0664814,0.931862,0.00812276,0.00350378,-0.362705
330865283,-0.0236741,-0.0180077,0.0524283,0.931984,0.00792989,0.00343272,-0.362396
330876963,-0.012464,-0.0038822,0.0403109,0.932083,0.00781848,0.00341991,-0.362143
330889001,-0.00229422,0.00769982,0.027757,0.932148,0.00780391,0.00344906,-0.361977
330901853,0.00792863,0.0191959,0.0132803,0.932184,0.0078693,0.00352903,-0.361881
330909738,0.0146281,0.0277071,0.00551179,0.932191,0.00795887,0.0036047,-0.361862
330921867,0.0219832,0.039101,-0.00567646,0.93218,0.00815246,0.00375664,-0.361884
330934809,0.0279262,0.0485595,-0.0161895,0.932145,0.00840403,0.0039567,-0.361966
330945746,0.0307004,0.0520779,-0.0264249,0.932087,0.00868912,0.00417758,-0.362107
330958581,0.0342054,0.0559049,-0.0321621,0.932013,0.0089933,0.0044078,-0.362287
330965770,0.0334637,0.0577135,-0.0363156,0.931956,0.00920416,0.00457133,-0.362425
330978714,0.0345291,0.0617614,-0.0417404,0.931861,0.00952758,0.00483504,-0.36266
330990462,0.0357064,0.0662299,-0.0449394,0.931755,0.00987142,0.00512321,-0.362917
330998761,0.0377231,0.0691045,-0.0466459,0.931682,0.0101115,0.00532333,-0.363096
331010232,0.0398522,0.0745299,-0.046965,0.931569,0.01049,0.00564515,-0.363371
331021785,0.0380401,0.0754891,-0.0448373,0.931458,0.0108729,0.00598324,-0.363637
331030972,0.0378318,0.0754917,-0.0427074,0.931388,0.011124,0.00620957,-0.363805
331041800,0.0394292,0.0744243,-0.03856,0.93129,0.0115121,0.00654139,-0.364038
331049821,0.0373976,0.0737851,-0.0342986,0.931231,0.0117615,0.00676163,-0.364177
331062343,0.0334638,0.0705939,-0.0306859,0.93115,0.0121188,0.00709111,-0.364365
331075957,0.0314513,0.0586732,-0.0272816,0.931079,0.0124298,0.00737372,-0.364532
331085790,0.0281519,0.0456678,-0.0266413,0.931009,0.0127006,0.00758445,-0.364695
331097841,0.0254872,0.0324557,-0.0239766,0.930946,0.012933,0.00773149,-0.364845
331106299,0.0238937,0.0292894,-0.0213248,0.930908,0.0130689,0.00780482,-0.364936
331118300,0.0237891,0.0222663,-0.016856,0.93086,0.0132546,0.00788403,-0.36505
331130906,0.0197418,0.0187541,-0.00845275,0.930828,0.0134208,0.00794667,-0.365125
331141806,0.0160193,0.0146053,-0.000578763,0.930812,0.0135571,0.0079911,-0.36516
331153981,0.0074981,0.0116213,0.00548933,0.930812,0.0136418,0.0080351,-0.365155
331162506,0.00293462,0.0116226,0.00973844,0.930821,0.0136762,0.00806935,-0.365131
331173934,-0.00794675,0.0134385,0.0144332,0.930843,0.0136827,0.00814516,-0.365073
331186239,-0.0170802,0.021092,0.0180439,0.930874,0.0136463,0.00827288,-0.364992
331194869,-0.0257134,0.0245039,0.019211,0.930899,0.0135931,0.00839241,-0.364928
331206512,-0.0339008,0.0333328,0.0237896,0.930943,0.0134847,0.00862137,-0.364814
331218224,-0.0393293,0.039395,0.0229373,0.930989,0.0133596,0.00891128,-0.364693
331230489,-0.0436836,0.0403537,0.0233604,0.931037,0.0132091,0.00922541,-0.36457
331239070,-0.0454714,0.0390231,0.0240507,0.931073,0.0130892,0.00945569,-0.364476
331252164,-0.0450799,0.0380118,0.0225033,0.931123,0.012909,0.00978465,-0.364346
331263367,-0.0427508,0.0371593,0.0211225,0.931166,0.0127482,0.0100804,-0.364234
331275418,-0.0382997,0.0364171,0.0207982,0.931206,0.0126038,0.0103693,-0.364127
331287361,-0.0355245,0.0350326,0.0173962,0.931243,0.0124751,0.0106472,-0.36403
331295503,-0.0330714,0.0332172,0.0152635,0.931263,0.0123971,0.01082,-0.363976
331307318,-0.0270134,0.0266247,0.0147349,0.931291,0.0122971,0.011042,-0.363902
331319361,-0.0188146,0.0205543,0.010477,0.931311,0.0122268,0.0112124,-0.363847
331327326,-0.0156237,0.0137509,0.00973393,0.931322,0.0121871,0.0112933,-0.363817
331339350,-0.00827312,0.00682571,0.00834735,0.931337,0.0121394,0.0113673,-0.363779
331348891,-0.00221662,0.00337479,0.00896566,0.931347,0.0121299,0.0113888,-0.363752
331360303,0.000443115,0.000553751,0.00355901,0.931354,0.0121273,0.0113972,-0.363734
331368178,-0.00051455,-0.00115219,0.00249173,0.931356,0.0121224,0.0113908,-0.363731
331380143,-0.00104283,-0.00275563,-0.003046,0.931348,0.0121129,0.0113794,-0.36375
331392162,0.000444842,-0.00243048,-0.00761956,0.93133,0.0121008,0.0113633,-0.363799
331401124,0.00151078,-0.00115021,-0.00868535,0.931315,0.0121002,0.0113553,-0.363837
331412214,0.00257499,0.00204098,-0.00963914,0.931291,0.0121115,0.0113556,-0.363899
331424123,0.00767881,0.00523294,-0.00975022,0.931265,0.0121448,0.0113663,-0.363962
331432241,0.0146041,0.00831675,-0.00773063,0.931249,0.0122013,0.0113754,-0.364002
331444941,0.0197074,0.010448,-0.00624433,0.931227,0.0123198,0.0113908,-0.364053
331452136,0.0239652,0.0112984,-0.00496692,0.931214,0.0124175,0.0113994,-0.364082
331464257,0.0288527,0.013609,-0.00295822,0.931199,0.0125934,0.0114073,-0.364116
331476178,0.0301454,0.01512,0.000888679,0.93119,0.0127884,0.0114242,-0.36413
331484162,0.0323718,0.0169217,0.00237532,0.931188,0.0129294,0.0114381,-0.36413
331496171,0.0313085,0.0178821,0.00514907,0.93119,0.0131407,0.0114602,-0.364117
331508130,0.0302407,0.0176659,0.00716401,0.931197,0.0133456,0.01149,-0.364091
331516174,0.03237,0.0165981,0.00865606,0.931204,0.0134867,0.0115035,-0.364068
331528141,0.0330075,0.016386,0.00726907,0.931213,0.0137006,0.01152,-0.364035
331536914,0.0343941,0.017452,0.00886064,0.931219,0.0138505,0.0115319,-0.364014
331548151,0.0360884,0.0178785,0.00694,0.931226,0.0140872,0.0115489,-0.363987
331561096,0.0360943,0.0174482,0.00545649,0.93123,0.0143266,0.0115618,-0.363966
331572145,0.0359825,0.0162747,0.00353691,0.93123,0.0145594,0.011573,-0.363956
331584202,0.03098,0.0153196,0.000341312,0.931225,0.0147683,0.0115823,-0.36396
331592146,0.0264049,0.0142646,-0.000834277,0.931219,0.0148892,0.0115932,-0.363971
331604643,0.0159735,0.0179833,-0.00349071,0.931205,0.0150329,0.0116401,-0.363999
331616157,0.00907109,0.0233069,-0.0065745,0.931186,0.0151385,0.0117336,-0.364041
331624512,0.00406734,0.0259674,-0.0065745,0.931171,0.0151902,0.0118176,-0.364073
331637790,-0.00327722,0.0278825,-0.00668322,0.931147,0.0152507,0.0119913,-0.364128
331646006,-0.00646644,0.0286273,-0.00827905,0.931131,0.0152677,0.0121037,-0.364163
331657853,-0.00730875,0.0286469,-0.00775033,0.931108,0.0152839,0.0122783,-0.364217
331665721,-0.00837304,0.0289663,-0.00722475,0.931092,0.0152961,0.012398,-0.364252
331677733,-0.00911635,0.0265186,-0.0040256,0.931075,0.015306,0.0125704,-0.36429
331689725,-0.00858292,0.0234323,-0.00115429,0.931065,0.0153182,0.0127256,-0.36431
331698645,-0.0106127,0.0234342,0.00236075,0.931063,0.0153146,0.0128295,-0.364311
331709755,-0.0101832,0.0201326,0.00735919,0.931071,0.0153063,0.0129704,-0.364287
331722347,-0.0116707,0.0183298,0.0125597,0.931087,0.015287,0.0131024,-0.36424
331733760,-0.010504,0.0168339,0.0172479,0.931116,0.0152633,0.0132191,-0.364164
331745835,-0.0114621,0.014175,0.0214062,0.931155,0.0152409,0.013324,-0.364061
331754121,-0.0112484,0.0139605,0.0247004,0.931186,0.0152239,0.0133918,-0.363979
331765859,-0.0124198,0.0108686,0.0253376,0.931236,0.015189,0.0134851,-0.363849
331778535,-0.015822,0.00789343,0.0276783,0.931292,0.0151292,0.0135654,-0.363708
331789798,-0.0207195,0.00448641,0.0291617,0.93135,0.0150367,0.0136323,-0.36356
331802416,-0.0258174,0.00364453,0.0295935,0.931411,0.0149181,0.0137044,-0.363405
331809966,-0.0282784,0.00342249,0.0307616,0.931454,0.014823,0.0137545,-0.363297
331822312,-0.0283793,0.00725361,0.0317208,0.93152,0.0146802,0.0138449,-0.363131
331833705,-0.0314738,0.00990195,0.0318264,0.931587,0.0145279,0.0139588,-0.36296
331842324,-0.030505,0.0149183,0.0320362,0.931632,0.0144372,0.0140534,-0.362846
331853808,-0.0400647,0.0209791,0.0322436,0.931697,0.0142903,0.014234,-0.362676
331861786,-0.0361434,0.0252338,0.0291635,0.931738,0.0141877,0.0143728,-0.36257
331873915,-0.0380624,0.0297032,0.026286,0.931792,0.0140488,0.014613,-0.362425
331885752,-0.0417822,0.033531,0.0224636,0.931841,0.0138794,0.0148805,-0.362295
331894497,-0.0585063,0.0314034,0.0193581,0.931871,0.0137179,0.0150826,-0.362217
331905796,-0.0534886,0.0319333,0.0129858,0.931905,0.0135017,0.0153758,-0.362125
331918273,-0.0527539,0.0294892,0.00979482,0.931925,0.0132661,0.0156579,-0.362069
331929746,-0.0525189,0.0304443,0.00978167,0.931943,0.0130378,0.0159357,-0.36202
331942357,-0.0459366,0.0323644,0.00798665,0.931956,0.0128382,0.0162183,-0.361981
331950031,-0.0395571,0.0315142,0.00820819,0.931965,0.0127311,0.016396,-0.361954
331962309,-0.0331636,0.0276831,0.00936243,0.931979,0.0126013,0.0166415,-0.36191
331973798,-0.0340383,0.0197063,0.00597527,0.931993,0.012463,0.0168417,-0.361871
331982246,-0.0297569,0.0188509,0.00181032,0.931994,0.0123853,0.0169545,-0.361865
331993785,-0.035198,0.0232999,-0.00341148,0.931986,0.0122449,0.0171453,-0.361882
332002414,-0.0328464,0.0291695,0.000199126,0.931982,0.0121645,0.0172987,-0.361888
332013811,-0.0414642,0.0212977,0.00159155,0.931983,0.0119953,0.0175243,-0.36188
332026266,-0.0439183,0.0126813,-0.00426202,0.931974,0.0117994,0.0176918,-0.361902
332033980,-0.0495457,0.0226763,0.00276145,0.931973,0.0116477,0.0178333,-0.361903
332046543,-0.0563574,0.010866,-0.00117982,0.931981,0.0113913,0.0180502,-0.361877
332057794,-0.0462522,0.0188539,-0.000103438,0.931968,0.0111363,0.018227,-0.36191
332065760,-0.0583865,0.0126703,0.00806975,0.931978,0.010963,0.018368,-0.361884
332077884,-0.058596,0.000957047,-1.1568e-05,0.931979,0.0106088,0.0184863,-0.361886
332086563,-0.0511182,0.0175644,0.0117482,0.931994,0.0104308,0.0186348,-0.361845
332099409,-0.0522787,-0.0115535,0.00319063,0.931987,0.0101,0.0186984,-0.361868
332107537,-0.0645679,-0.000868641,0.0252788,0.932025,0.00987239,0.018785,-0.361772
332119445,-0.0328174,-0.00777336,0.00461347,0.932004,0.00963657,0.0188049,-0.361831
332132203,-0.0412807,-0.0247449,-0.0266848,0.932017,0.00930859,0.0187957,-0.361808
332143367,-0.0575552,-0.031892,0.00603095,0.932049,0.0090341,0.0187793,-0.361734
332156255,-0.0401184,-0.0299629,0.024454,0.932033,0.00881676,0.0187062,-0.361782
332167344,-0.0109077,-0.0209609,0.00409529,0.93202,0.00859806,0.0186216,-0.361826
332180461,-0.00387924,-0.0161649,-0.0156531,0.932007,0.00835675,0.0185096,-0.361871
332187353,-0.0427189,-0.0443873,-0.0207489,0.931995,0.00817726,0.0183856,-0.361914
332199371,-0.0373113,-0.0578516,-0.0241938,0.931979,0.00798615,0.0182072,-0.361968
332211310,-0.0368771,-0.0643239,-0.0272745,0.931952,0.00782269,0.0180024,-0.362049
332219586,0.0228641,-0.0397946,-0.00824178,0.93193,0.00781258,0.017881,-0.362112
332231329,0.0153506,-0.0525686,-0.0208696,0.931879,0.0076746,0.0176282,-0.362258
332243422,0.0251726,-0.061069,-0.0344337,0.931794,0.00755358,0.0173466,-0.362494
332255394,0.0354002,-0.0774052,-0.0460448,0.931693,0.00747446,0.0170195,-0.362772
332267352,0.0363157,-0.0905417,-0.0675969,0.931581,0.00748791,0.016629,-0.363077
332276050,0.0592638,-0.0387254,-0.053541,0.931494,0.00754801,0.0164137,-0.363309
332287355,0.0469317,-0.0609466,-0.0667276,0.931349,0.00761108,0.0160316,-0.363695
332300110,0.0681879,-0.058249,-0.0789533,0.931211,0.00782986,0.0157327,-0.364055
332312237,0.0399945,-0.0227366,-0.0846321,0.931072,0.00810786,0.0155722,-0.364413
332323394,0.0283901,0.0354704,-0.0609845,0.930943,0.00835663,0.0155621,-0.364736
332332619,0.0217802,0.00432896,-0.0756278,0.930856,0.0084832,0.0155493,-0.364956
332343889,0.0392609,0.0665338,-0.0626267,0.930737,0.00878124,0.0156697,-0.365247
332355848,0.0114923,0.0424296,-0.0617925,0.930595,0.00894489,0.0158276,-0.365599
332368072,-0.020951,-0.0153099,-0.102228,0.930436,0.00891017,0.0159419,-0.365999
332380004,0.00907349,0.0593048,-0.0673778,0.930291,0.00900236,0.0161484,-0.366356
332388427,-0.0187636,0.0436639,-0.0663326,0.930194,0.00899317,0.0162724,-0.366598
332399331,-0.012934,0.0256987,-0.0793733,0.93006,0.00892015,0.0164452,-0.366931
332412169,-0.0222433,0.00207073,-0.0901417,0.929906,0.00885384,0.0165558,-0.367317
332423394,-5.58933e-06,0.0275066,-0.0660895,0.929781,0.00886856,0.016694,-0.367627
332436168,-0.0253126,0.0139396,-0.0895679,0.929633,0.0087743,0.0168401,-0.367997
332447818,-0.00515497,0.0267165,-0.0547192,0.929538,0.00878215,0.0170135,-0.368229
332459338,0.0129161,0.00683564,-0.0820886,0.929426,0.00883764,0.0170401,-0.368509
332469228,-0.00515549,0.0167221,-0.0871483,0.929332,0.00887296,0.0170784,-0.368742
332480058,0.00856505,-0.0316029,-0.0864609,0.929201,0.00888185,0.0170283,-0.369075
332492211,0.0195319,0.0222524,-0.0805656,0.929073,0.00894502,0.016974,-0.369399
332503836,0.0078416,-0.0257268,-0.123097,0.928888,0.00900282,0.0168804,-0.369866
332516327,0.00194813,0.0176147,-0.0747403,0.928748,0.0090585,0.0169409,-0.370214
332523382,0.0221197,-0.00279208,-0.0978517,0.928639,0.00912595,0.0169287,-0.370485
332536289,0.0498564,0.0337968,-0.086827,0.928481,0.00935091,0.0168713,-0.37088
332544233,0.0348348,0.0192543,-0.0823798,0.928363,0.00941967,0.0167381,-0.371179
332557422,0.0646399,0.0517522,-0.0885184,0.928191,0.00963602,0.0166184,-0.371607
332569683,0.0529972,-0.0135454,-0.112212,0.928026,0.00998575,0.0164744,-0.372018
332581598,0.0621293,-0.00185267,-0.114211,0.927863,0.0104616,0.0164696,-0.372411
332592994,0.0984983,0.0654554,-0.08921,0.927703,0.0110569,0.0165025,-0.372791
332601015,0.0904583,0.00383018,-0.106533,0.927591,0.0113683,0.0163936,-0.373064
332613910,0.114551,0.090317,-0.0818791,0.927441,0.0119944,0.016356,-0.37342
332625612,0.0864496,0.0534158,-0.100069,0.927286,0.0125322,0.0162953,-0.373788
332637880,0.0440131,-0.0421804,-0.15526,0.927074,0.0129038,0.0161941,-0.374305
332649427,0.0578793,-0.0666028,-0.134431,0.926877,0.0132558,0.0159855,-0.37479
332662796,0.0928148,0.0367241,-0.11267,0.926697,0.0137267,0.0158641,-0.375223
332673110,0.0643455,0.0765368,-0.0969172,0.926518,0.0141284,0.015883,-0.375651
332681441,0.0461753,0.0226099,-0.0916181,0.926414,0.0141944,0.0157807,-0.375908
332692990,0.0802032,0.0336008,-0.070883,0.926316,0.014437,0.0155873,-0.376148
332705424,0.0619046,0.00394313,-0.0975921,0.92621,0.0148501,0.0154336,-0.3764
332714206,0.0399386,0.0525536,-0.0649368,0.926153,0.0150674,0.0154573,-0.376529
332725624,0.036768,-0.0297264,-0.0777252,0.926103,0.0153078,0.0153784,-0.376647
332736969,0.0683834,-0.096247,-0.0808709,0.926069,0.0156691,0.0150052,-0.376729
332748913,0.0851316,0.0173944,-0.0342453,0.92609,0.0161393,0.0148814,-0.376665
332760961,0.0465479,0.0397301,-0.0249044,0.926121,0.0164111,0.0148206,-0.376579
332769080,0.0752917,0.0124711,-0.0209218,0.926138,0.016567,0.0146392,-0.376536
332780968,0.0808191,0.0504598,0.0276578,0.926264,0.0169146,0.0145325,-0.376216
332792970,0.0572827,-0.0326042,-0.00480134,0.926398,0.0171966,0.0143189,-0.37588
332800962,0.0371922,0.0217627,0.00368727,0.926486,0.0173894,0.0143045,-0.375654
332813785,-0.00789189,-0.0161746,-0.0014281,0.926629,0.0175262,0.01432,-0.375295
332821741,0.0195503,0.00312768,0.0200199,0.926768,0.0176841,0.0144438,-0.37494
332833014,0.0269872,0.0182215,0.0327796,0.926977,0.0179635,0.0145898,-0.374404
332845625,0.00395002,0.0710629,0.0410857,0.927187,0.0181334,0.0147953,-0.373867
332856911,-0.0229185,-0.00146463,0.00179462,0.927373,0.018164,0.0149764,-0.373397
332868945,0.0201051,0.0489392,0.0483574,0.927576,0.0182261,0.0151742,-0.372881
332876970,0.00505174,0.0626306,0.057596,0.927729,0.0183166,0.0153163,-0.372489
332888950,-0.00902793,0.0535681,0.014845,0.927942,0.0184539,0.0156697,-0.371938
332901016,-0.00119541,0.0955675,0.0474929,0.928163,0.0186032,0.0161547,-0.371357
332909726,-0.00704676,0.106432,0.0440526,0.92831,0.0187182,0.0164878,-0.37097
332920985,0.00285264,0.0723291,0.0369736,0.928529,0.0188955,0.0169583,-0.37039
332933078,-0.00845203,0.0574872,0.0348129,0.928763,0.0190506,0.0173599,-0.369777
332945622,-0.0086551,0.0898232,0.0401902,0.928979,0.0191632,0.0177886,-0.369208
332956916,-0.00779627,0.0672259,0.0364146,0.929196,0.019285,0.0182131,-0.368636
332965054,0.0159319,0.0954264,0.0537627,0.929358,0.019441,0.0185549,-0.368201
332977462,0.0140372,0.0683637,0.0265777,0.929567,0.0197546,0.0190093,-0.367632
332988985,0.0060153,0.0702825,0.0355846,0.929797,0.01999,0.0194548,-0.367016
332998572,0.0295547,0.0497764,0.0412153,0.929963,0.0202176,0.0196925,-0.366569
333006525,0.0633943,0.0557045,0.0606549,0.930151,0.0205666,0.0198952,-0.36606
333019290,0.0526118,0.0580515,0.0393523,0.930392,0.021088,0.02018,-0.365403
333030528,0.0594548,0.0613191,0.0520345,0.930652,0.021553,0.0204366,-0.364699
333039134,0.0967938,0.0539926,0.0651375,0.930841,0.0220013,0.0205618,-0.364182
333050546,0.0877665,0.056323,0.0530423,0.931093,0.0226771,0.0207436,-0.363484
333058526,0.0899924,0.0699066,0.0828547,0.931282,0.0230986,0.0209135,-0.362964
333070657,0.0942638,0.0876151,0.0790567,0.931565,0.0237004,0.0212194,-0.362181
333082645,0.0945984,0.0847455,0.0812326,0.931845,0.024345,0.0215256,-0.361398
333090672,0.0497827,0.0785729,0.0654838,0.932033,0.0246724,0.0217246,-0.36088
333102619,0.0208808,0.0499344,0.0537568,0.932314,0.0250364,0.0219757,-0.360114
333115360,0.0248035,0.0414986,0.0612833,0.932578,0.0253913,0.0221657,-0.359392
333126509,0.00475129,0.0381242,0.079044,0.932868,0.0256327,0.0223724,-0.358609
333139015,0.00454136,0.023224,0.0747161,0.933148,0.0257403,0.0225127,-0.357863
333146556,-0.0119236,0.00909301,0.0655255,0.933343,0.0257205,0.0225658,-0.357351
333158559,-0.0271589,0.0107917,0.0991003,0.933676,0.0256734,0.0226787,-0.356476
333170583,-0.0287398,0.0205844,0.104739,0.934009,0.0256102,0.0228287,-0.3556
333178587,-0.0416325,0.0163169,0.0875123,0.934232,0.0254912,0.0229506,-0.355012
333190573,-0.0670584,0.0135744,0.126813,0.93462,0.0252247,0.0231545,-0.353996
333203576,-0.0656665,0.00122141,0.128297,0.935005,0.0249072,0.0233025,-0.352992
333214604,-0.0859156,-0.0236793,0.122164,0.935413,0.0244485,0.0233792,-0.351934
333227582,-0.112806,-0.0338023,0.135766,0.935853,0.0238075,0.0234395,-0.350803
333238566,-0.114091,-0.0585837,0.138754,0.936274,0.023094,0.0233811,-0.349729
333251600,-0.130707,-0.0883911,0.126835,0.936696,0.0222618,0.0231953,-0.348664
333262578,-0.141016,-0.0829542,0.132269,0.937116,0.0213253,0.0230103,-0.347605
333275079,-0.145154,-0.0902979,0.128317,0.937519,0.0203519,0.0228095,-0.34659
333287325,-0.155711,-0.0996886,0.127888,0.937926,0.0193213,0.0225924,-0.345559
333299012,-0.161233,-0.105943,0.124071,0.938312,0.0182242,0.0223265,-0.344587
333311489,-0.15837,-0.108293,0.12023,0.938689,0.0171317,0.0220622,-0.343631
333322669,-0.162947,-0.0937314,0.123102,0.939056,0.0160307,0.0218265,-0.342696
333335061,-0.161987,-0.0845621,0.120553,0.939419,0.014952,0.0216688,-0.34176
333343502,-0.160727,-0.0704245,0.128526,0.939661,0.0142518,0.0216085,-0.341127
333354581,-0.150283,-0.0461239,0.133011,0.94003,0.0133181,0.0216164,-0.340147
333367484,-0.146976,-0.0228328,0.130871,0.940388,0.0124374,0.0217382,-0.339181
333378981,-0.134738,0.0100585,0.138834,0.940744,0.0116717,0.0220207,-0.3382
333390495,-0.119199,0.0320808,0.137033,0.941092,0.0110477,0.022417,-0.337225
333399388,-0.103438,0.0465683,0.134267,0.941317,0.0107113,0.0227296,-0.336588
333410518,-0.0910284,0.0567833,0.135546,0.941649,0.010298,0.0232386,-0.335636
333423309,-0.0714182,0.0684768,0.135431,0.941973,0.0100077,0.0237571,-0.334697
333434563,-0.0507741,0.0821085,0.139395,0.942293,0.00986793,0.0243184,-0.33376
333447493,-0.0372652,0.0933751,0.137346,0.942612,0.00982729,0.0249136,-0.332815
333460147,-0.0147038,0.106934,0.136835,0.942948,0.00994748,0.0256294,-0.331804
333470096,-0.0111618,0.108603,0.138935,0.943151,0.0100632,0.0260569,-0.331189
333480142,0.00319445,0.110728,0.132661,0.94344,0.0102911,0.0266824,-0.330306
333492979,0.00927487,0.109661,0.130833,0.943721,0.0105907,0.0272949,-0.329445
333500157,0.00938201,0.10594,0.130842,0.943902,0.0107817,0.0276821,-0.328887
333512164,0.0225632,0.111157,0.125094,0.944164,0.0111209,0.0282626,-0.328072
333524174,0.020551,0.120096,0.124668,0.944414,0.0115026,0.0288757,-0.327287
333532264,0.0212981,0.122024,0.124026,0.944578,0.0117565,0.0293095,-0.326763
333544890,0.0295925,0.118288,0.117004,0.944812,0.0121695,0.0299363,-0.326017
333552199,0.0324634,0.113485,0.114123,0.944959,0.0124584,0.0303281,-0.325541
333564851,0.030659,0.0939207,0.112637,0.945179,0.0128534,0.0308323,-0.324841
333576381,0.0351411,0.060818,0.105281,0.945388,0.0132157,0.0311747,-0.324183
333584635,0.033748,0.0360211,0.1038,0.945525,0.0134162,0.0312868,-0.323765
333596365,0.0314698,-0.00957982,0.0999115,0.945732,0.0136424,0.0312507,-0.323153
333608956,0.0276681,-0.0603697,0.0814194,0.945918,0.0137413,0.0309455,-0.322634
333620174,0.0261942,-0.106188,0.065586,0.946076,0.0137253,0.0303741,-0.322225
333632703,0.0147939,-0.140011,0.0402723,0.946201,0.013592,0.029586,-0.321938
333640379,0.0242848,-0.151801,0.0288983,0.946262,0.0134963,0.0289923,-0.321815
333652708,0.0173372,-0.169066,0.00820834,0.946322,0.0133015,0.0280261,-0.321734
333664273,0.0121564,-0.182564,-0.0136723,0.946339,0.0130336,0.0269965,-0.321781
333674024,0.00685333,-0.198974,-0.0238307,0.946333,0.0128062,0.026248,-0.321871
333684167,-0.00382231,-0.211854,-0.0344647,0.946305,0.012415,0.0250699,-0.322064
333692136,-0.0161363,-0.222369,-0.0419008,0.946274,0.012083,0.024255,-0.32223
333704248,-0.0262597,-0.222914,-0.0497878,0.946215,0.0115277,0.0230363,-0.322511
333716499,-0.0342324,-0.23302,-0.0597924,0.946136,0.0109003,0.0217925,-0.32285
333724953,-0.0370399,-0.240278,-0.0682255,0.94607,0.0104568,0.0209335,-0.323117
333736156,-0.0442638,-0.256338,-0.0790721,0.945951,0.00972623,0.0195919,-0.32357
333748689,-0.048407,-0.268681,-0.0914219,0.945807,0.0089358,0.0181856,-0.324097
333760097,-0.0464735,-0.273779,-0.0964077,0.945646,0.00814,0.0167222,-0.324665
333772672,-0.0420033,-0.279101,-0.102379,0.945469,0.00734765,0.0152419,-0.325272
333780124,-0.0368979,-0.282073,-0.106085,0.945343,0.00683314,0.0142307,-0.325694
333792160,-0.0270994,-0.282292,-0.110904,0.945142,0.00610624,0.0126901,-0.326356
333804181,-0.00731276,-0.282083,-0.116004,0.944927,0.00546197,0.0111066,-0.327047
333812211,0.000988966,-0.268674,-0.118456,0.944776,0.00510088,0.0100791,-0.327521
333824181,0.0104593,-0.251752,-0.114942,0.944548,0.00463691,0.00859007,-0.328228
333832168,0.0165441,-0.229374,-0.112074,0.944398,0.00438688,0.00767872,-0.328686
333844237,0.0180186,-0.198329,-0.101758,0.944185,0.00407516,0.00645573,-0.329327
333856313,0.00588387,-0.167444,-0.085574,0.943996,0.00378879,0.00542145,-0.32989
333866433,0.00227274,-0.148663,-0.0747394,0.943888,0.00360295,0.00483572,-0.330212
333876219,-0.0151859,-0.124157,-0.0567344,0.943751,0.00328975,0.00410472,-0.330615
333888116,-0.0255117,-0.0994805,-0.0334358,0.943656,0.00295414,0.00352199,-0.330895
333896228,-0.030293,-0.0916205,-0.0232336,0.943613,0.00272568,0.00320725,-0.331024
333908975,-0.0373206,-0.0821483,-0.00313908,0.943577,0.00232951,0.00274869,-0.331133
333917722,-0.0396556,-0.0839388,0.0103801,0.943577,0.00205195,0.00245503,-0.331138
333929786,-0.0375369,-0.093947,0.0246413,0.9436,0.00165754,0.00199769,-0.331077
333938905,-0.0350776,-0.101822,0.0283624,0.943626,0.0013986,0.00166228,-0.331007
333949820,-0.0235886,-0.128322,0.0359286,0.943677,0.00101267,0.00101667,-0.330867
333961785,-0.0157071,-0.141092,0.0367623,0.94373,0.00063707,0.000273276,-0.330716
333969817,-0.00879792,-0.155988,0.0373061,0.943767,0.000397384,-0.000294084,-0.330612
333981772,-0.00453411,-0.162908,0.0387766,0.943825,4.21968e-05,-0.00120453,-0.330445
333990217,0.000996961,-0.170251,0.0417627,0.943865,-0.000174766,-0.00184845,-0.330327
334002590,0.00355551,-0.17366,0.0452593,0.94393,-0.000505478,-0.00284591,-0.330132
334013771,0.00546707,-0.181855,0.0505889,0.944004,-0.000836098,-0.00387848,-0.32991
334022115,0.00121219,-0.177169,0.0527188,0.944057,-0.00105786,-0.00455625,-0.329748
334033812,0.00302799,-0.184617,0.0581449,0.944144,-0.00140933,-0.00561001,-0.329482
334046411,0.00652957,-0.185259,0.0644237,0.944241,-0.00175186,-0.00666822,-0.329182
334057785,0.00660636,-0.190482,0.0668651,0.944344,-0.00209691,-0.00775301,-0.328863
334070233,0.00373982,-0.18846,0.0675128,0.944447,-0.00245511,-0.00884219,-0.328535
334077947,0.00405276,-0.190903,0.0668566,0.944515,-0.00269754,-0.00957063,-0.328317
334090213,0.00575777,-0.185694,0.0663291,0.944616,-0.00305208,-0.0106448,-0.327991
334101830,0.00128628,-0.182928,0.0644107,0.944715,-0.00340992,-0.0117001,-0.327665
334114291,-0.00585162,-0.175159,0.0605874,0.944807,-0.00378726,-0.0127059,-0.32736
334125833,-0.0138248,-0.16973,0.058134,0.944892,-0.00418675,-0.0136618,-0.327071
334134727,-0.019346,-0.16228,0.0566501,0.944945,-0.00446844,-0.0142641,-0.326888
334145718,-0.0289484,-0.151843,0.0569673,0.945025,-0.00492644,-0.0150985,-0.326614
334158505,-0.0375588,-0.132376,0.0612221,0.94511,-0.0054084,-0.0158295,-0.326323
334169689,-0.0483041,-0.121851,0.0648416,0.945204,-0.00591397,-0.0164537,-0.326011
334181799,-0.0533093,-0.0992852,0.0697334,0.94531,-0.00642851,-0.0169547,-0.32567
334189911,-0.0575714,-0.088532,0.0723986,0.945384,-0.00677621,-0.0172271,-0.325433
334201816,-0.0637542,-0.0653169,0.0718654,0.945499,-0.00727155,-0.0175278,-0.32507
334213770,-0.064056,-0.0550181,0.0712261,0.945614,-0.00776207,-0.0177427,-0.324715
334222394,-0.0707589,-0.0457437,0.0658931,0.945686,-0.0080958,-0.0178308,-0.324491
334233783,-0.0714948,-0.0405383,0.0619919,0.945787,-0.00858248,-0.0179309,-0.324179
334241860,-0.0742805,-0.0413864,0.0583611,0.94585,-0.00892926,-0.0179898,-0.323983
334253732,-0.076209,-0.0222306,0.0552836,0.945942,-0.00942978,-0.0179941,-0.3237
334265792,-0.0802416,-0.0142614,0.05252,0.946026,-0.00992304,-0.0179482,-0.323441
334274442,-0.0845919,-0.00723804,0.0500553,0.94608,-0.0102551,-0.0178746,-0.323278
334285856,-0.0902385,0.000542319,0.0489952,0.94616,-0.0107782,-0.0177091,-0.323036
334297707,-0.0955748,0.0113856,0.0489819,0.946238,-0.0113131,-0.0174829,-0.3228
334305833,-0.0967403,0.0140586,0.0495205,0.946291,-0.011663,-0.0173067,-0.322641
334318237,-0.0987669,0.0235192,0.049839,0.946373,-0.0122045,-0.0169989,-0.322397
334325802,-0.0960938,0.0265043,0.0527092,0.94643,-0.0125438,-0.0167757,-0.322228
334338387,-0.0922605,0.0334203,0.0533496,0.946519,-0.0130324,-0.0164163,-0.321967
334349758,-0.0817228,0.036193,0.0548369,0.946611,-0.0134745,-0.0160425,-0.321696
334358502,-0.07576,0.041517,0.0537788,0.946674,-0.0137238,-0.0157884,-0.321515
334371328,-0.0595146,0.0482036,0.0555845,0.946783,-0.0140572,-0.0153465,-0.321198
334383452,-0.0453393,0.0572651,0.054738,0.946882,-0.0142479,-0.0149369,-0.320919
334395389,-0.0375564,0.0643998,0.0519695,0.946977,-0.0143722,-0.0145051,-0.320651
334404296,-0.0308641,0.0687545,0.050262,0.94704,-0.0144148,-0.0142033,-0.320479
334415360,-0.018091,0.0838484,0.0460129,0.94713,-0.0143834,-0.0137163,-0.320235
334427832,-0.00958261,0.101311,0.0430304,0.947214,-0.0142749,-0.0131458,-0.320015
334439309,-0.00117294,0.119404,0.0392032,0.947294,-0.0140859,-0.0124901,-0.319813
334453114,-0.000432214,0.137399,0.0371795,0.94737,-0.0138436,-0.0117347,-0.319626
334463451,-0.00628688,0.147616,0.0357945,0.947446,-0.0135901,-0.0109053,-0.319439
334475348,-0.0184274,0.154748,0.0353765,0.947517,-0.0133868,-0.0100082,-0.319268
334483379,-0.0304578,0.159113,0.0346255,0.947563,-0.0132954,-0.00936881,-0.319155
334495329,-0.0524845,0.167414,0.0335531,0.947629,-0.0132435,-0.00834607,-0.31899
334507374,-0.0740766,0.176136,0.0346173,0.947692,-0.0133005,-0.00722667,-0.318826
334516125,-0.0895082,0.183478,0.0373825,0.947736,-0.0134002,-0.00642384,-0.318709
334527388,-0.103237,0.188374,0.041959,0.947808,-0.0136182,-0.00516333,-0.318509
334539906,-0.112911,0.188387,0.0482213,0.947888,-0.0138884,-0.00387563,-0.318278
334551408,-0.11707,0.180182,0.0568472,0.947979,-0.0142067,-0.0026055,-0.318004
334563932,-0.117497,0.172622,0.0674904,0.948088,-0.014544,-0.00137885,-0.317672
334571552,-0.11792,0.168578,0.0749398,0.948172,-0.0147816,-0.000579208,-0.317413
334584073,-0.118238,0.167195,0.0872784,0.948315,-0.0151409,0.000607273,-0.31697
334595507,-0.117608,0.172622,0.0994091,0.948479,-0.0154944,0.00181084,-0.316456
334607325,-0.114099,0.180487,0.113219,0.948667,-0.0158202,0.00305371,-0.315866
334619356,-0.108876,0.195395,0.126656,0.94888,-0.016094,0.00436466,-0.315197
334627455,-0.104939,0.203688,0.137597,0.949035,-0.0162428,0.00527095,-0.314707
334639344,-0.0957753,0.21488,0.152008,0.949292,-0.0164082,0.00667675,-0.313895
334651388,-0.0841722,0.220297,0.165811,0.949573,-0.0164973,0.00810328,-0.313006
334663374,-0.0743894,0.216675,0.174222,0.949871,-0.0165246,0.00950862,-0.312061
334675436,-0.0682002,0.199984,0.177191,0.950178,-0.0165298,0.010839,-0.311082
334683561,-0.0647949,0.181776,0.176131,0.950381,-0.0165391,0.011644,-0.310429
334695437,-0.0642592,0.149331,0.17282,0.950682,-0.0165973,0.0126968,-0.309461
334707332,-0.0700067,0.115195,0.1672,0.950974,-0.0167357,0.0135636,-0.308519
334715468,-0.0750076,0.0902662,0.160154,0.951161,-0.0168891,0.0140313,-0.307915
334727327,-0.0787398,0.046302,0.146648,0.951422,-0.0172033,0.0145454,-0.307063
334736077,-0.0830904,0.0117055,0.138541,0.951585,-0.0174834,0.0147334,-0.306533
334747313,-0.0841624,-0.043334,0.121835,0.951807,-0.0179972,0.0147583,-0.305813
334760390,-0.0770211,-0.0948277,0.105117,0.952002,-0.018589,0.0144717,-0.305183
334771326,-0.0599713,-0.135085,0.0912795,0.952175,-0.019182,0.0139052,-0.304634
334783382,-0.0359543,-0.166102,0.0862817,0.952338,-0.0197018,0.0131055,-0.304127
334792115,-0.012344,-0.182177,0.0819241,0.952442,-0.019986,0.012457,-0.30381
334804311,0.0188107,-0.194316,0.0787109,0.952595,-0.0202834,0.0113609,-0.303351
334812118,0.0447418,-0.195166,0.0792531,0.952699,-0.0203696,0.010579,-0.303048
334825448,0.0846307,-0.178462,0.0813756,0.952881,-0.0202888,0.00923779,-0.302526
334836956,0.111189,-0.142772,0.0800873,0.95304,-0.019976,0.0081705,-0.302074
334848932,0.130798,-0.0933604,0.0828627,0.953204,-0.0194556,0.00732137,-0.301613
334860999,0.138054,-0.030198,0.085522,0.953369,-0.0187589,0.00678547,-0.301149
334869760,0.135064,0.0113647,0.0880864,0.95348,-0.0182284,0.00663257,-0.300833
334880961,0.123577,0.0733506,0.0930811,0.95365,-0.0173954,0.00671653,-0.300341
334894031,0.105621,0.133505,0.102544,0.953829,-0.016539,0.00718102,-0.299809
334905094,0.0838745,0.186391,0.110107,0.954016,-0.015701,0.00799432,-0.299237
334918007,0.0618544,0.236916,0.118611,0.954212,-0.014898,0.00914663,-0.298619
334928938,0.0402309,0.286023,0.12511,0.954414,-0.0141311,0.0106256,-0.297962
334940972,0.0222621,0.322578,0.129787,0.954617,-0.0134061,0.012365,-0.297278
334948943,0.0088247,0.345944,0.131067,0.954751,-0.0129418,0.0136629,-0.296812
334961926,-0.00498456,0.367394,0.132437,0.954947,-0.0122847,0.015742,-0.296106
334972948,-0.0248694,0.371759,0.133928,0.955138,-0.0117117,0.0179182,-0.295387
334981230,-0.0345781,0.363865,0.13553,0.955264,-0.0113871,0.0193648,-0.294901
334993496,-0.0500902,0.332535,0.133187,0.955448,-0.0110115,0.0214302,-0.294174
335005800,-0.0622292,0.283659,0.129773,0.955628,-0.0107922,0.0232685,-0.293458
335016926,-0.0705363,0.232442,0.124339,0.955802,-0.0107223,0.0248318,-0.292764
335028978,-0.0748989,0.187428,0.122849,0.955975,-0.0107676,0.0261266,-0.292086
335037952,-0.0794812,0.167512,0.123171,0.956092,-0.0108511,0.0268866,-0.29163
335049439,-0.0862857,0.14827,0.128379,0.956274,-0.0110378,0.0279243,-0.290928
335062876,-0.0920382,0.13039,0.133489,0.956467,-0.0112935,0.0288774,-0.290189
335073446,-0.0983918,0.106817,0.135412,0.956668,-0.0116148,0.0297195,-0.289428
335085758,-0.113852,0.0750715,0.131365,0.956866,-0.0120599,0.0304181,-0.28868
335097799,-0.13866,0.0407739,0.1272,0.957064,-0.0126789,0.0309558,-0.28794
335109042,-0.164196,0.0100232,0.120402,0.957251,-0.013511,0.0313508,-0.287237
335117847,-0.182324,-0.00968833,0.115696,0.957372,-0.0141787,0.0315481,-0.286781
335128979,-0.217222,-0.0320137,0.109958,0.957542,-0.0153793,0.0317705,-0.286126
335142067,-0.248144,-0.0329658,0.108991,0.957705,-0.0167813,0.0319975,-0.285476
335153019,-0.284191,-0.0206622,0.109947,0.95786,-0.018366,0.0323269,-0.28482
335164954,-0.309131,0.012154,0.114201,0.958009,-0.0200732,0.0328621,-0.284141
335172957,-0.322631,0.0402043,0.117289,0.958106,-0.0212401,0.0333632,-0.283671
335184987,-0.338709,0.0928076,0.125584,0.958246,-0.0230002,0.0343808,-0.282939
335196970,-0.346596,0.148702,0.137402,0.958386,-0.0247402,0.0357356,-0.282146
335206075,-0.350003,0.182726,0.144863,0.958482,-0.0258654,0.03682,-0.281581
335216971,-0.351705,0.225633,0.158251,0.958626,-0.0274897,0.0386535,-0.280689
335229599,-0.349562,0.258879,0.169547,0.958779,-0.0290411,0.0407029,-0.279719
335240889,-0.343216,0.27553,0.178782,0.958936,-0.0305285,0.0428733,-0.278696
335252951,-0.331369,0.288856,0.188485,0.959098,-0.0319284,0.0451091,-0.277626
