timestamp,time_utc_usec,lat,lon,alt,alt_ellipsoid,s_variance_m_s,c_variance_rad,eph,epv,hdop,vdop,noise_per_ms,jamming_indicator,vel_m_s,vel_n_m_s,vel_e_m_s,vel_d_m_s,cog_rad,timestamp_time_relative,fix_type,vel_ned_valid,satellites_used
326849080,1492463069399994,452206015,-931453379,278247,247212,0.42,0.633545,1.306,1.729,0.81,1.12,90,3,0.17,0.17,-0.03,0.0,6.26387,-594879,3,1,10
327234073,1492463070399994,452206017,-931453376,278202,247167,0.42,0.63358,1.313,1.726,0.81,1.12,90,4,0.16,0.06,0.12,-0.08,6.26387,23016,3,1,10
327435076,1492463070399994,452206018,-931453374,278213,247177,0.42,0.633599,1.316,1.725,0.81,1.12,90,4,0.09,0.09,-0.02,-0.02,6.26387,-177987,3,1,10
327634273,1492463070399994,452206016,-931453373,278210,247175,0.46,0.633619,1.318,1.724,0.81,1.12,90,4,0.28,-0.24,-0.02,-0.15,6.26387,-377184,3,1,10
327839126,1492463070399994,452206014,-931453373,278186,247150,0.41,0.633637,1.32,1.723,0.81,1.12,90,4,0.17,0.01,-0.07,-0.15,6.26387,-582037,3,1,10
328037227,1492463070399994,452206013,-931453372,278154,247119,0.45,0.633656,1.321,1.721,0.81,1.12,90,5,0.04,-0.04,-0.01,-0.02,6.26387,-780138,3,1,10
328235249,1492463071399995,452206013,-931453373,278119,247084,0.43,0.633675,1.322,1.718,0.81,1.12,90,5,0.13,-0.05,-0.04,-0.11,6.26387,20831,3,1,10
328437200,1492463071399995,452206013,-931453372,278117,247082,0.43,0.633693,1.323,1.715,0.81,1.12,90,5,0.1,0.09,0.05,0.03,6.26387,-181120,3,1,10
328633074,1492463071399995,452206012,-931453370,278118,247083,0.42,0.633712,1.324,1.712,0.81,1.12,90,5,0.08,-0.06,0.04,-0.03,6.26387,-376994,3,1,10
328840152,1492463071399995,452206013,-931453371,278074,247039,0.4,0.633729,1.325,1.71,0.81,1.12,90,5,0.19,0.09,-0.17,0.02,6.26387,-584072,3,1,10
329034667,1492463071399995,452206014,-931453370,277995,246959,0.42,0.633747,1.327,1.709,0.81,1.12,90,5,0.17,0.03,0.13,-0.1,6.26387,-778587,3,1,10
329238083,1492463072399995,452206013,-931453367,277938,246903,0.41,0.633764,1.327,1.705,0.81,1.12,90,5,0.09,-0.06,-0.04,0.04,6.26387,21917,3,1,10
329437071,1492463072399995,452206014,-931453366,277879,246844,0.43,0.633783,1.326,1.701,0.81,1.12,90,5,0.15,0.14,0.03,0.05,6.26387,-177071,3,1,10
329636227,1492463072399995,452206014,-931453364,277822,246787,0.37,0.633799,1.325,1.698,0.81,1.12,90,5,0.21,-0.12,0.09,0.15,6.26387,-376227,3,1,10
329836072,1492463072399995,452206012,-931453363,277797,246762,0.42,0.633818,1.322,1.695,0.81,1.12,90,5,0.25,-0.02,-0.1,0.23,6.26387,-576072,3,1,10
330037069,1492463072399995,452206012,-931453362,277715,246680,0.44,0.633837,1.321,1.696,0.81,1.12,90,5,0.3,0.0,0.09,0.29,6.26387,-777069,3,1,10
330234070,1492463073399995,452206013,-931453358,277683,246648,0.49,0.633858,1.321,1.7,0.81,1.12,90,5,0.22,0.13,0.13,0.13,6.26387,22191,3,1,10
330438194,1492463073399995,452206015,-931453354,277614,246579,0.51,0.63388,1.321,1.703,0.81,1.12,90,5,0.26,0.11,0.1,0.21,6.26387,-181933,3,1,10
330638066,1492463073399995,452206015,-931453351,277611,246576,0.4,0.633898,1.32,1.704,0.81,1.12,90,5,0.09,-0.08,0.04,0.04,6.26387,-381805,3,1,10
330842064,1492463073399995,452206014,-931453349,277604,246568,0.38,0.633914,1.318,1.706,0.81,1.12,90,5,0.06,0.0,-0.06,-0.01,6.26387,-585803,3,1,10
331042589,1492463073399995,452206014,-931453349,277594,246559,0.45,0.633934,1.317,1.709,0.81,1.12,90,5,0.13,0.04,-0.07,0.11,6.26387,-786328,3,1,10
331240070,1492463074399995,452206012,-931453350,277599,246564,0.49,0.633955,1.316,1.713,0.81,1.12,90,5,0.24,-0.19,-0.14,-0.07,6.26387,22019,3,1,10
331437649,1492463074399995,452206011,-931453352,277605,246570,0.46,0.633975,1.315,1.715,0.81,1.12,90,5,0.29,0.02,-0.14,-0.25,6.26387,-175560,3,1,10
331640069,1492463074399995,452206010,-931453350,277642,246606,0.47,0.633995,1.315,1.719,0.81,1.12,90,5,0.22,-0.08,0.09,-0.18,6.26387,-377980,3,1,10
331834904,1492463074399995,452206010,-931453349,277690,246654,0.48,0.634015,1.319,1.727,0.81,1.12,90,5,0.28,0.01,-0.04,-0.28,6.26387,-572815,3,1,10
332042450,1492463074399995,452206011,-931453348,277697,246662,0.48,0.634036,1.322,1.734,0.81,1.12,90,6,0.08,0.0,-0.03,-0.07,6.26387,-780361,3,1,10
332234071,1492463075399996,452206012,-931453345,277679,246644,0.48,0.634057,1.322,1.736,0.81,1.12,90,6,0.08,0.08,0.03,-0.02,6.26387,21999,3,1,10
332438065,1492463075399996,452206014,-931453342,277647,246612,0.39,0.634074,1.323,1.737,0.81,1.12,90,6,0.06,0.05,-0.02,-0.02,6.26387,-181995,3,1,10
332636073,1492463075399996,452206015,-931453340,277595,246560,0.5,0.634095,1.322,1.741,0.81,1.12,90,6,0.12,-0.07,-0.04,-0.09,6.26387,-380003,3,1,10
332848070,1492463075399996,452206015,-931453339,277637,246602,0.49,0.634117,1.324,1.748,0.81,1.12,90,6,0.05,-0.01,0.0,-0.05,6.26387,-592000,3,1,10
333042071,1492463075399996,452206015,-931453338,277627,246592,0.43,0.634135,1.327,1.757,0.81,1.12,90,3,0.09,0.06,-0.03,-0.07,6.26387,-786001,3,1,10
333241215,1492463076399996,452206018,-931453336,277620,246584,0.42,0.634153,1.328,1.764,0.81,1.12,90,3,0.18,0.1,-0.03,-0.15,6.26387,22142,3,1,10
333435221,1492463076399996,452206020,-931453334,277629,246594,0.4,0.634171,1.325,1.764,0.81,1.12,90,3,0.18,0.15,-0.03,-0.09,6.26387,-171864,3,1,10
333637501,1492463076399996,452206023,-931453332,277627,246591,0.39,0.634187,1.323,1.767,0.81,1.12,90,3,0.15,0.13,-0.02,-0.06,6.26387,-374144,3,1,10
333831082,1492463076399996,452206026,-931453333,277574,246539,0.36,0.634203,1.32,1.766,0.81,1.12,90,3,0.26,0.08,-0.23,-0.07,6.26387,-567725,3,1,10
334040071,1492463076399996,452206027,-931453339,277601,246566,0.4,0.63422,1.318,1.768,0.81,1.12,90,3,0.36,-0.02,-0.36,-0.03,6.26387,-776714,3,1,10
334234436,1492463077399996,452206028,-931453342,277634,246599,0.39,0.634237,1.318,1.769,0.81,1.12,90,4,0.14,0.08,-0.06,-0.1,6.26387,21765,3,1,10
334429069,1492463077399996,452206030,-931453343,277728,246692,0.42,0.634255,1.321,1.775,0.81,1.12,90,4,0.19,0.11,-0.07,-0.15,6.26387,-172868,3,1,10
334636423,1492463077399996,452206035,-931453341,277711,246676,0.5,0.634277,1.324,1.783,0.81,1.12,90,4,0.37,0.33,0.16,-0.04,6.26387,-380222,3,1,10
334835080,1492463077399996,452206041,-931453335,277740,246705,0.44,0.634299,1.328,1.788,0.81,1.12,90,4,0.52,0.27,0.25,-0.37,6.26387,-578879,3,1,10
335035103,1492463077399996,452206046,-931453329,277738,246703,0.43,0.634318,1.331,1.795,0.81,1.12,90,4,0.39,0.22,0.21,-0.26,6.26387,-778902,3,1,10
335239079,1492463078399996,452206050,-931453323,277792,246757,0.43,0.634337,1.335,1.801,0.81,1.12,90,4,0.37,0.18,0.19,-0.27,6.26387,23595,3,1,10
335433237,1492463078399996,452206054,-931453317,277796,246761,0.43,0.63436,1.339,1.807,0.81,1.12,90,4,0.54,0.27,0.22,-0.41,6.26387,-170563,3,1,10
335635370,1492463078399996,452206059,-931453315,277864,246829,0.45,0.63438,1.343,1.816,0.81,1.12,90,4,0.46,0.23,-0.09,-0.38,6.26387,-372696,3,1,10
335834069,1492463078399996,452206062,-931453318,277879,246844,0.46,0.634403,1.346,1.824,0.81,1.12,90,4,0.53,0.13,-0.17,-0.49,6.26387,-571395,3,1,10
336035077,1492463078399996,452206066,-931453324,277894,246859,0.45,0.634423,1.352,1.833,0.81,1.12,89,3,0.47,0.19,-0.39,0.19,6.26387,-772403,3,1,10
336237247,1492463079399997,452206068,-931453331,277851,246816,0.54,0.634447,1.358,1.844,0.81,1.12,89,3,0.29,-0.01,-0.22,-0.18,6.26387,22824,3,1,10
336433157,1492463079399997,452206070,-931453334,277893,246858,0.53,0.634469,1.366,1.86,0.81,1.12,89,3,0.37,0.19,-0.15,-0.29,6.26387,-173086,3,1,10
336629198,1492463079399997,452206075,-931453336,277916,246880,0.54,0.634492,1.375,1.875,0.81,1.12,89,3,0.36,0.28,-0.09,-0.19,6.26387,-369127,3,1,10
336837088,1492463079399997,452206082,-931453339,277936,246900,0.51,0.634527,1.385,1.888,0.81,1.12,89,3,0.79,0.47,-0.19,-0.61,6.26387,-577017,3,1,10
337033076,1492463079399997,452206086,-931453338,277916,246881,0.53,0.634549,1.393,1.901,0.81,1.12,89,3,0.4,-0.06,0.19,0.35,6.26387,-773005,3,1,10
337236094,1492463080399997,452206090,-931453335,277882,246846,0.5,0.634571,1.401,1.913,0.81,1.12,89,2,0.49,0.41,0.01,-0.28,6.26387,22146,3,1,10
337431070,1492463080399997,452206097,-931453336,277946,246911,0.5,0.634595,1.408,1.926,0.81,1.12,89,2,0.56,0.38,-0.1,-0.4,6.26387,-172830,3,1,10
337634106,1492463080399997,452206103,-931453337,277982,246946,0.47,0.634616,1.416,1.937,0.81,1.12,89,2,0.41,0.29,0.05,-0.28,6.26387,-375866,3,1,10
337830072,1492463080399997,452206109,-931453340,277972,246937,0.54,0.634639,1.422,1.947,0.81,1.12,89,2,0.36,0.25,-0.24,-0.11,6.26387,-571832,3,1,10
338034110,1492463080399997,452206111,-931453347,277906,246871,0.53,0.634662,1.428,1.956,0.81,1.12,89,2,0.36,0.08,-0.25,-0.25,6.26387,-775870,3,1,10
338235170,1492463081399997,452206111,-931453354,277900,246864,0.5,0.634684,1.432,1.964,0.81,1.12,89,4,0.28,-0.07,-0.2,-0.18,6.26387,22056,3,1,10
338431078,1492463081399997,452206109,-931453356,277927,246891,0.53,0.634707,1.436,1.971,0.81,1.12,89,4,0.24,-0.11,0.11,-0.19,6.26387,-173852,3,1,10
338633156,1492463081399997,452206106,-931453351,277960,246924,0.5,0.634728,1.439,1.978,0.81,1.12,89,4,0.4,-0.19,0.33,-0.12,6.26387,-375930,3,1,10
338842439,1492463081399997,452206105,-931453348,277936,246900,0.41,0.634746,1.441,1.983,0.81,1.12,89,4,0.11,0.03,0.08,-0.07,6.26387,-585213,3,1,10
339032043,1492463081399997,452206103,-931453346,277964,246928,0.49,0.634767,1.443,1.987,0.81,1.12,89,4,0.44,-0.25,0.26,-0.25,6.26387,-774817,3,1,10
339234065,1492463082399997,452206100,-931453345,277936,246901,0.53,0.63479,1.445,1.991,0.81,1.12,89,4,0.2,-0.08,-0.1,-0.15,6.26387,22600,3,1,10
339434628,1492463082399997,452206098,-931453346,277877,246842,0.43,0.634808,1.447,1.996,0.81,1.12,89,4,0.18,-0.06,0.16,-0.06,6.26387,-177963,3,1,10
339636067,1492463082399997,452206097,-931453345,277837,246802,0.42,0.634826,1.449,2.0,0.81,1.12,89,4,0.09,-0.02,0.07,-0.06,6.26387,-379402,3,1,10
339833070,1492463082399997,452206096,-931453346,277881,246845,0.5,0.634848,1.45,2.003,0.81,1.12,89,4,0.23,-0.12,-0.13,-0.15,6.26387,-576405,3,1,10
340036033,1492463082399997,452206094,-931453348,277842,246806,0.42,0.634866,1.451,2.007,0.81,1.12,89,4,0.07,-0.03,0.06,-0.03,6.26387,-779368,3,1,10
340233566,1492463083399997,452206093,-931453349,277781,246745,0.5,0.634888,1.453,2.01,0.81,1.12,89,4,0.15,-0.07,-0.01,-0.14,6.26387,21635,3,1,10
340443078,1492463083399997,452206092,-931453351,277753,246718,0.49,0.634909,1.453,2.012,0.81,1.12,89,4,0.3,-0.09,-0.14,-0.25,6.26387,-187877,3,1,10
340633171,1492463083399997,452206091,-931453353,277786,246751,0.44,0.634928,1.451,2.012,0.81,1.12,89,4,0.07,0.01,0.01,-0.06,6.26387,-377970,3,1,10
340836238,1492463083399997,452206093,-931453358,277779,246744,0.42,0.634946,1.45,2.012,0.81,1.12,89,4,0.37,0.2,-0.3,-0.09,6.26387,-581037,3,1,10
341033070,1492463083399997,452206100,-931453368,277828,246792,0.43,0.65393,1.45,2.012,0.81,1.12,89,4,0.72,0.57,-0.41,-0.16,5.97061,-777869,3,1,10
341235268,1492463084399998,452206107,-931453380,277829,246794,0.45,0.653954,1.452,2.015,0.81,1.12,89,4,0.56,0.35,-0.36,-0.25,5.97061,21909,3,1,10
341440790,1492463084399998,452206113,-931453392,277899,246864,0.49,0.708154,1.454,2.017,0.81,1.12,89,4,0.75,0.44,-0.5,-0.34,5.72687,-183613,3,1,10
341640335,1492463084399998,452206126,-931453414,277826,246790,0.46,0.32906,1.455,2.016,0.81,1.12,89,4,1.5,0.91,-1.1,0.48,5.46027,-383158,3,1,10
341833067,1492463084399998,452206149,-931453452,277736,246701,0.47,0.21868,1.457,2.018,0.81,1.12,89,4,2.37,1.69,-1.62,-0.36,5.50121,-575890,3,1,10
342041072,1492463084399998,452206204,-931453524,278238,247203,0.55,0.106099,1.462,2.026,0.81,1.12,89,4,6.26,4.19,-3.69,-2.83,5.54986,-783895,3,1,10
342237072,1492463085399998,452206284,-931453625,278899,247864,0.54,0.0951737,1.469,2.033,0.81,1.12,89,3,7.1,4.75,-4.16,-3.26,5.55745,21192,3,1,10
342433618,1492463085399998,452206366,-931453732,279683,248648,0.53,0.0890692,1.473,2.038,0.81,1.12,89,3,7.44,4.55,-4.09,-4.23,5.55417,-175354,3,1,10
342632082,1492463085399998,452206440,-931453835,280745,249710,0.52,0.0918891,1.477,2.044,0.81,1.12,89,3,7.38,3.89,-4.03,-4.81,5.51727,-373818,3,1,10
342835069,1492463085399998,452206516,-931453952,281707,250672,0.62,0.0808957,1.484,2.053,0.81,1.12,89,3,8.0,4.42,-5.02,-4.39,5.46995,-576805,3,1,10
343031645,1492463085399998,452206601,-931454086,282474,251439,0.61,0.0786396,1.495,2.062,0.81,1.12,89,3,8.23,4.9,-5.4,-3.82,5.4489,-773381,3,1,10
343235817,1492463086399998,452206688,-931454231,283213,252178,0.58,0.073438,1.503,2.066,0.81,1.12,89,3,8.49,4.89,-5.88,-3.7,5.40596,21272,3,1,10
343418530,1492463086399998,452206775,-931454379,284186,253150,0.57,0.0712656,1.51,2.07,0.81,1.12,89,3,8.95,4.86,-5.93,-4.61,5.39933,-161441,3,1,10
343614546,1492463086399998,452206854,-931454527,285406,254371,0.56,0.0769685,1.516,2.074,0.81,1.12,89,3,9.3,4.1,-5.76,-6.05,5.33044,-357457,3,1,10
343834064,1492463086399998,452206925,-931454673,286711,255675,0.57,0.076218,1.523,2.081,0.81,1.12,89,3,9.27,3.96,-5.76,-6.09,5.31417,-576975,3,1,10
344037072,1492463086399998,452206998,-931454828,287910,256875,0.59,0.0687414,1.532,2.089,0.81,1.12,89,3,9.56,4.19,-6.32,-5.82,5.29848,-779983,3,1,10
344230074,1492463087399998,452207084,-931454993,288822,257787,0.66,0.0672507,1.54,2.1,0.81,1.12,83,5,9.61,5.1,-6.53,-4.87,5.37579,23081,3,1,10
344432803,1492463087399998,452207183,-931455166,289652,258617,0.65,0.0602098,1.551,2.111,0.81,1.12,83,5,10.05,5.68,-6.95,-4.52,5.39831,-179648,3,1,10
344634106,1492463087399998,452207294,-931455351,290425,259390,0.65,0.0557954,1.559,2.122,0.81,1.12,83,5,10.58,6.35,-7.38,-4.13,5.42321,-380951,3,1,10
344844354,1492463087399998,452207414,-931455537,291166,260131,0.62,0.052713,1.568,2.132,0.81,1.12,83,5,10.76,6.91,-7.27,-3.89,5.47277,-591199,3,1,10
345033650,1492463087399998,452207546,-931455727,291823,260788,0.61,0.0491165,1.574,2.141,0.81,1.12,83,5,11.28,7.5,-7.54,-3.77,5.49502,-780495,3,1,10
345233202,1492463088399999,452207687,-931455921,292538,261503,0.61,0.0465378,1.579,2.15,0.81,1.12,83,4,11.75,8.04,-7.57,-4.03,5.52779,20882,3,1,10
345432070,1492463088399999,452207839,-931456117,293293,262258,0.64,0.0431358,1.585,2.158,0.81,1.12,83,4,12.38,8.75,-7.77,-4.06,5.55738,-177986,3,1,10
345638250,1492463088399999,452207997,-931456312,294005,262970,0.66,0.0428337,1.592,2.167,0.81,1.12,83,4,12.25,8.79,-7.54,-3.99,5.57415,-384166,3,1,10
345834211,1492463088399999,452208153,-931456499,294805,263770,0.65,0.0436742,1.596,2.171,0.81,1.12,83,4,11.97,8.66,-7.19,-4.08,5.59011,-580127,3,1,10
346032805,1492463088399999,452208308,-931456680,295763,264728,0.62,0.0422994,1.598,2.174,0.81,1.12,83,4,12.01,8.58,-6.95,-4.72,5.60227,-778721,3,1,10
346232069,1492463089399999,452208464,-931456849,296588,265553,0.63,0.0455754,1.603,2.182,0.81,1.12,83,4,11.77,8.67,-6.33,-4.84,5.65283,23016,3,1,10
346432070,1492463089399999,452208620,-931457005,297346,266311,0.63,0.0470288,1.605,2.189,0.81,1.12,83,4,11.46,8.63,-6.02,-4.54,5.67418,-176985,3,1,10
346634212,1492463089399999,452208777,-931457156,298167,267133,0.64,0.0470441,1.608,2.196,0.81,1.12,83,4,11.39,8.73,-5.93,-4.29,5.68674,-379127,3,1,10
346833100,1492463089399999,452208934,-931457300,299036,268001,0.61,0.0453381,1.61,2.2,0.81,1.12,83,4,11.28,8.86,-5.48,-4.31,5.7295,-578015,3,1,10
347030071,1492463089399999,452209093,-931457434,299909,268874,0.61,0.04565,1.612,2.204,0.81,1.12,83,4,11.12,8.84,-5.09,-4.43,5.76042,-774986,3,1,10
347235080,1492463090399999,452209250,-931457558,300850,269815,0.63,0.0480994,1.614,2.208,0.81,1.12,83,4,10.8,8.69,-4.68,-4.39,5.7891,23007,3,1,10
347433071,1492463090399999,452209403,-931457659,301908,270873,0.63,0.0564228,1.62,2.214,0.81,1.12,83,4,10.43,8.53,-3.44,-4.9,5.89942,-174984,3,1,10
347634104,1492463090399999,452209563,-931457737,302780,271745,0.63,0.0553514,1.626,2.221,0.81,1.12,83,4,10.67,9.04,-2.85,-4.9,5.97835,-376017,3,1,10
347831445,1492463090399999,452209730,-931457801,303691,272656,0.62,0.0559031,1.634,2.228,0.81,1.12,83,4,10.78,9.38,-2.3,-4.8,6.043,-573358,3,1,10
348032206,1492463090399999,452209898,-931457845,304599,273564,0.59,0.0603008,1.641,2.236,0.81,1.12,83,4,10.46,9.5,-1.48,-4.12,6.12828,-774119,3,1,10
348230068,1492463091399999,452210072,-931457868,305386,274351,0.55,0.0577186,1.645,2.242,0.81,1.12,83,3,10.49,9.77,-0.63,-3.77,6.2185,22051,3,1,10
348434066,1492463091399999,452210249,-931457873,306246,275211,0.51,0.0537642,1.649,2.245,0.81,1.12,83,3,10.69,10.01,0.12,-3.76,0.0116625,-181947,3,1,10
348629728,1492463091399999,452210435,-931457859,306921,275886,0.51,0.0468486,1.649,2.248,0.81,1.12,83,3,11.01,10.41,0.84,-3.48,0.080061,-377609,3,1,10
348834071,1492463091399999,452210621,-931457826,307573,276539,0.52,0.0471192,1.651,2.253,0.81,1.12,83,3,10.8,10.27,1.63,-2.92,0.157757,-581952,3,1,10
349028075,1492463091399999,452210805,-931457768,308051,277016,0.49,0.0512708,1.653,2.257,0.81,1.12,83,3,10.7,10.01,2.79,-2.56,0.271409,-775956,3,1,10
349232355,1492463092400000,452210990,-931457693,308459,277424,0.46,0.047684,1.655,2.257,0.81,1.12,83,4,11.0,10.31,3.17,-2.19,0.29864,21730,3,1,10
349430069,1492463092400000,452211177,-931457598,308794,277759,0.48,0.0510594,1.657,2.26,0.81,1.12,83,4,11.35,10.35,4.24,-1.93,0.388618,-175984,3,1,10
349633068,1492463092400000,452211367,-931457472,309238,278203,0.46,0.0481962,1.66,2.261,0.81,1.12,83,4,12.19,10.74,5.43,-1.94,0.468449,-378983,3,1,10
349834068,1492463092400000,452211560,-931457324,309506,278471,0.45,0.0433178,1.659,2.259,0.81,1.12,83,4,12.24,10.42,6.23,-1.57,0.538761,-579983,3,1,10
350034367,1492463092400000,452211749,-931457155,309793,278758,0.43,0.0415804,1.656,2.255,0.81,1.12,83,4,12.52,10.32,6.99,-1.19,0.595241,-780282,3,1,10
350229628,1492463093400000,452211933,-931456962,310067,279032,0.49,0.0443488,1.657,2.259,0.81,1.12,83,5,13.05,10.18,8.06,-1.33,0.670075,21628,3,1,10
350430437,1492463093400000,452212113,-931456737,310427,279392,0.48,0.0414207,1.659,2.262,0.81,1.12,83,5,13.73,9.65,9.56,-2.0,0.780398,-179181,3,1,10
350630093,1492463093400000,452212281,-931456480,310976,279941,0.49,0.0410828,1.662,2.268,0.81,1.12,83,5,14.07,8.91,10.56,-2.62,0.869903,-378837,3,1,10
350845191,1492463093400000,452212435,-931456194,311614,280579,0.53,0.0383609,1.667,2.275,0.81,1.12,83,5,14.68,8.28,11.73,-3.03,0.956069,-593935,3,1,10
351030072,1492463093400000,452212578,-931455880,312244,281209,0.55,0.0361018,1.671,2.284,0.81,1.12,83,5,15.2,7.56,12.81,-3.14,1.03747,-778816,3,1,10
351232871,1492463094400000,452212708,-931455550,312684,281649,0.55,0.0300015,1.671,2.283,0.81,1.12,83,5,14.8,6.78,12.97,-2.2,1.0892,21243,3,1,10
351429658,1492463094400000,452212828,-931455207,313022,281987,0.55,0.0288931,1.669,2.281,0.81,1.12,83,5,15.21,6.19,13.78,-1.79,1.14832,-175544,3,1,10
351632068,1492463094400000,452212926,-931454841,313240,282205,0.64,0.0349818,1.674,2.29,0.81,1.12,83,5,15.56,4.64,14.79,-1.37,1.26709,-377954,3,1,10
351832077,1492463094400000,452213001,-931454450,313368,282333,0.82,0.0417875,1.685,2.304,0.81,1.12,83,5,16.21,3.66,15.76,-0.92,1.34276,-577963,3,1,10
352028076,1492463094400000,452213048,-931454035,313366,282331,0.73,0.0381918,1.702,2.318,0.81,1.12,83,5,16.78,1.77,16.68,-0.35,1.46525,-773962,3,1,10
352230133,1492463095400000,452213060,-931453602,313329,282293,0.68,0.0365948,1.717,2.332,0.81,1.12,83,3,17.29,-0.26,17.29,-0.02,1.5856,22722,3,1,10
352432842,1492463095400000,452213042,-931453165,313079,282044,0.57,0.0309215,1.727,2.339,0.81,1.12,83,3,17.25,-2.06,17.12,0.39,1.69038,-179987,3,1,10
352628169,1492463095400000,452212987,-931452728,312863,281828,0.54,0.0304734,1.73,2.341,0.81,1.12,83,3,17.7,-4.01,17.22,0.75,1.79942,-375314,3,1,10
352830070,1492463095400000,452212896,-931452294,312537,281501,0.51,0.0307808,1.725,2.339,0.81,1.12,83,3,18.09,-6.19,16.97,1.06,1.92062,-577215,3,1,10
353031259,1492463095400000,452212775,-931451862,312132,281097,0.5,0.0303502,1.725,2.337,0.81,1.12,83,3,18.66,-7.83,16.89,1.33,2.00484,-778404,3,1,10
353230073,1492463096400000,452212619,-931451442,311744,280708,0.5,0.0321308,1.729,2.342,0.81,1.12,90,4,18.97,-9.76,16.22,1.15,2.11244,22018,3,1,10
353426088,1492463096400000,452212423,-931451042,311531,280495,0.49,0.0322699,1.734,2.348,0.81,1.12,90,4,19.53,-11.9,15.45,0.99,2.22701,-173997,3,1,10
353631206,1492463096400000,452212194,-931450666,311319,280284,0.48,0.0324081,1.738,2.355,0.81,1.12,90,4,19.75,-13.46,14.42,0.96,2.32179,-379115,3,1,10
353827081,1492463096400000,452211939,-931450322,311154,280118,0.46,0.0327898,1.743,2.363,0.81,1.12,90,4,19.62,-14.68,12.99,0.77,2.4172,-574990,3,1,10
354032210,1492463096400000,452211662,-931450010,310984,279948,0.56,0.0322717,1.75,2.373,0.81,1.12,90,4,19.88,-16.06,11.71,0.41,2.51192,-780119,3,1,10
354228069,1492463097400001,452211365,-931449733,310936,279901,0.54,0.0308368,1.756,2.378,0.81,1.12,90,4,19.97,-17.02,10.44,-0.23,2.59138,22687,3,1,10
354431159,1492463097400001,452211052,-931449490,310954,279919,0.54,0.0306215,1.762,2.385,0.81,1.12,90,4,19.92,-17.83,8.87,-0.56,2.68002,-180403,3,1,10
354627919,1492463097400001,452210724,-931449279,311013,279977,0.55,0.0297453,1.769,2.396,0.81,1.12,90,4,20.23,-18.62,7.86,-0.72,2.74245,-377163,3,1,10
354829203,1492463097400001,452210375,-931449091,311362,280326,0.6,0.0285262,1.776,2.408,0.81,1.12,90,4,20.87,-19.53,7.26,-1.2,2.78553,-578447,3,1,10
355030078,1492463097400001,452210023,-931448933,311624,280589,0.61,0.0289072,1.782,2.417,0.81,1.12,90,4,20.38,-19.56,5.51,-1.48,2.86729,-779322,3,1,10
355230069,1492463098400001,452209672,-931448810,311853,280818,0.65,0.0310749,1.791,2.431,0.81,1.12,84,4,20.13,-19.6,4.26,-1.74,2.92746,23023,3,1,10
355428655,1492463098400001,452209319,-931448716,312097,281061,0.55,0.0282408,1.799,2.443,0.81,1.12,84,4,20.04,-19.7,3.36,-1.47,2.97273,-175563,3,1,10
355630081,1492463098400001,452208964,-931448640,312364,281328,0.53,0.027959,1.805,2.454,0.81,1.12,84,4,19.95,-19.71,2.79,-1.33,3.00086,-376989,3,1,10
355830429,1492463098400001,452208611,-931448579,312408,281372,0.55,0.0274174,1.811,2.464,0.81,1.12,84,4,19.89,-19.78,2.05,-0.56,3.03808,-577337,3,1,10
356630089,1492463099400001,452207195,-931448475,311982,280947,0.36,0.0217594,1.798,2.447,0.81,1.12,84,5,20.09,-20.06,0.43,1.07,3.11993,-378625,3,1,10
356837687,1492463099400001,452206836,-931448472,311644,280609,0.42,0.0204209,1.79,2.437,0.81,1.12,84,5,20.29,-20.21,0.01,1.81,3.14124,-586223,3,1,10
357033067,1492463099400001,452206471,-931448480,311263,280227,0.45,0.0217669,1.788,2.435,0.81,1.12,84,5,20.66,-20.57,-0.66,1.81,3.1739,-781603,3,1,10
357237141,1492463100400001,452206103,-931448503,310852,279816,0.48,0.0227022,1.787,2.436,0.81,1.12,90,3,20.78,-20.68,-1.21,1.69,3.20017,21943,3,1,10
357431079,1492463100400001,452205734,-931448540,310558,279523,0.47,0.0229799,1.786,2.431,0.81,1.12,90,3,20.69,-20.59,-1.55,1.2,3.21678,-171995,3,1,10
357637069,1492463100400001,452205367,-931448587,310440,279405,0.47,0.0224142,1.782,2.422,0.81,1.12,90,3,20.58,-20.47,-2.06,0.19,3.24174,-377985,3,1,10
357830069,1492463100400001,452205003,-931448643,310559,279523,0.45,0.0214819,1.773,2.406,0.81,1.12,90,3,20.31,-20.14,-2.43,-0.99,3.26154,-570985,3,1,10
358037069,1492463100400001,452204650,-931448710,310941,279905,0.5,0.0232076,1.768,2.4,0.81,1.12,90,3,19.62,-19.31,-2.61,-2.28,3.276,-777985,3,1,10
358234279,1492463101400002,452204310,-931448781,311473,280438,0.48,0.0236923,1.763,2.393,0.81,1.12,90,5,19.21,-18.79,-2.74,-2.87,3.28641,20811,3,1,10
358436073,1492463101400002,452203979,-931448866,312163,281127,0.49,0.0246203,1.759,2.386,0.81,1.12,90,5,18.93,-18.24,-3.55,-3.58,3.33374,-180983,3,1,10
358631238,1492463101400002,452203659,-931448958,312926,281891,0.51,0.0256679,1.754,2.379,0.81,1.12,90,5,18.44,-17.49,-3.82,-4.42,3.35682,-376148,3,1,10
358838068,1492463101400002,452203351,-931449055,313762,282726,0.54,0.0264236,1.749,2.372,0.81,1.12,90,5,18.01,-16.86,-4.09,-4.82,3.3798,-582978,3,1,10
359035092,1492463101400002,452203059,-931449160,314727,283691,0.62,0.028515,1.747,2.37,0.81,1.12,90,5,17.28,-15.92,-4.07,-5.36,3.39173,-780002,3,1,10
359236847,1492463102400002,452202780,-931449267,315757,284721,0.63,0.0294299,1.747,2.368,0.81,1.12,90,5,16.95,-15.29,-4.37,-5.86,3.41979,21237,3,1,10
359435333,1492463102400002,452202514,-931449380,316903,285868,0.63,0.0302851,1.748,2.367,0.81,1.12,90,5,16.46,-14.62,-4.53,-6.06,3.44192,-177249,3,1,10
359636102,1492463102400002,452202263,-931449490,318113,287078,0.63,0.0333602,1.748,2.367,0.81,1.12,90,5,15.52,-13.62,-4.29,-6.08,3.44664,-378018,3,1,10
359833188,1492463102400002,452202023,-931449594,319260,288224,0.62,0.0340632,1.749,2.366,0.81,1.12,90,5,15.13,-13.21,-4.18,-6.07,3.44782,-575104,3,1,10
360069074,1492463102400002,452201794,-931449700,320428,289393,0.62,0.034997,1.743,2.359,0.81,1.12,89,5,14.66,-12.47,-4.34,-6.37,3.47668,-810990,3,1,10
360234069,1492463103400002,452201571,-931449815,321514,290479,0.62,0.0343004,1.743,2.36,0.81,1.12,89,5,14.48,-12.45,-4.64,-5.74,3.49825,22054,3,1,10
360436339,1492463103400002,452201347,-931449940,322479,291443,0.58,0.0328986,1.743,2.359,0.81,1.12,89,5,14.33,-12.59,-4.88,-4.81,3.51142,-180216,3,1,10
360630102,1492463103400002,452201120,-931450072,323307,292272,0.56,0.0320284,1.74,2.357,0.81,1.12,89,5,14.48,-12.85,-5.28,-4.08,3.53125,-373979,3,1,10
360835289,1492463103400002,452200891,-931450212,323979,292943,0.55,0.0315416,1.739,2.355,0.81,1.12,89,5,14.33,-12.7,-5.67,-3.44,3.5614,-579166,3,1,10
361034073,1492463103400002,452200660,-931450360,324509,293473,0.51,0.0313149,1.735,2.347,0.81,1.12,89,5,14.51,-12.84,-6.16,-2.76,3.58907,-777950,3,1,10
361236089,1492463104400002,452200428,-931450525,325028,293993,0.49,0.0295629,1.721,2.318,0.81,1.12,90,5,14.77,-12.98,-6.43,-2.89,3.60162,21082,3,1,10
361433070,1492463104400002,452200195,-931450698,325529,294494,0.47,0.0320657,1.713,2.299,0.81,1.12,90,5,14.78,-12.78,-6.86,-2.85,3.63414,-175899,3,1,10
361634072,1492463104400002,452199962,-931450881,325940,294904,0.45,0.0325977,1.709,2.288,0.81,1.12,90,5,15.0,-12.83,-7.3,-2.66,3.6588,-376901,3,1,10
361832077,1492463104400002,452199735,-931451072,326430,295395,0.44,0.0330881,1.702,2.266,0.81,1.12,90,5,14.87,-12.44,-7.69,-2.66,3.69552,-574906,3,1,10
362034067,1492463104400002,452199509,-931451269,326962,295927,0.45,0.0332016,1.699,2.253,0.81,1.12,90,5,14.98,-12.49,-7.67,-3.08,3.6923,-776896,3,1,10
362231071,1492463105400003,452199287,-931451460,327724,296689,0.46,0.0392011,1.697,2.246,0.81,1.12,90,4,14.77,-12.21,-7.3,-3.97,3.68037,23017,3,1,10
362437683,1492463105400003,452199060,-931451634,328513,297478,0.49,0.0394155,1.696,2.238,0.81,1.12,90,4,15.0,-12.83,-6.31,-4.53,3.59862,-183595,3,1,10
362631078,1492463105400003,452198826,-931451783,329442,298407,0.55,0.0422736,1.7,2.239,0.81,1.12,90,4,14.94,-12.99,-5.4,-5.03,3.53564,-376990,3,1,10
362837259,1492463105400003,452198586,-931451896,330421,299386,0.55,0.0431651,1.702,2.24,0.81,1.12,90,4,14.89,-13.5,-3.63,-5.12,3.40392,-583171,3,1,10
363030682,1492463105400003,452198343,-931451962,331526,300490,0.55,0.0429683,1.705,2.239,0.81,1.12,90,4,14.69,-13.64,-1.91,-5.1,3.2805,-776594,3,1,10
363237098,1492463106400003,452198102,-931451983,332723,301687,0.53,0.0443019,1.707,2.239,0.81,1.12,90,6,14.49,-13.6,-0.15,-4.99,3.15274,22905,3,1,10
363434066,1492463106400003,452197855,-931451954,333691,302656,0.54,0.0421965,1.708,2.239,0.81,1.12,90,6,14.95,-14.17,1.9,-4.37,3.00838,-174063,3,1,10
363633192,1492463106400003,452197601,-931451881,334478,303443,0.53,0.0404527,1.709,2.237,0.81,1.12,90,6,15.22,-14.28,3.54,-3.89,2.89833,-373189,3,1,10
363832155,1492463106400003,452197347,-931451753,335098,304063,0.55,0.0342606,1.704,2.231,0.81,1.12,90,6,15.68,-14.11,6.09,-3.11,2.73394,-572152,3,1,10
364035099,1492463106400003,452197104,-931451567,335496,304461,0.57,0.0318102,1.696,2.223,0.81,1.12,90,6,15.89,-13.25,8.48,-2.2,2.57252,-775096,3,1,10
364231352,1492463107400003,452196881,-931451315,335769,304734,0.56,0.0300375,1.686,2.212,0.81,1.12,96,3,16.34,-11.87,11.16,-1.27,2.38672,21735,3,1,10
364436081,1492463107400003,452196689,-931451008,335920,304885,0.53,0.0304441,1.68,2.207,0.81,1.12,96,3,16.28,-9.79,12.98,-0.72,2.21688,-182994,3,1,10
364631205,1492463107400003,452196536,-931450654,335926,304890,0.56,0.0309388,1.676,2.208,0.81,1.12,96,3,16.54,-7.47,14.75,-0.24,2.03933,-378118,3,1,10
364831084,1492463107400003,452196429,-931450265,335813,304778,0.55,0.0330562,1.675,2.215,0.81,1.12,96,3,16.7,-4.93,15.95,0.15,1.87084,-577997,3,1,10
365030079,1492463107400003,452196361,-931449855,335565,304530,0.58,0.0352893,1.678,2.223,0.81,1.12,96,3,16.5,-2.89,16.21,0.99,1.7475,-776992,3,1,10
365232074,1492463108400003,452196339,-931449442,335246,304210,0.58,0.0370008,1.679,2.226,0.81,1.12,96,5,16.48,-0.12,16.4,1.58,1.57802,22373,3,1,10
365431074,1492463108400003,452196367,-931449032,334796,303760,0.58,0.0378773,1.68,2.228,0.81,1.12,96,5,16.43,2.7,16.07,2.1,1.40443,-176627,3,1,10
365634068,1492463108400003,452196445,-931448632,334291,303255,0.58,0.0380475,1.685,2.231,0.81,1.12,96,5,16.71,5.46,15.59,2.52,1.23377,-379621,3,1,10
365832013,1492463108400003,452196570,-931448253,333661,302625,0.56,0.038159,1.692,2.237,0.81,1.12,96,5,16.75,7.91,14.47,2.96,1.07024,-577566,3,1,10
366032026,1492463108400003,452196738,-931447908,332977,301942,0.53,0.038282,1.695,2.239,0.81,1.12,96,5,16.75,10.09,12.98,3.23,0.909869,-777579,3,1,10
366227164,1492463109400004,452196942,-931447611,332368,301333,0.52,0.0402173,1.696,2.238,0.81,1.12,95,4,16.53,12.09,10.91,2.85,0.734035,23732,3,1,10
366432070,1492463109400004,452197185,-931447385,331992,300956,0.59,0.0432826,1.701,2.243,0.81,1.12,95,4,16.19,14.24,7.52,1.73,0.486037,-181174,3,1,10
366629075,1492463109400004,452197457,-931447244,331783,300747,0.58,0.0425605,1.705,2.243,0.81,1.12,95,4,15.96,15.34,4.34,0.75,0.275902,-378179,3,1,10
366831421,1492463109400004,452197740,-931447185,331769,300733,0.63,0.0431349,1.712,2.249,0.81,1.12,95,4,15.72,15.66,1.2,-0.43,0.0764782,-580525,3,1,10
367031138,1492463109400004,452198021,-931447205,332129,301093,0.59,0.0398994,1.717,2.249,0.81,1.12,95,4,15.62,15.39,-1.85,-1.94,6.16349,-780242,3,1,10
367232072,1492463110400004,452198292,-931447286,332842,301806,0.61,0.0379106,1.721,2.25,0.81,1.12,95,4,15.61,14.72,-3.94,-3.42,6.02164,22376,3,1,10
367432191,1492463110400004,452198547,-931447404,333940,302904,0.6,0.0397396,1.724,2.249,0.81,1.12,95,4,15.42,13.68,-5.02,-5.03,5.93146,-177743,3,1,10
367636935,1492463110400004,452198783,-931447533,335532,304497,0.59,0.045695,1.729,2.25,0.81,1.12,95,4,15.61,12.65,-5.16,-7.56,5.89551,-382487,3,1,10
367830356,1492463110400004,452198986,-931447658,337366,306330,0.63,0.0561244,1.733,2.251,0.81,1.12,95,4,14.5,10.4,-4.71,-8.94,5.85793,-575908,3,1,10
368033470,1492463110400004,452199153,-931447769,339302,308266,0.63,0.0677584,1.742,2.26,0.81,1.12,83,3,13.74,8.66,-4.02,-9.89,5.84884,-779022,3,1,10
368232945,1492463111400004,452199291,-931447864,341186,310150,0.66,0.0827712,1.75,2.267,0.81,1.12,83,3,12.65,7.1,-3.42,-9.9,5.83423,21170,3,1,10
368433077,1492463111400004,452199401,-931447951,342980,311944,0.66,0.0984455,1.75,2.271,0.81,1.12,83,3,11.9,5.87,-2.93,-9.93,5.82056,-178962,3,1,10
368633250,1492463111400004,452199481,-931448015,344543,313508,0.66,0.145059,1.75,2.276,0.81,1.12,83,3,9.99,4.07,-1.71,-8.96,5.88452,-379135,3,1,10
368839204,1492463111400004,452199536,-931448054,345965,314929,0.65,0.197718,1.75,2.282,0.81,1.12,83,3,8.66,3.04,-1.0,-8.05,5.96578,-585089,3,1,10
369031922,1492463111400004,452199575,-931448075,347175,316140,0.67,0.276635,1.753,2.292,0.81,1.12,83,3,6.98,2.29,-0.44,-6.58,6.00936,-777807,3,1,10
369232319,1492463112400004,452199600,-931448073,348198,317162,0.66,0.408093,1.754,2.3,0.81,1.12,83,3,5.57,1.54,0.51,-5.33,6.19665,21763,3,1,10
369430073,1492463112400004,452199614,-931448054,348946,317911,0.63,0.429362,1.754,2.305,0.81,1.12,83,3,4.3,1.03,0.98,-4.05,0.315215,-175991,3,1,10
369635081,1492463112400004,452199619,-931448024,349408,318372,0.59,0.38553,1.754,2.311,0.81,1.12,83,3,3.0,0.49,1.38,-2.61,0.82246,-380999,3,1,10
369833062,1492463112400004,452199619,-931447992,349551,318515,0.55,0.381947,1.754,2.317,0.81,1.12,83,3,1.78,0.4,1.37,-1.06,1.05664,-578980,3,1,10
370037074,1492463112400004,452199620,-931447954,349546,318510,0.7,0.469127,1.763,2.337,0.81,1.12,83,3,1.45,0.02,1.44,0.15,1.25644,-782992,3,1,10
370229189,1492463113400005,452199618,-931447923,349173,318138,0.76,0.565581,1.773,2.353,0.81,1.12,83,3,1.8,0.06,1.12,1.4,1.36353,22140,3,1,10
370433070,1492463113400005,452199614,-931447900,348323,317288,0.68,0.572943,1.772,2.354,0.81,1.12,83,3,3.1,0.08,0.97,2.94,1.4268,-181741,3,1,10
370632145,1492463113400005,452199607,-931447880,347289,316253,0.66,0.646679,1.759,2.35,0.81,1.12,83,3,4.53,-0.15,0.79,4.46,1.57106,-380816,3,1,10
370834070,1492463113400005,452199608,-931447871,345951,314916,0.64,0.646942,1.746,2.346,0.81,1.12,83,3,6.2,0.35,0.33,6.18,1.57106,-582741,3,1,10
371032225,1492463113400005,452199614,-931447884,344271,313235,0.61,0.612117,1.735,2.337,0.81,1.12,83,3,7.7,0.49,-0.71,7.65,0.234369,-780896,3,1,10
371232944,1492463114400005,452199624,-931447925,342316,311281,0.59,0.276123,1.726,2.334,0.81,1.12,83,4,9.37,0.79,-1.89,9.15,5.10758,21172,3,1,10
371435386,1492463114400005,452199640,-931447995,340109,309073,0.56,0.150795,1.717,2.328,0.81,1.12,83,4,10.82,1.16,-3.19,10.27,5.05962,-181270,3,1,10
371633074,1492463114400005,452199669,-931448099,337834,306798,0.53,0.0915921,1.706,2.315,0.81,1.12,83,4,11.99,2.14,-4.54,10.89,5.15247,-378958,3,1,10
371837090,1492463114400005,452199721,-931448233,335453,304418,0.51,0.065309,1.694,2.3,0.81,1.12,83,4,13.09,3.81,-5.6,11.2,5.3094,-582974,3,1,10
372037152,1492463114400005,452199805,-931448389,333200,302164,0.51,0.0531269,1.689,2.294,0.81,1.12,83,4,13.43,5.56,-6.46,10.38,5.42308,-783036,3,1,10
372233071,1492463115400005,452199930,-931448557,331375,300339,0.52,0.0470511,1.686,2.292,0.81,1.12,89,4,13.43,8.2,-6.67,8.28,5.60075,23305,3,1,10
372436114,1492463115400005,452200100,-931448726,329862,298826,0.57,0.0496728,1.685,2.298,0.81,1.12,89,4,13.9,10.62,-6.38,6.31,5.74215,-179738,3,1,10
372632067,1492463115400005,452200299,-931448873,328639,297604,0.59,0.0437002,1.684,2.301,0.81,1.12,89,4,13.58,11.68,-5.04,4.75,5.87574,-375691,3,1,10
372835321,1492463115400005,452200515,-931448981,327619,296583,0.58,0.0421005,1.681,2.298,0.81,1.12,89,4,13.44,12.46,-3.3,3.78,6.02431,-578945,3,1,10
373031229,1492463115400005,452200743,-931449038,326864,295828,0.61,0.0397277,1.679,2.297,0.81,1.12,89,4,13.37,12.98,-1.14,3.0,6.19523,-774853,3,1,10
373233069,1492463116400005,452200978,-931449048,326328,295293,0.62,0.0375069,1.676,2.293,0.81,1.12,89,4,13.62,13.42,0.45,2.28,0.0331763,22039,3,1,10
373431071,1492463116400005,452201214,-931449014,326118,295082,0.61,0.0362152,1.674,2.29,0.81,1.12,89,4,13.41,13.18,2.28,0.95,0.171448,-175963,3,1,10
373634364,1492463116400005,452201441,-931448932,326102,295066,0.62,0.0362767,1.672,2.291,0.81,1.12,89,4,13.16,12.5,4.13,-0.22,0.319466,-379256,3,1,10
373832933,1492463116400005,452201657,-931448802,326254,295219,0.6,0.0345701,1.666,2.288,0.81,1.12,89,4,13.19,11.63,6.17,-0.81,0.487977,-577825,3,1,10
374035985,1492463116400005,452201855,-931448640,326539,295503,0.59,0.0375069,1.661,2.283,0.81,1.12,89,4,12.67,10.57,6.83,-1.49,0.573545,-780877,3,1,10
374228851,1492463117400006,452202031,-931448457,326971,295935,0.59,0.0381159,1.656,2.28,0.81,1.12,89,4,12.14,9.2,7.62,-2.18,0.691617,21229,3,1,10
374433136,1492463117400006,452202185,-931448263,327495,296459,0.75,0.0411454,1.655,2.285,0.81,1.12,89,4,11.55,8.18,7.7,-2.7,0.755075,-183056,3,1,10
374634072,1492463117400006,452202324,-931448073,328106,297070,0.91,0.0473054,1.661,2.295,0.81,1.12,89,4,10.95,7.52,7.35,-3.05,0.773646,-383992,3,1,10
374840067,1492463117400006,452202450,-931447890,328850,297814,0.92,0.0512912,1.673,2.305,0.81,1.12,89,4,10.48,6.69,7.29,-3.47,0.828296,-589987,3,1,10
375034423,1492463117400006,452202553,-931447710,329597,298562,0.88,0.0577734,1.685,2.313,0.81,1.12,89,4,9.52,5.29,7.08,-3.55,0.929457,-784343,3,1,10
375235487,1492463118400006,452202639,-931447524,330225,299189,0.85,0.0607399,1.697,2.32,0.81,1.12,89,5,9.48,4.61,7.67,-3.14,1.02929,21600,3,1,10
375431501,1492463118400006,452202707,-931447327,330697,299661,0.81,0.0748465,1.71,2.332,0.81,1.12,89,5,9.0,3.51,7.96,-2.31,1.15594,-174414,3,1,10
375635253,1492463118400006,452202761,-931447124,331046,300010,0.75,0.0724053,1.724,2.342,0.81,1.12,89,5,8.71,2.89,8.02,-1.78,1.22475,-378166,3,1,10
375834091,1492463118400006,452202800,-931446921,331262,300226,0.7,0.0724432,1.734,2.349,0.81,1.12,89,5,8.32,2.01,8.02,-0.85,1.32591,-577004,3,1,10
376034247,1492463118400006,452202833,-931446708,331206,300170,0.64,0.0614468,1.736,2.344,0.81,1.12,89,3,8.67,1.74,8.49,-0.05,1.36921,-777160,3,1,10
376231107,1492463119400006,452202856,-931446490,331022,299986,0.6,0.062568,1.738,2.336,0.81,1.12,89,3,8.66,1.03,8.56,0.8,1.45094,22039,3,1,10
376434789,1492463119400006,452202874,-931446262,330571,299536,0.59,0.0595834,1.733,2.327,0.81,1.12,89,3,9.34,0.71,9.17,1.62,1.49322,-181643,3,1,10
376633085,1492463119400006,452202887,-931446027,330099,299064,0.61,0.0554784,1.727,2.318,0.81,1.12,89,3,9.64,0.94,9.32,2.28,1.47037,-379939,3,1,10
376833082,1492463119400006,452202903,-931445783,329487,298451,0.65,0.0581434,1.731,2.322,0.81,1.12,89,3,10.15,0.88,9.71,2.8,1.48045,-579936,3,1,10
377037087,1492463119400006,452202917,-931445524,328719,297683,0.67,0.0548922,1.736,2.326,0.81,1.12,89,3,10.92,0.65,10.38,3.33,1.50865,-783941,3,1,10
377234073,1492463120400006,452202928,-931445255,327960,296924,0.65,0.0531287,1.739,2.324,0.81,1.12,89,4,11.19,0.52,10.7,3.24,1.52187,23162,3,1,10
377431078,1492463120400006,452202938,-931444972,327191,296155,0.67,0.0503835,1.744,2.32,0.81,1.12,89,4,11.86,0.41,11.32,3.49,1.53417,-173843,3,1,10
377632070,1492463120400006,452202939,-931444671,326376,295340,0.66,0.0453389,1.747,2.317,0.81,1.12,89,4,12.76,-0.26,12.17,3.82,1.59249,-374835,3,1,10
377833599,1492463120400006,452202933,-931444350,325568,294532,0.66,0.0430543,1.75,2.313,0.81,1.12,89,4,13.46,-0.6,13.0,3.44,1.61687,-576364,3,1,10
378036117,1492463120400006,452202923,-931444015,324951,293915,0.62,0.0398405,1.754,2.309,0.81,1.12,89,4,13.7,-0.55,13.37,2.91,1.61183,-778882,3,1,10
378232069,1492463121400007,452202914,-931443669,324380,293344,0.62,0.0378279,1.756,2.303,0.81,1.12,89,4,14.09,-0.53,13.82,2.69,1.60919,22026,3,1,10
378434079,1492463121400007,452202910,-931443311,323881,292844,0.59,0.0377391,1.759,2.301,0.81,1.12,89,4,14.54,-0.26,14.38,2.13,1.58906,-179984,3,1,10
378633069,1492463121400007,452202913,-931442951,323581,292545,0.57,0.0375087,1.759,2.297,0.81,1.12,89,4,14.18,0.2,14.12,1.3,1.55665,-378974,3,1,10
378836768,1492463121400007,452202921,-931442588,323438,292401,0.54,0.0355883,1.76,2.292,0.81,1.12,89,4,14.56,0.35,14.55,0.4,1.54646,-582673,3,1,10
379032070,1492463121400007,452202935,-931442224,323437,292401,0.52,0.0362604,1.76,2.288,0.81,1.12,89,4,14.34,0.8,14.32,-0.34,1.51497,-777975,3,1,10
379236100,1492463122400007,452202965,-931441871,323549,292512,0.48,0.0373609,1.758,2.286,0.81,1.12,89,3,13.78,1.94,13.59,-1.12,1.42893,23245,3,1,10
379432068,1492463122400007,452203016,-931441532,323774,292737,0.45,0.0389259,1.755,2.284,0.81,1.12,89,3,13.7,3.25,13.18,-1.88,1.32911,-172723,3,1,10
379633070,1492463122400007,452203085,-931441209,324206,293170,0.46,0.0412819,1.753,2.282,0.81,1.12,89,3,13.22,4.36,12.26,-2.34,1.22886,-373725,3,1,10
379831133,1492463122400007,452203172,-931440914,324706,293670,0.51,0.0465989,1.754,2.284,0.81,1.12,89,3,12.45,5.11,11.03,-2.69,1.13663,-571788,3,1,10
380035099,1492463122400007,452203272,-931440648,325376,294340,0.49,0.0481795,1.753,2.282,0.81,1.12,89,3,12.08,6.12,9.9,-3.23,1.01733,-775754,3,1,10
380233677,1492463123400007,452203386,-931440417,326047,295011,0.51,0.0551562,1.755,2.286,0.81,1.12,89,3,11.27,6.62,8.46,-3.39,0.906699,21414,3,1,10
380431080,1492463123400007,452203509,-931440225,326691,295655,0.54,0.0612234,1.758,2.289,0.81,1.12,89,3,10.29,6.95,6.89,-3.17,0.781526,-175989,3,1,10
380633073,1492463123400007,452203641,-931440065,327238,296201,0.55,0.0635986,1.761,2.294,0.81,1.12,89,3,9.94,7.51,5.75,-3.06,0.653792,-377982,3,1,10
380840203,1492463123400007,452203779,-931439935,327673,296637,0.59,0.0678891,1.767,2.301,0.81,1.12,89,3,9.15,7.6,4.62,-2.14,0.546135,-585112,3,1,10
381032978,1492463123400007,452203926,-931439826,327876,296840,0.58,0.0628516,1.77,2.306,0.81,1.12,89,3,9.23,8.19,4.0,-1.45,0.454732,-777887,3,1,10
381236152,1492463124400007,452204077,-931439752,327947,296910,0.54,0.0662595,1.775,2.311,0.81,1.12,89,4,8.58,8.28,2.05,-0.9,0.242867,21951,3,1,10
381431071,1492463124400007,452204226,-931439723,327993,296956,0.52,0.0682532,1.775,2.314,0.81,1.12,89,4,8.02,7.99,0.48,-0.51,0.0603653,-172968,3,1,10
381632183,1492463124400007,452204369,-931439735,327998,296962,0.56,0.0700247,1.774,2.318,0.81,1.12,89,4,7.86,7.74,-1.31,-0.51,6.22751,-374080,3,1,10
381831123,1492463124400007,452204502,-931439784,328027,296991,0.53,0.0751914,1.771,2.314,0.81,1.12,89,4,7.58,7.04,-2.73,-0.58,6.07549,-573020,3,1,10
382033071,1492463124400007,452204621,-931439868,328085,297048,0.49,0.0832541,1.768,2.308,0.81,1.12,89,4,7.39,6.08,-4.18,-0.45,5.89121,-774968,3,1,10
382230085,1492463125400008,452204724,-931439981,328142,297106,0.44,0.0750624,1.764,2.296,0.81,1.12,89,4,7.47,5.27,-5.28,-0.36,5.66831,22008,3,1,10
382434108,1492463125400008,452204815,-931440120,328147,297110,0.47,0.0739929,1.763,2.29,0.81,1.12,89,4,7.46,4.42,-5.99,-0.35,5.50056,-182015,3,1,10
382630070,1492463125400008,452204890,-931440279,328070,297034,0.47,0.0683677,1.759,2.282,0.81,1.12,89,4,7.8,3.57,-6.93,0.16,5.32607,-377977,3,1,10
382833039,1492463125400008,452204950,-931440457,327942,296906,0.51,0.0682541,1.757,2.278,0.81,1.12,89,4,7.95,2.98,-7.37,0.35,5.20596,-580946,3,1,10
383031070,1492463125400008,452204999,-931440647,327793,296757,0.52,0.0626123,1.753,2.273,0.81,1.12,89,4,8.22,2.45,-7.83,0.51,5.01597,-778977,3,1,10
383236109,1492463126400008,452205039,-931440847,327598,296562,0.52,0.0590066,1.752,2.27,0.81,1.12,89,3,8.39,1.96,-8.15,0.5,4.94902,22309,3,1,10
383430071,1492463126400008,452205073,-931441051,327388,296351,0.52,0.060708,1.749,2.266,0.81,1.12,89,3,8.49,1.56,-8.34,0.39,4.89704,-171653,3,1,10
383632184,1492463126400008,452205099,-931441261,327393,296357,0.53,0.0589047,1.751,2.268,0.81,1.12,89,3,8.5,1.37,-8.37,-0.58,4.87414,-373766,3,1,10
383830294,1492463126400008,452205123,-931441466,327417,296380,0.5,0.0517961,1.748,2.261,0.81,1.12,89,3,8.45,1.29,-8.32,-0.75,4.86653,-571876,3,1,10
384036070,1492463126400008,452205146,-931441672,327607,296570,0.51,0.0536444,1.743,2.25,0.81,1.12,89,3,8.48,1.4,-8.26,-1.31,4.87996,-777652,3,1,10
384238043,1492463127400008,452205169,-931441879,327879,296843,0.52,0.0536547,1.742,2.246,0.81,1.12,89,5,8.32,1.23,-8.06,-1.65,4.86396,21133,3,1,10
384436070,1492463127400008,452205193,-931442078,328193,297157,0.56,0.0616211,1.744,2.245,0.81,1.12,89,5,8.17,1.44,-7.81,-1.93,4.89479,-176894,3,1,10
384637070,1492463127400008,452205218,-931442272,328559,297522,0.55,0.0649458,1.747,2.245,0.81,1.12,89,5,8.23,1.45,-7.74,-2.39,4.89734,-377894,3,1,10
384837070,1492463127400008,452205241,-931442466,329064,298027,0.55,0.0664702,1.747,2.242,0.81,1.12,89,5,8.26,1.26,-7.62,-2.93,4.87694,-577894,3,1,10
385038598,1492463127400008,452205257,-931442652,329618,298581,0.55,0.0717985,1.746,2.238,0.81,1.12,89,5,7.8,0.8,-7.15,-3.03,4.8509,-779422,3,1,10
385238434,1492463128400008,452205278,-931442824,330117,299080,0.52,0.0656268,1.737,2.224,0.81,1.12,89,5,7.8,1.25,-7.07,-3.05,4.87137,24170,3,1,10
385439903,1492463128400008,452205297,-931442993,330642,299606,0.52,0.0741067,1.735,2.218,0.81,1.12,89,5,7.46,0.68,-6.76,-3.07,4.84406,-177299,3,1,10
385638073,1492463128400008,452205306,-931443160,331227,300191,0.55,0.0788466,1.736,2.217,0.81,1.12,89,5,7.25,0.38,-6.54,-3.11,4.80841,-375469,3,1,10
385835122,1492463128400008,452205312,-931443324,331784,300748,0.54,0.0803436,1.734,2.215,0.81,1.12,89,5,7.35,0.24,-6.51,-3.41,4.77811,-572518,3,1,10
386038070,1492463128400008,452205315,-931443482,332490,301454,0.54,0.087689,1.731,2.21,0.81,1.12,89,4,7.05,0.13,-6.15,-3.45,4.75728,-775466,3,1,10
386234104,1492463129400009,452205313,-931443624,333145,302109,0.55,0.0946953,1.725,2.198,0.81,1.12,89,4,6.76,-0.36,-5.73,-3.56,4.70602,23983,3,1,10
386445716,1492463129400009,452205307,-931443762,333742,302706,0.5,0.0889654,1.721,2.187,0.81,1.12,89,4,6.66,-0.46,-5.6,-3.56,4.66482,-187629,3,1,10
386638077,1492463129400009,452205295,-931443898,334440,303404,0.49,0.0834487,1.715,2.175,0.81,1.12,89,4,6.65,-0.86,-5.51,-3.61,4.6064,-379990,3,1,10
386831463,1492463129400009,452205279,-931444031,334980,303944,0.47,0.0810562,1.706,2.161,0.81,1.12,89,4,6.38,-1.08,-5.29,-3.41,4.55607,-573376,3,1,10
387037082,1492463129400009,452205257,-931444157,335627,304591,0.48,0.0883657,1.699,2.152,0.81,1.12,89,4,6.11,-0.97,-5.02,-3.33,4.53951,-778995,3,1,10
387242730,1492463130400009,452205240,-931444282,336195,305159,0.47,0.0862758,1.693,2.147,0.81,1.12,89,4,5.73,-0.81,-5.02,-2.63,4.54635,21357,3,1,10
387426400,1492463130400009,452205223,-931444408,336572,305536,0.47,0.0831258,1.689,2.14,0.81,1.12,89,4,5.57,-0.91,-5.25,-1.63,4.54378,-162313,3,1,10
387645150,1492463130400009,452205200,-931444543,336873,305837,0.46,0.0673523,1.684,2.129,0.81,1.12,89,4,5.84,-1.31,-5.59,-1.05,4.50571,-381063,3,1,10
387841260,1492463130400009,452205165,-931444672,337256,306220,0.46,0.0699051,1.674,2.117,0.81,1.12,89,4,5.57,-1.5,-5.22,-1.23,4.46901,-577173,3,1,10
388043127,1492463130400009,452205135,-931444806,337434,306398,0.48,0.0771699,1.668,2.11,0.81,1.12,89,5,5.88,-1.7,-5.52,-1.08,4.44292,-779040,3,1,10
388241575,1492463131400009,452205106,-931444947,337562,306526,0.47,0.077923,1.665,2.106,0.81,1.12,89,5,5.98,-1.57,-5.68,-0.99,4.44275,22613,3,1,10
388446118,1492463131400009,452205073,-931445089,337702,306666,0.46,0.0745571,1.661,2.1,0.81,1.12,89,5,6.08,-1.93,-5.72,-0.67,4.4131,-181930,3,1,10
388638070,1492463131400009,452205034,-931445228,337776,306740,0.46,0.0676278,1.655,2.092,0.81,1.12,89,5,6.19,-2.13,-5.81,-0.21,4.38324,-373882,3,1,10
388843143,1492463131400009,452204986,-931445372,337932,306896,0.46,0.0627334,1.651,2.083,0.81,1.12,89,5,6.58,-2.69,-5.99,-0.39,4.33169,-578955,3,1,10
389037491,1492463131400009,452204932,-931445523,338094,307059,0.46,0.0582994,1.648,2.077,0.81,1.12,89,5,7.08,-3.08,-6.34,-0.72,4.29164,-773303,3,1,10
389239476,1492463132400009,452204869,-931445681,338197,307161,0.43,0.0517024,1.644,2.069,0.81,1.12,89,4,7.44,-3.65,-6.49,-0.14,4.23802,24166,3,1,10
389439151,1492463132400009,452204801,-931445842,338198,307162,0.43,0.0501094,1.64,2.063,0.81,1.12,89,4,7.71,-3.97,-6.61,-0.2,4.20165,-175509,3,1,10
389641074,1492463132400009,452204727,-931446006,338256,307220,0.42,0.0513055,1.635,2.057,0.81,1.12,89,4,7.84,-4.36,-6.51,-0.34,4.15947,-377432,3,1,10
389844809,1492463132400009,452204645,-931446161,338434,307398,0.44,0.0528254,1.628,2.045,0.81,1.12,89,4,7.78,-4.85,-6.0,-0.97,4.09338,-581167,3,1,10
390040167,1492463132400009,452204556,-931446311,338710,307674,0.44,0.0552205,1.62,2.037,0.81,1.12,89,4,8.06,-5.28,-5.98,-1.18,3.98982,-776525,3,1,10
390230078,1492463133400010,452204462,-931446457,338911,307875,0.44,0.0595953,1.613,2.028,0.98,1.19,89,4,8.15,-5.59,-5.84,-1.08,3.94889,21012,3,1,9
390420106,1492463133400010,452204359,-931446603,339054,308019,0.46,0.053632,1.609,2.023,0.81,1.12,89,4,8.51,-6.11,-5.79,-1.25,3.90066,-169016,3,1,10
390640069,1492463133400010,452204247,-931446739,339289,308253,0.46,0.0536418,1.606,2.019,0.81,1.12,89,4,8.29,-6.31,-5.16,-1.52,3.82686,-388979,3,1,10
390837141,1492463133400010,452204128,-931446861,339548,308512,0.55,0.0599435,1.61,2.025,0.81,1.12,89,4,8.41,-6.86,-4.55,-1.75,3.72736,-586051,3,1,10
391036078,1492463133400010,452204000,-931446972,339825,308789,0.54,0.0584097,1.613,2.027,0.81,1.12,89,4,8.62,-7.31,-4.31,-1.52,3.67458,-784988,3,1,10
391237070,1492463134400010,452203867,-931447071,340052,309016,0.55,0.0601713,1.615,2.029,0.81,1.12,88,4,8.41,-7.43,-3.7,-1.34,3.60366,22054,3,1,10
391431081,1492463134400010,452203734,-931447156,340293,309257,0.54,0.0622206,1.616,2.03,0.81,1.12,88,4,8.1,-7.26,-3.22,-1.59,3.55929,-171957,3,1,10
391643289,1492463134400010,452203598,-931447230,340610,309574,0.57,0.0605329,1.62,2.036,0.81,1.12,88,4,8.34,-7.68,-2.73,-1.75,3.48335,-384165,3,1,10
391835121,1492463134400010,452203460,-931447285,340997,309961,0.58,0.0660351,1.627,2.044,0.81,1.12,88,4,7.98,-7.59,-1.81,-1.65,3.43114,-575997,3,1,10
392035406,1492463134400010,452203319,-931447327,341300,310264,0.57,0.0643056,1.633,2.051,0.81,1.12,88,4,8.23,-7.93,-1.62,-1.5,3.34303,-776282,3,1,10
392238501,1492463135400010,452203170,-931447360,341511,310475,0.56,0.0593887,1.635,2.051,0.81,1.12,82,4,8.73,-8.54,-1.2,-1.34,3.28172,23925,3,1,10
392442405,1492463135400010,452203018,-931447381,341723,310687,0.56,0.062202,1.637,2.053,0.81,1.12,82,4,8.46,-8.35,-0.66,-1.21,3.22087,-179979,3,1,10
392616291,1492463135400010,452202862,-931447394,341918,310882,0.63,0.0636998,1.639,2.056,0.81,1.12,82,4,8.94,-8.84,-0.62,-1.15,3.21113,-353865,3,1,10
392839289,1492463135400010,452202703,-931447400,342071,311036,0.57,0.0630957,1.646,2.062,0.81,1.12,82,4,8.91,-8.86,0.0,-0.88,3.14143,-576863,3,1,10
393035553,1492463135400010,452202538,-931447395,342173,311137,0.56,0.059373,1.647,2.059,0.81,1.12,82,4,9.37,-9.36,0.25,-0.45,3.11446,-773127,3,1,10
393235261,1492463136400011,452202367,-931447379,342170,311134,0.53,0.0561792,1.646,2.056,0.81,1.12,83,3,9.76,-9.72,0.94,-0.12,3.04557,22815,3,1,10
393432107,1492463136400011,452202189,-931447346,342118,311082,0.54,0.0585902,1.646,2.055,0.81,1.12,83,3,10.34,-10.18,1.71,0.5,2.97555,-174031,3,1,10
393634778,1492463136400011,452202001,-931447289,341988,310952,0.48,0.0497283,1.649,2.055,0.81,1.12,83,3,11.08,-10.73,2.69,0.68,2.89631,-376702,3,1,10
393834073,1492463136400011,452201802,-931447209,341829,310793,0.43,0.0407218,1.646,2.051,0.81,1.12,83,3,11.91,-11.33,3.48,1.19,2.84329,-575997,3,1,10
394034075,1492463136400011,452201595,-931447105,341530,310495,0.42,0.0380482,1.64,2.048,0.81,1.12,83,3,12.74,-11.82,4.51,1.47,2.77675,-775999,3,1,10
394232371,1492463137400011,452201382,-931446977,341127,310092,0.42,0.0335327,1.632,2.042,0.81,1.12,83,3,13.38,-12.1,5.35,1.98,2.7252,22046,3,1,10
394434191,1492463137400011,452201165,-931446827,340734,309699,0.38,0.0312718,1.62,2.03,0.81,1.12,83,3,13.97,-12.31,6.4,1.61,2.66173,-179774,3,1,10
394632935,1492463137400011,452200943,-931446657,340437,309401,0.36,0.0294739,1.608,2.02,0.81,1.12,83,3,14.59,-12.76,6.95,1.32,2.64311,-378518,3,1,10
394841818,1492463137400011,452200716,-931446474,340174,309138,0.43,0.0305328,1.602,2.017,0.81,1.12,83,3,14.81,-12.74,7.46,1.15,2.61197,-587401,3,1,10
395032070,1492463137400011,452200488,-931446275,339910,308874,0.39,0.0262611,1.592,2.007,0.81,1.12,83,3,15.2,-12.89,7.96,1.23,2.58825,-777653,3,1,10
395235083,1492463138400011,452200259,-931446063,339687,308651,0.4,0.0286093,1.583,2.003,0.81,1.12,83,5,15.45,-12.77,8.64,0.99,2.54663,22007,3,1,10
395435903,1492463138400011,452200032,-931445835,339551,308515,0.38,0.0251434,1.574,1.996,0.81,1.12,83,5,15.88,-12.89,9.26,0.47,2.51875,-178813,3,1,10
395636209,1492463138400011,452199801,-931445600,339460,308424,0.43,0.0278862,1.57,1.994,0.81,1.12,83,5,15.85,-12.93,9.17,-0.07,2.5248,-379119,3,1,10
395835363,1492463138400011,452199570,-931445359,339423,308387,0.42,0.0223367,1.565,1.986,0.81,1.12,83,5,16.1,-12.96,9.55,-0.22,2.50666,-578273,3,1,10
396036434,1492463138400011,452199338,-931445115,339401,308365,0.44,0.022295,1.559,1.977,0.81,1.12,83,5,16.13,-12.99,9.56,-0.05,2.50733,-779344,3,1,10
396236765,1492463139400011,452199104,-931444876,339370,308334,0.43,0.0221653,1.551,1.968,0.81,1.12,83,4,16.01,-13.11,9.2,0.01,2.52979,21320,3,1,10
396435130,1492463139400011,452198869,-931444644,339290,308254,0.45,0.0244309,1.546,1.962,0.81,1.12,83,4,15.99,-13.16,9.07,-0.14,2.5381,-177045,3,1,10
396635269,1492463139400011,452198626,-931444417,339383,308347,0.52,0.0273388,1.547,1.961,0.81,1.12,83,4,16.22,-13.6,8.83,-0.4,2.5657,-377184,3,1,10
396839319,1492463139400011,452198370,-931444198,339682,308646,0.43,0.0270418,1.547,1.956,0.81,1.12,83,4,15.76,-13.62,7.88,-0.93,2.61697,-581234,3,1,10
397030071,1492463139400011,452198122,-931444014,339832,308796,0.57,0.033144,1.549,1.958,0.98,1.19,83,4,15.44,-13.84,6.77,-0.91,2.6865,-771986,3,1,9
397236072,1492463140400012,452197871,-931443848,340082,309046,0.56,0.0364329,1.556,1.964,0.81,1.12,89,5,15.34,-14.13,5.91,-0.91,2.74556,22011,3,1,10
397433070,1492463140400012,452197612,-931443717,340255,309219,0.54,0.0380319,1.564,1.975,0.81,1.12,89,5,15.1,-14.47,4.27,-0.73,2.85485,-174987,3,1,10
397635149,1492463140400012,452197346,-931443628,340323,309287,0.52,0.0360445,1.571,1.985,0.81,1.12,89,5,15.12,-14.84,2.85,-0.54,2.95178,-377066,3,1,10
397834069,1492463140400012,452197080,-931443571,340238,309202,0.5,0.0361709,1.578,1.994,0.81,1.12,89,5,14.83,-14.74,1.67,0.09,3.02893,-575986,3,1,10
398032858,1492463140400012,452196810,-931443541,340174,309138,0.49,0.0342502,1.583,2.001,0.81,1.12,89,5,14.89,-14.86,0.57,0.68,3.10311,-774775,3,1,10
398232069,1492463141400012,452196545,-931443548,339863,308827,0.53,0.0368704,1.589,2.007,0.81,1.12,88,4,14.75,-14.66,-1.15,1.18,3.21976,21018,3,1,10
398437078,1492463141400012,452196286,-931443606,339490,308454,0.56,0.0391411,1.596,2.015,0.81,1.12,88,4,14.65,-14.22,-3.25,1.38,3.36616,-183991,3,1,10
398632374,1492463141400012,452196037,-931443716,339005,307969,0.63,0.038835,1.604,2.022,0.81,1.12,88,4,14.9,-13.77,-5.31,1.99,3.50975,-379287,3,1,10
398847964,1492463141400012,452195798,-931443868,338365,307329,0.64,0.035405,1.612,2.029,0.81,1.12,88,4,14.99,-13.13,-6.64,2.87,3.60978,-594877,3,1,10
399041545,1492463141400012,452195573,-931444055,337496,306460,0.66,0.0336381,1.618,2.034,0.81,1.12,88,4,15.13,-12.28,-7.89,4.0,3.7129,-788458,3,1,10
399235072,1492463142400012,452195362,-931444277,336589,305553,0.71,0.0337276,1.622,2.039,0.81,1.12,88,4,15.3,-11.32,-9.2,4.6,3.82371,22563,3,1,10
399431090,1492463142400012,452195169,-931444538,335707,304671,0.72,0.0345629,1.625,2.043,0.81,1.12,88,4,15.39,-10.01,-10.78,4.53,3.9644,-173455,3,1,10
399633072,1492463142400012,452195001,-931444834,334765,303729,0.71,0.0400673,1.629,2.048,0.81,1.12,88,4,15.53,-8.83,-11.96,4.49,4.07623,-375437,3,1,10
399832359,1492463142400012,452194857,-931445164,333828,302792,0.65,0.0363266,1.633,2.049,0.81,1.12,88,4,15.89,-7.47,-13.22,4.67,4.1981,-574724,3,1,10
400036070,1492463142400012,452194734,-931445512,332888,301852,0.65,0.0392214,1.635,2.05,0.81,1.12,88,3,15.83,-6.36,-13.76,4.55,4.27939,-778435,3,1,10
400233098,1492463143400012,452194632,-931445877,331927,300891,0.65,0.0409981,1.639,2.053,0.81,1.12,88,3,16.02,-5.24,-14.49,4.4,4.36541,23260,3,1,10
400434247,1492463143400012,452194558,-931446257,330981,299945,0.63,0.0395331,1.643,2.058,0.81,1.12,88,3,15.96,-3.4,-14.98,4.33,4.48908,-177889,3,1,10
400638497,1492463143400012,452194513,-931446649,330132,299096,0.61,0.0376639,1.647,2.062,0.81,1.12,88,3,16.11,-1.7,-15.55,3.87,4.60375,-382139,3,1,10
400834073,1492463143400012,452194501,-931447044,329311,298275,0.6,0.0356211,1.65,2.064,0.81,1.12,88,3,15.76,0.0,-15.31,3.73,4.7123,-577715,3,1,10
401037053,1492463143400012,452194520,-931447432,328566,297530,0.58,0.0317203,1.652,2.064,0.81,1.12,88,3,15.68,1.69,-15.25,3.25,4.82285,-780695,3,1,10
401238883,1492463144400013,452194568,-931447817,327859,296823,0.56,0.0323062,1.652,2.065,0.81,1.12,88,3,15.57,3.27,-14.94,2.9,4.92806,22665,3,1,10
401433104,1492463144400013,452194645,-931448188,327263,296228,0.54,0.0319114,1.653,2.066,0.81,1.12,88,3,15.37,4.91,-14.33,2.64,5.0422,-171556,3,1,10
401632075,1492463144400013,452194751,-931448539,326752,295716,0.52,0.0321676,1.652,2.065,0.81,1.12,88,3,15.05,6.44,-13.42,2.23,5.15996,-370527,3,1,10
401831130,1492463144400013,452194879,-931448868,326314,295278,0.51,0.0348139,1.652,2.065,0.81,1.12,88,3,14.8,7.67,-12.52,1.85,5.26193,-569582,3,1,10
402035355,1492463144400013,452195033,-931449172,325990,294954,0.5,0.0346505,1.65,2.068,0.81,1.12,88,3,14.65,9.07,-11.42,1.37,5.38364,-773807,3,1,10
402236114,1492463145400013,452195209,-931449444,325673,294638,0.53,0.0355963,1.647,2.071,0.81,1.12,88,3,14.45,10.12,-10.24,1.29,5.49207,21958,3,1,10
402438066,1492463145400013,452195401,-931449681,325417,294381,0.57,0.0353433,1.647,2.077,0.81,1.12,88,3,14.04,10.87,-8.81,1.03,5.60204,-179994,3,1,10
402633090,1492463145400013,452195610,-931449881,325229,294194,0.58,0.0362728,1.649,2.084,0.81,1.12,88,3,14.06,11.97,-7.34,0.82,5.7333,-375018,3,1,10
402830074,1492463145400013,452195835,-931450042,325039,294003,0.59,0.0405948,1.65,2.093,0.81,1.12,88,3,13.9,12.68,-5.68,0.54,5.86226,-572002,3,1,10
403032068,1492463145400013,452196069,-931450160,324884,293849,0.65,0.038935,1.648,2.095,0.81,1.12,88,3,13.67,13.05,-4.05,0.38,5.98212,-773996,3,1,10
403236090,1492463146400013,452196312,-931450231,324854,293819,0.6,0.0376321,1.644,2.092,0.81,1.12,82,4,13.67,13.5,-2.2,-0.05,6.1216,22639,3,1,10
403432995,1492463146400013,452196561,-931450260,324811,293775,0.54,0.0350558,1.636,2.082,0.81,1.12,82,4,13.78,13.76,-0.68,0.06,6.2338,-174266,3,1,10
403634070,1492463146400013,452196813,-931450247,324789,293754,0.5,0.0336494,1.627,2.071,0.81,1.12,82,4,13.79,13.71,1.39,-0.39,0.101126,-375341,3,1,10
403834625,1492463146400013,452197064,-931450185,324833,293798,0.48,0.0352331,1.618,2.059,0.81,1.12,82,4,14.04,13.67,3.15,-0.59,0.226453,-575896,3,1,10
404016407,1492463146400013,452197308,-931450081,324910,293875,0.44,0.0335649,1.607,2.045,0.81,1.12,82,4,14.15,13.31,4.8,-0.51,0.345936,-757678,3,1,10
404235248,1492463147400014,452197547,-931449938,324912,293876,0.4,0.0294011,1.597,2.032,0.81,1.12,88,4,14.51,12.96,6.48,-0.6,0.463447,22809,3,1,10
404432069,1492463147400014,452197777,-931449754,324992,293957,0.37,0.0284419,1.585,2.02,0.81,1.12,88,4,14.68,12.36,7.88,-0.7,0.567588,-174012,3,1,10
404629068,1492463147400014,452197993,-931449540,325123,294087,0.37,0.0279877,1.576,2.013,0.81,1.12,88,4,14.81,11.68,9.05,-1.01,0.659037,-371011,3,1,10
404839179,1492463147400014,452198203,-931449309,325298,294263,0.35,0.026566,1.567,2.007,0.81,1.12,88,4,14.79,11.39,9.36,-1.15,0.688025,-581122,3,1,10
405032860,1492463147400014,452198401,-931449079,325670,294635,0.38,0.0272298,1.557,2.004,0.81,1.12,88,4,14.45,10.79,9.36,-2.19,0.714675,-774803,3,1,10
405234107,1492463148400014,452198591,-931448844,326146,295111,0.38,0.0273821,1.55,2.001,0.81,1.12,88,4,14.38,10.52,9.38,-2.85,0.728296,22736,3,1,10
405433168,1492463148400014,452198772,-931448613,326806,295770,0.4,0.0280408,1.544,1.999,0.81,1.12,88,4,14.04,10.14,9.02,-3.59,0.727206,-176325,3,1,10
405636098,1492463148400014,452198954,-931448398,327647,296611,0.5,0.0284663,1.537,1.995,0.81,1.12,88,4,13.85,10.1,8.19,-4.77,0.681385,-379255,3,1,10
405833068,1492463148400014,452199131,-931448199,328789,297754,0.48,0.0321134,1.535,1.995,0.81,1.12,88,4,13.58,9.66,7.75,-5.57,0.675873,-576225,3,1,10
406030069,1492463148400014,452199300,-931448015,330028,298993,0.47,0.0375644,1.534,1.994,0.81,1.12,88,4,12.96,9.24,6.88,-5.93,0.639756,-773226,3,1,10
406234078,1492463149400014,452199454,-931447857,331151,300115,0.48,0.0430208,1.533,1.992,0.81,1.12,88,7,11.64,8.01,5.8,-6.13,0.626543,22013,3,1,10
406436200,1492463149400014,452199597,-931447720,332298,301263,0.53,0.0481789,1.537,1.998,0.81,1.12,88,7,11.1,7.88,5.12,-5.91,0.576341,-180109,3,1,10
406635847,1492463149400014,452199735,-931447596,333315,302279,0.58,0.0545983,1.542,2.006,0.81,1.12,88,7,10.37,7.37,4.74,-5.55,0.571116,-379756,3,1,10
406836097,1492463149400014,452199862,-931447484,334404,303368,0.55,0.0692203,1.547,2.014,0.81,1.12,88,7,9.95,6.93,4.43,-5.6,0.568803,-580006,3,1,10
407035258,1492463149400014,452199983,-931447381,335434,304398,0.53,0.0749832,1.553,2.023,0.81,1.12,88,7,9.51,6.69,4.06,-5.4,0.544808,-779167,3,1,10
407240870,1492463150400014,452200097,-931447281,336428,305392,0.52,0.0803705,1.559,2.033,0.81,1.12,84,4,9.12,6.4,4.03,-5.08,0.562119,24158,3,1,10
407440070,1492463150400014,452200210,-931447179,337300,306264,0.52,0.0814023,1.564,2.041,0.81,1.12,84,4,8.76,6.41,4.09,-4.36,0.567462,-175042,3,1,10
407638067,1492463150400014,452200321,-931447075,338212,307177,0.52,0.083957,1.568,2.048,0.81,1.12,84,4,8.65,6.27,4.09,-4.33,0.577793,-373039,3,1,10
407838373,1492463150400014,452200425,-931446974,339018,307982,0.52,0.0950161,1.575,2.058,0.81,1.12,84,4,8.07,5.75,3.99,-4.02,0.606669,-573345,3,1,10
