timestamp,indicated_airspeed_m_s,true_airspeed_m_s,true_airspeed_unfiltered_m_s,air_temperature_celsius,confidence,differential_pressure_filtered_pa
327003843,0.0,0.0,0.0,23.4725,1.0,-4.18126
327071917,0.0,0.0,0.0,23.4182,1.0,-4.15003
327085543,0.0,0.0,0.0,23.4468,1.0,-4.11593
327156060,0.0,0.0,0.0,23.4439,1.0,-3.69102
327167793,0.0,0.0,0.0,23.4725,1.0,-3.61537
327180124,0.0,0.0,0.0,23.4496,1.0,-3.56158
327192741,0.0,0.0,0.0,23.4496,1.0,-3.53226
327205177,0.0,0.0,0.0,23.4496,1.0,-3.51884
327216644,0.0,0.0,0.0,23.4554,1.0,-3.51496
327229485,0.0,0.0,0.0,23.4825,1.0,-3.51587
327240348,0.0,0.0,0.0,23.4897,1.0,-3.5187
327252847,0.0,0.0,0.0,23.4325,1.0,-3.52194
327264454,0.0,0.0,0.0,23.4382,1.0,-3.51713
327275912,0.0,0.0,0.0,23.4468,1.0,-3.50168
327287900,0.0,0.0,0.0,23.4654,1.0,-3.484
327299954,0.0,0.0,0.0,23.4754,1.0,-3.46601
327311858,0.0,0.0,0.0,23.4439,1.0,-3.44003
327324893,0.0,0.0,0.0,23.4439,1.0,-3.40088
327336881,0.0,0.0,0.0,23.4639,1.0,-3.35124
327348887,0.0,0.0,0.0,23.4496,1.0,-3.2984
327360907,0.0,0.0,0.0,23.4611,1.0,-3.25405
327373180,0.0,0.0,0.0,23.4339,1.0,-3.2265
327385850,0.0,0.0,0.0,23.4582,1.0,-3.21177
327396919,0.0,0.0,0.0,23.4611,1.0,-3.21334
327409289,0.0,0.0,0.0,23.4768,1.0,-3.23639
327421412,0.0,0.0,0.0,23.4725,1.0,-3.27139
327433317,0.0,0.0,0.0,23.4525,1.0,-3.31113
327445432,0.0,0.0,0.0,23.4382,1.0,-3.35077
327457450,0.0,0.0,0.0,23.4639,1.0,-3.38527
327469292,0.0,0.0,0.0,23.4296,1.0,-3.41469
327481439,0.0,0.0,0.0,23.4439,1.0,-3.44503
327493388,0.0,0.0,0.0,23.4754,1.0,-3.47635
327505519,0.0,0.0,0.0,23.4782,1.0,-3.50045
327516963,0.0,0.0,0.0,23.4811,1.0,-3.51399
327530265,0.0,0.0,0.0,23.4311,1.0,-3.51496
327542320,0.0,0.0,0.0,23.4211,1.0,-3.50813
327553298,0.0,0.0,0.0,23.4339,1.0,-3.50423
327565460,0.0,0.0,0.0,23.4268,1.0,-3.50924
327577314,0.0,0.0,0.0,23.4382,1.0,-3.53116
327589475,0.0,0.0,0.0,23.4611,1.0,-3.56862
327601304,0.0,0.0,0.0,23.4925,1.0,-3.61959
327613894,0.0,0.0,0.0,23.4596,1.0,-3.68856
327625597,0.0,0.0,0.0,23.4611,1.0,-3.75814
327639111,0.0,0.0,0.0,23.4468,1.0,-3.80957
327650561,0.0,0.0,0.0,23.4268,1.0,-3.84481
327664911,0.0,0.0,0.0,23.4253,1.0,-3.87507
327677571,0.0,0.0,0.0,23.4311,1.0,-3.90665
327687608,0.0,0.0,0.0,23.4611,1.0,-3.93528
327701421,0.0,0.0,0.0,23.4496,1.0,-3.96284
327713292,0.0,0.0,0.0,23.4725,1.0,-3.99342
327725456,0.0,0.0,0.0,23.4611,1.0,-4.02003
327737218,0.0,0.0,0.0,23.4668,1.0,-4.0381
327747712,0.0,0.0,0.0,23.4554,1.0,-4.04669
327761507,0.0,0.0,0.0,23.4425,1.0,-4.04259
327773798,0.0,0.0,0.0,23.4554,1.0,-4.02524
327785494,0.0,0.0,0.0,23.4496,1.0,-3.99964
327797938,0.0,0.0,0.0,23.4368,1.0,-3.97213
327809476,0.0,0.0,0.0,23.4325,1.0,-3.9466
327821286,0.0,0.0,0.0,23.4668,1.0,-3.92881
327833744,0.0,0.0,0.0,23.4382,1.0,-3.92162
327844706,0.0,0.0,0.0,23.4368,1.0,-3.91507
327855532,0.0,0.0,0.96347,23.4554,1.0,-3.89477
327866946,0.0,0.0,2.21894,23.4439,1.0,-3.85132
327878890,0.0,0.0,0.0,23.4496,1.0,-3.78715
327892143,0.0,0.0,0.0,23.4511,1.0,-3.71733
327903882,0.0,0.0,0.0,23.4268,1.0,-3.64861
327916297,0.0,0.0,0.0,23.4239,1.0,-3.58196
327927568,0.0,0.0,0.0,23.4325,1.0,-3.52389
327940275,0.0,0.0,0.0,23.4353,1.0,-3.4835
327952100,0.0,0.0,0.0,23.4711,1.0,-3.46848
327963720,0.0,0.0,0.0,23.4725,1.0,-3.47168
327975115,0.0,0.0,0.0,23.4582,1.0,-3.48033
327986883,0.0,0.0,0.591481,23.5225,1.0,-3.48591
327999113,0.0,0.0,0.0,23.4811,1.0,-3.48149
328011084,0.0,0.0,1.11867,23.5297,1.0,-3.46513
328023274,0.0,0.0,0.0,23.4668,1.0,-3.44311
328034853,0.0,0.0,0.0,23.4639,1.0,-3.43962
328046883,0.0,0.0,0.0,23.4639,1.0,-3.47096
328058831,0.0,0.0,0.0,23.4725,1.0,-3.52575
328071913,0.0,0.0,0.0,23.4411,1.0,-3.5914
328084253,0.0,0.0,0.0,23.4582,1.0,-3.66162
328096998,0.0,0.0,0.0,23.4754,1.0,-3.72649
328107990,0.0,0.0,2.20708,23.5297,1.0,-3.77007
328119567,0.0,0.0,0.449211,23.4496,1.0,-3.78266
328131891,0.0,0.0,0.0,23.4496,1.0,-3.77353
328143592,0.0,0.0,0.0,23.5039,1.0,-3.75457
328154867,0.0,0.0,0.0,23.4668,1.0,-3.72973
328167929,0.0,0.0,0.0,23.5125,1.0,-3.70004
328178861,0.0,0.0,0.0,23.4268,1.0,-3.66642
328191580,0.0,0.0,0.733608,23.4954,1.0,-3.62943
328203038,0.0,0.0,0.0,23.4353,1.0,-3.58762
328214854,0.0,0.0,0.0,23.4496,1.0,-3.54536
328227129,0.0,0.0,0.449207,23.4496,1.0,-3.5018
328239089,0.0,0.0,0.0,23.4468,1.0,-3.44764
328251324,0.0,0.0,0.0,23.4353,1.0,-3.38594
328263008,0.0,0.0,0.0,23.4725,1.0,-3.3252
328274889,0.0,0.0,1.28639,23.4611,1.0,-3.26054
328287193,0.0,0.0,2.04867,23.4382,1.0,-3.1808
328298562,0.0,0.0,0.0,23.4253,1.0,-3.08634
328308679,0.0,0.0,0.0,23.4439,1.0,-2.99347
328318705,0.0,0.0,0.0,23.4411,1.0,-2.91886
328332858,0.0,0.0,0.0,23.4382,1.0,-2.86434
328345834,0.0,0.0,0.0,23.4468,1.0,-2.82532
328356651,0.0,0.0,0.0,23.4411,1.0,-2.79962
328366562,0.0,0.0,0.0,23.4668,1.0,-2.78375
328376694,0.0,0.0,0.0,23.4797,1.0,-2.77811
328388463,0.0,0.0,0.0,23.4868,1.0,-2.78726
328400750,0.0,0.0,0.0,23.4396,1.0,-2.81163
328413446,0.0,0.0,0.0,23.4611,1.0,-2.84753
328424453,0.0,0.0,0.0,23.4439,1.0,-2.88863
328437273,0.0,0.0,0.0,23.4439,1.0,-2.93687
328447566,0.0,0.0,0.0,23.4554,1.0,-2.99893
328459538,0.0,0.0,0.0,23.4339,1.0,-3.07151
328475069,0.0,0.0,0.0,23.4353,1.0,-3.15187
328487231,0.0,0.0,0.0,23.4554,1.0,-3.24291
328498811,0.0,0.0,0.0,23.4582,1.0,-3.34008
328509894,0.0,0.0,0.0,23.4596,1.0,-3.42964
328521655,0.0,0.0,0.0,23.4611,1.0,-3.50407
328531577,0.0,0.0,0.0,23.4382,1.0,-3.56632
328543661,0.0,0.0,0.0,23.4353,1.0,-3.62197
328555529,0.0,0.0,0.0,23.4468,1.0,-3.66881
328567536,0.0,0.0,0.0,23.4268,1.0,-3.70323
328582801,0.0,0.0,0.0,23.4754,1.0,-3.73141
328594574,0.0,0.0,0.0,23.4668,1.0,-3.75414
328606072,0.0,0.0,0.0,23.4611,1.0,-3.76649
328618901,0.0,0.0,0.0,23.4725,1.0,-3.77452
328631379,0.0,0.0,0.0,23.4668,1.0,-3.78461
328643113,0.0,0.0,0.0,23.4182,1.0,-3.7942
328655716,0.0,0.0,0.0,23.4496,1.0,-3.80325
328667550,0.0,0.0,0.0,23.4725,1.0,-3.80809
328678644,0.0,0.0,0.0,23.4554,1.0,-3.8032
328690464,0.0,0.0,0.0,23.4439,1.0,-3.79184
328702770,0.0,0.0,0.0,23.4268,1.0,-3.78323
328714475,0.0,0.0,0.0,23.4411,1.0,-3.78306
328726728,0.0,0.0,0.0,23.4496,1.0,-3.78568
328739306,0.0,0.0,0.0,23.4439,1.0,-3.78824
328750866,0.0,0.0,0.0,23.4439,1.0,-3.7967
328763256,0.0,0.0,0.0,23.4496,1.0,-3.81325
328775893,0.0,0.0,0.0,23.4496,1.0,-3.83301
328787128,0.0,0.0,0.0,23.4382,1.0,-3.85045
328798843,0.0,0.0,0.0,23.4339,1.0,-3.86129
328811336,0.0,0.0,0.0,23.4782,1.0,-3.86658
328822988,0.0,0.0,0.0,23.4811,1.0,-3.87242
328835236,0.0,0.0,0.0,23.4954,1.0,-3.87521
328847316,0.0,0.0,0.0,23.5354,1.0,-3.86819
328860003,0.0,0.0,2.32591,23.534,1.0,-3.8446
328871968,0.0,0.0,0.836518,23.5254,1.0,-3.79635
328883797,0.0,0.0,1.28642,23.4611,1.0,-3.72586
328895607,0.0,0.0,0.0,23.4353,1.0,-3.64477
328906704,0.0,0.0,0.0,23.4611,1.0,-3.56775
328916601,0.0,0.0,0.0,23.4439,1.0,-3.50388
328927424,0.0,0.0,0.0,23.4325,1.0,-3.45416
328938843,0.0,0.0,0.0,23.4439,1.0,-3.42168
328951450,0.0,0.0,0.0,23.4353,1.0,-3.40882
328963708,0.0,0.0,0.0,23.4439,1.0,-3.41341
328975536,0.0,0.0,0.0,23.4611,1.0,-3.4311
328986988,0.0,0.0,0.0,23.4382,1.0,-3.44715
328998915,0.0,0.0,2.00558,23.4368,1.0,-3.44473
329011095,0.0,0.0,0.0,23.4296,1.0,-3.42047
329023331,0.0,0.0,0.0,23.4582,1.0,-3.38394
329034770,0.0,0.0,0.0,23.4554,1.0,-3.34469
329044788,0.0,0.0,0.0,23.4439,1.0,-3.30208
329056631,0.0,0.0,1.4252,23.4211,1.0,-3.24871
329066696,0.0,0.0,0.0,23.4268,1.0,-3.18252
329080747,0.0,0.0,0.0,23.4268,1.0,-3.11057
329093746,0.0,0.0,0.0,23.4439,1.0,-3.03581
329104971,0.0,0.0,0.0,23.4468,1.0,-2.95526
329116707,0.0,0.0,0.0,23.4325,1.0,-2.86909
329128934,0.0,0.0,0.0,23.4611,1.0,-2.78232
329140913,0.0,0.0,0.0,23.4725,1.0,-2.69861
329154270,0.0,0.0,1.05034,23.4568,1.0,-2.61457
329164731,0.0,0.0,0.0,23.4525,1.0,-2.52885
329178207,0.0,0.0,0.44922,23.4496,1.0,-2.44475
329188923,0.0,0.0,1.48088,23.4654,1.0,-2.35774
329201414,0.0,0.0,0.0,23.4425,1.0,-2.26376
329213406,0.0,0.0,1.28638,23.4611,1.0,-2.16516
329226295,0.0,0.0,0.0,23.4382,1.0,-2.06378
329236596,0.0,0.0,0.44922,23.4496,1.0,-1.96201
329250209,0.0,0.0,0.0,23.4668,1.0,-1.86299
329260607,0.0,0.0,1.5388,23.4668,1.0,-1.76672
329270577,0.0,0.0,0.0,23.4211,1.0,-1.67626
329280769,0.0,0.0,0.0,23.4496,1.0,-1.60199
329294207,0.0,0.0,0.0,23.4496,1.0,-1.5458
329305543,0.0,0.0,0.0,23.4725,1.0,-1.50107
329316573,0.0,0.0,0.0,23.4639,1.0,-1.46322
329326562,0.0,0.0,0.0,23.4725,1.0,-1.43034
329337590,0.0,0.0,0.449225,23.4496,1.0,-1.39926
329348517,0.0,0.0,0.0,23.4311,1.0,-1.36696
329361406,0.0,0.0,0.0,23.4268,1.0,-1.3401
329372760,0.0,0.0,0.0,23.4439,1.0,-1.32351
329384890,0.0,0.0,0.449218,23.4496,1.0,-1.30847
329396657,0.0,0.0,2.13553,23.4411,1.0,-1.28439
329408805,0.0,0.0,0.0,23.4339,1.0,-1.24992
329420733,0.0,0.0,0.0,23.4325,1.0,-1.21293
329432862,0.0,0.0,0.0,23.4268,1.0,-1.1797
329446008,0.0,0.0,0.0,23.4325,1.0,-1.15073
329457777,0.0,0.0,0.0,23.4239,1.0,-1.12603
329470506,0.0,0.0,0.449227,23.4496,1.0,-1.10389
329481529,0.0,0.0,0.0,23.4611,1.0,-1.08306
329492858,0.0,0.0,0.0,23.4754,1.0,-1.06581
329505047,0.0,0.0,0.0,23.4554,1.0,-1.05416
329517756,0.0,0.0,0.0,23.4582,1.0,-1.04986
329527702,0.0,0.0,0.0,23.4468,1.0,-1.05758
329538704,0.0,0.0,0.0,23.4239,1.0,-1.07887
329550208,0.0,0.0,0.0,23.4411,1.0,-1.11195
329562090,0.0,0.0,0.0,23.4382,1.0,-1.15885
329574988,0.0,0.0,0.0,23.4582,1.0,-1.21624
329586695,0.0,0.0,0.0,23.4839,1.0,-1.28079
329599361,0.0,0.0,0.0,23.4611,1.0,-1.35371
329610839,0.0,0.0,0.0,23.4239,1.0,-1.43232
329623285,0.0,0.0,0.0,23.4196,1.0,-1.51856
329635394,0.0,0.0,0.0,23.4211,1.0,-1.61131
329646893,0.0,0.0,0.0,23.4268,1.0,-1.70473
329658542,0.0,0.0,0.0,23.4468,1.0,-1.795
329670550,0.0,0.0,0.0,23.4439,1.0,-1.87772
329682386,0.0,0.0,0.0,23.4525,1.0,-1.9552
329694300,0.0,0.0,0.0,23.4525,1.0,-2.03323
329706374,0.0,0.0,0.0,23.4668,1.0,-2.11191
329718187,0.0,0.0,0.0,23.4382,1.0,-2.18792
329730008,0.0,0.0,0.0,23.4425,1.0,-2.2621
329742539,0.0,0.0,0.0,23.4353,1.0,-2.3369
329754087,0.0,0.0,0.0,23.4353,1.0,-2.41286
329767683,0.0,0.0,0.0,23.4439,1.0,-2.48931
329779110,0.0,0.0,0.0,23.4382,1.0,-2.56464
329791262,0.0,0.0,0.0,23.4296,1.0,-2.64255
329802789,0.0,0.0,0.0,23.4496,1.0,-2.7283
329814846,0.0,0.0,0.0,23.4296,1.0,-2.83086
329826597,0.0,0.0,0.0,23.4382,1.0,-2.95479
329838049,0.0,0.0,0.0,23.4268,1.0,-3.08448
329850368,0.0,0.0,2.00557,23.4368,1.0,-3.1992
329861808,0.0,0.0,0.0,23.4211,1.0,-3.28778
329874446,0.0,0.0,0.0,23.4211,1.0,-3.35451
329887120,0.0,0.0,0.0,23.4268,1.0,-3.41074
329898781,0.0,0.0,0.0,23.4425,1.0,-3.46306
329911276,0.0,0.0,0.0,23.4325,1.0,-3.5089
329922552,0.0,0.0,1.13645,23.4582,1.0,-3.53803
329934383,0.0,0.0,0.0,23.4668,1.0,-3.55414
329946117,0.0,0.0,0.0,23.4639,1.0,-3.57011
329958463,0.0,0.0,2.04225,23.4811,1.0,-3.5768
329969806,0.0,0.0,0.0,23.4496,1.0,-3.56376
329980608,0.0,0.0,0.0,23.4439,1.0,-3.53813
329991969,0.0,0.0,0.0,23.4325,1.0,-3.5067
330004964,0.0,0.0,0.0,23.4668,1.0,-3.47392
330016675,0.0,0.0,0.0,23.4725,1.0,-3.43814
330028758,0.0,0.0,0.0,23.4668,1.0,-3.39591
330039981,0.0,0.0,0.0,23.4496,1.0,-3.35035
330051650,0.0,0.0,0.0,23.4496,1.0,-3.30602
330063900,0.0,0.0,0.0,23.4325,1.0,-3.26215
330075365,0.0,0.0,0.449214,23.4496,1.0,-3.21213
330087364,0.0,0.0,0.0,23.4568,1.0,-3.15443
330100661,0.0,0.0,0.751674,23.4525,1.0,-3.09173
330111726,0.0,0.0,0.0,23.4725,1.0,-3.02302
330124806,0.0,0.0,1.99901,23.4797,1.0,-2.94506
330136786,0.0,0.0,0.0,23.4582,1.0,-2.85791
330147886,0.0,0.0,0.0,23.4554,1.0,-2.77107
330159597,0.0,0.0,0.0,23.4496,1.0,-2.69246
330171339,0.0,0.0,0.0,23.4711,1.0,-2.62382
330184334,0.0,0.0,0.0,23.4696,1.0,-2.56664
330195787,0.0,0.0,0.0,23.4325,1.0,-2.52192
330207985,0.0,0.0,0.0,23.4382,1.0,-2.48562
330219386,0.0,0.0,0.0,23.4325,1.0,-2.4531
330232988,0.0,0.0,0.0,23.4268,1.0,-2.42954
330244615,0.0,0.0,1.48084,23.4654,1.0,-2.41205
330256924,0.0,0.0,1.4252,23.4211,1.0,-2.38464
330268588,0.0,0.0,2.52511,23.4268,1.0,-2.33724
330280693,0.0,0.0,1.4252,23.4211,1.0,-2.26885
330291912,0.0,0.0,2.4495,23.4525,1.0,-2.18225
330304116,0.0,0.0,3.10143,23.4525,1.0,-2.07411
330315807,0.0,0.0,1.54741,23.4239,1.0,-1.94405
330327323,0.0,0.0,1.66063,23.4268,1.0,-1.80322
330339306,0.0,0.0,0.0,23.4296,1.0,-1.66962
330352047,0.0,0.0,0.0,23.4611,1.0,-1.56624
330364878,0.0,0.0,0.0,23.4382,1.0,-1.49914
330376588,0.0,0.0,0.0,23.4339,1.0,-1.45973
330389066,0.0,0.0,0.0,23.4382,1.0,-1.44386
330400623,0.0,0.0,0.0,23.4325,1.0,-1.44653
330413320,0.0,0.0,0.0,23.4268,1.0,-1.46429
330424763,0.0,0.0,0.0,23.4382,1.0,-1.49609
330435562,0.0,0.0,0.0,23.4453,1.0,-1.53367
330449602,0.0,0.0,0.0,23.4496,1.0,-1.56902
330461315,0.0,0.0,0.0,23.4611,1.0,-1.60374
330474274,0.0,0.0,0.0,23.4339,1.0,-1.63773
330486312,0.0,0.0,2.00556,23.4368,1.0,-1.66204
330498296,0.0,0.0,0.0,23.4296,1.0,-1.67184
330510246,0.0,0.0,2.29935,23.4468,1.0,-1.66798
330521885,0.0,0.0,0.0,23.4411,1.0,-1.64975
330534841,0.0,0.0,0.0,23.4253,1.0,-1.62819
330546616,0.0,0.0,0.0,23.4268,1.0,-1.62006
330557933,0.0,0.0,0.0,23.4496,1.0,-1.62732
330570802,0.0,0.0,0.0,23.4782,1.0,-1.64372
330581783,0.0,0.0,0.0,23.4353,1.0,-1.66742
330594942,0.0,0.0,0.0,23.4268,1.0,-1.7012
330606561,0.0,0.0,0.0,23.4211,1.0,-1.74753
330617913,0.0,0.0,0.0,23.4211,1.0,-1.80687
330629586,0.0,0.0,2.29935,23.4468,1.0,-1.86708
330641948,0.0,0.0,0.0,23.4268,1.0,-1.91188
330653912,0.0,0.0,0.164028,23.4482,1.0,-1.94187
330665766,0.0,0.0,1.53879,23.4668,1.0,-1.95856
330676827,0.0,0.0,0.0,23.4496,1.0,-1.96335
330689313,0.0,0.0,0.0,23.4296,1.0,-1.96948
330701624,0.0,0.0,0.449216,23.4496,1.0,-1.98044
330713408,0.0,0.0,0.0,23.4325,1.0,-1.98689
330725433,0.0,0.0,0.0,23.4268,1.0,-1.98697
330738328,0.0,0.0,1.66059,23.4268,1.0,-1.97991
330749484,0.0,0.0,0.0,23.4382,1.0,-1.96162
330762353,0.0,0.0,1.76661,23.4296,1.0,-1.93194
330774260,0.0,0.0,0.0,23.4639,1.0,-1.89361
330785977,0.0,0.0,0.0,23.4539,1.0,-1.85553
330798784,0.0,0.0,1.48085,23.4654,1.0,-1.81961
330809600,0.0,0.0,0.0,23.4382,1.0,-1.78581
330821943,0.0,0.0,0.0,23.4411,1.0,-1.7609
330834006,0.0,0.0,0.0,23.4353,1.0,-1.73969
330846525,0.0,0.0,0.0,23.4368,1.0,-1.71554
330857730,0.0,0.0,0.0,23.4368,1.0,-1.68915
330869499,0.0,0.0,0.0,23.4382,1.0,-1.66488
330881549,0.0,0.0,0.0,23.4439,1.0,-1.6503
330892712,0.0,0.0,0.0,23.4582,1.0,-1.64893
330903719,0.0,0.0,0.0,23.4582,1.0,-1.65888
330915550,0.0,0.0,0.0,23.4725,1.0,-1.67613
330927694,0.0,0.0,0.0,23.4611,1.0,-1.70099
330939123,0.0,0.0,0.0,23.4725,1.0,-1.73228
330951430,0.0,0.0,0.0,23.4611,1.0,-1.77059
330963376,0.0,0.0,0.0,23.4525,1.0,-1.82125
330975173,0.0,0.0,0.0,23.4468,1.0,-1.87902
330987296,0.0,0.0,0.0,23.4439,1.0,-1.93804
331000181,0.0,0.0,0.0,23.4339,1.0,-1.99998
331011957,0.0,0.0,0.0,23.4268,1.0,-2.06293
331023609,0.0,0.0,0.0,23.4554,1.0,-2.12176
331035035,0.0,0.0,0.0,23.4211,1.0,-2.17928
331046891,0.0,0.0,0.0,23.4211,1.0,-2.24351
331058990,0.0,0.0,0.0,23.4239,1.0,-2.31938
331071323,0.0,0.0,0.0,23.4182,1.0,-2.40388
331083893,0.0,0.0,0.0,23.4353,1.0,-2.48775
331095920,0.0,0.0,0.0,23.4668,1.0,-2.56891
331107565,0.0,0.0,0.0,23.4639,1.0,-2.64668
331119380,0.0,0.0,0.0,23.4668,1.0,-2.7153
331131930,0.0,0.0,0.0,23.4482,1.0,-2.77406
331143536,0.0,0.0,0.0,23.4611,1.0,-2.82575
331155596,0.0,0.0,0.0,23.4639,1.0,-2.86981
331167341,0.0,0.0,0.0,23.4525,1.0,-2.90609
331178871,0.0,0.0,1.86298,23.4325,1.0,-2.9306
331191118,0.0,0.0,0.0,23.4253,1.0,-2.94168
331202986,0.0,0.0,0.0,23.4382,1.0,-2.95411
331215223,0.0,0.0,0.0,23.4268,1.0,-2.97833
331226921,0.0,0.0,0.0,23.4296,1.0,-3.01371
331237560,0.0,0.0,0.0,23.4268,1.0,-3.05979
331248420,0.0,0.0,0.0,23.4496,1.0,-3.11326
331261493,0.0,0.0,0.0,23.4211,1.0,-3.16741
331274771,0.0,0.0,0.0,23.4211,1.0,-3.21818
331288774,0.0,0.0,0.0,23.4411,1.0,-3.2679
331300631,0.0,0.0,0.0,23.4382,1.0,-3.317
331310634,0.0,0.0,0.0,23.4211,1.0,-3.36555
331320693,0.0,0.0,0.0,23.4611,1.0,-3.42016
331332471,0.0,0.0,0.0,23.4582,1.0,-3.48393
331344791,0.0,0.0,0.0,23.4382,1.0,-3.56126
331358354,0.0,0.0,0.0,23.4554,1.0,-3.65716
331369485,0.0,0.0,0.0,23.4439,1.0,-3.76045
331381284,0.0,0.0,0.0,23.4696,1.0,-3.85933
331393501,0.0,0.0,0.0,23.4696,1.0,-3.95401
331405252,0.0,0.0,0.0,23.4268,1.0,-4.04327
331415528,0.0,0.0,1.36246,23.4196,1.0,-4.11364
331426562,0.0,0.0,0.0,23.4211,1.0,-4.16082
331438208,0.0,0.0,1.65262,23.4696,1.0,-4.19103
331449690,0.0,0.0,0.0,23.4611,1.0,-4.20118
331463360,0.0,0.0,0.0,23.4382,1.0,-4.19241
331474563,0.0,0.0,0.0,23.4382,1.0,-4.16777
331485406,0.0,0.0,0.0,23.4253,1.0,-4.12829
331497283,0.0,0.0,0.0,23.4496,1.0,-4.08716
331509543,0.0,0.0,0.0,23.4296,1.0,-4.05885
331521235,0.0,0.0,0.0,23.4339,1.0,-4.04048
331533560,0.0,0.0,0.0,23.4554,1.0,-4.02308
331545956,0.0,0.0,0.0,23.4582,1.0,-4.00169
331557301,0.0,0.0,0.0,23.4782,1.0,-3.97927
331567676,0.0,0.0,0.0,23.4725,1.0,-3.9623
331582257,0.0,0.0,0.0,23.4611,1.0,-3.95345
331593791,0.0,0.0,0.0,23.4554,1.0,-3.95532
331605762,0.0,0.0,0.0,23.4725,1.0,-3.9603
331617788,0.0,0.0,1.53882,23.4668,1.0,-3.9516
331629936,0.0,0.0,0.0,23.4296,1.0,-3.92239
331642884,0.0,0.0,0.0,23.4582,1.0,-3.88284
331658411,0.0,0.0,0.0,23.4797,1.0,-3.84146
331671342,0.0,0.0,0.0,23.4668,1.0,-3.79429
331682922,0.0,0.0,0.0,23.4439,1.0,-3.74201
331695914,0.0,0.0,0.0,23.4296,1.0,-3.68836
331707536,0.0,0.0,0.0,23.4268,1.0,-3.63064
331718996,0.0,0.0,2.219,23.4439,1.0,-3.56133
331731192,0.0,0.0,0.0,23.4411,1.0,-3.47489
331743459,0.0,0.0,0.0,23.4382,1.0,-3.37694
331754876,0.0,0.0,0.96347,23.4554,1.0,-3.27257
331766459,0.0,0.0,0.0,23.4496,1.0,-3.16471
331776605,0.0,0.0,0.0,23.4382,1.0,-3.06338
331787176,0.0,0.0,0.0,23.4382,1.0,-2.97839
331799296,0.0,0.0,0.0,23.4439,1.0,-2.91193
331811123,0.0,0.0,0.0,23.4268,1.0,-2.86023
331823627,0.0,0.0,0.0,23.4353,1.0,-2.82404
331835536,0.0,0.0,0.0,23.4439,1.0,-2.81109
331848914,0.0,0.0,0.0,23.4311,1.0,-2.82206
331860606,0.0,0.0,0.0,23.4311,1.0,-2.84626
331871272,0.0,0.0,0.0,23.4711,1.0,-2.87526
331882642,0.0,0.0,0.0,23.4439,1.0,-2.90604
331892694,0.0,0.0,0.0,23.4268,1.0,-2.93427
331903529,0.0,0.0,0.0,23.4268,1.0,-2.95476
331916239,0.0,0.0,0.0,23.4468,1.0,-2.96366
331927532,0.0,0.0,0.0,23.4339,1.0,-2.95941
331939997,0.0,0.0,0.0,23.4296,1.0,-2.94434
331951535,0.0,0.0,0.0,23.4253,1.0,-2.92218
331963340,0.0,0.0,0.0,23.4439,1.0,-2.89745
331975398,0.0,0.0,0.0,23.4611,1.0,-2.88121
331986851,0.0,0.0,0.0,23.4654,1.0,-2.88123
332000211,0.0,0.0,0.0,23.4239,1.0,-2.896
332011539,0.0,0.0,0.0,23.4668,1.0,-2.92749
332024204,0.0,0.0,0.0,23.4496,1.0,-2.97965
332035670,0.0,0.0,0.0,23.4611,1.0,-3.0524
332047938,0.0,0.0,0.0,23.4453,1.0,-3.14425
332059574,0.0,0.0,0.0,23.4525,1.0,-3.24695
332072971,0.0,0.0,0.0,23.4268,1.0,-3.34735
332084589,0.0,0.0,0.0,23.4411,1.0,-3.441
332096811,0.0,0.0,0.0,23.4496,1.0,-3.52979
332108717,0.0,0.0,0.0,23.4668,1.0,-3.61176
332120635,0.0,0.0,0.0,23.4268,1.0,-3.69115
332133781,0.0,0.0,0.0,23.4268,1.0,-3.77825
332144509,0.0,0.0,0.0,23.4368,1.0,-3.86769
332157600,0.0,0.0,0.0,23.4325,1.0,-3.9501
332168468,0.0,0.0,0.0,23.4239,1.0,-4.02645
332178731,0.0,0.0,0.0,23.4325,1.0,-4.09821
332193005,0.0,0.0,0.0,23.4696,1.0,-4.16804
332205545,0.0,0.0,0.0,23.4582,1.0,-4.23862
332216771,0.0,0.0,0.0,23.4268,1.0,-4.30694
332229438,0.0,0.0,0.0,23.4211,1.0,-4.37083
332240840,0.0,0.0,0.0,23.4182,1.0,-4.43208
332253160,0.0,0.0,0.0,23.4382,1.0,-4.49261
332264895,0.0,0.0,0.0,23.4268,1.0,-4.54822
332277414,0.0,0.0,0.0,23.4211,1.0,-4.58859
332288588,0.0,0.0,0.0,23.4439,1.0,-4.60795
332301530,0.0,0.0,0.0,23.4525,1.0,-4.61062
332313406,0.0,0.0,0.0,23.4525,1.0,-4.60566
332324820,0.0,0.0,1.28634,23.4611,1.0,-4.58934
332336662,0.0,0.0,1.95798,23.4353,1.0,-4.54814
332348654,0.0,0.0,0.0,23.4268,1.0,-4.48136
332360785,0.0,0.0,0.0,23.4596,1.0,-4.4043
332372599,0.0,0.0,0.0,23.4382,1.0,-4.33048
332384816,0.0,0.0,0.0,23.4353,1.0,-4.26551
332396476,0.0,0.0,0.0,23.4268,1.0,-4.21238
332408928,0.0,0.0,0.0,23.4654,1.0,-4.17259
332420484,0.0,0.0,0.0,23.4439,1.0,-4.15169
332432806,0.0,0.0,0.0,23.4325,1.0,-4.15229
332444803,0.0,0.0,0.0,23.4554,1.0,-4.16581
332456877,0.0,0.0,0.0,23.4353,1.0,-4.1852
332470484,0.0,0.0,0.0,23.4654,1.0,-4.20565
332481387,0.0,0.0,0.0,23.4211,1.0,-4.23305
332493983,0.0,0.0,0.0,23.4382,1.0,-4.27916
332504963,0.0,0.0,0.0,23.4468,1.0,-4.33345
332517798,0.0,0.0,0.0,23.4611,1.0,-4.38434
332529150,0.0,0.0,0.0,23.4468,1.0,-4.42963
332541413,0.0,0.0,0.0,23.4439,1.0,-4.47701
332553571,0.0,0.0,0.0,23.4554,1.0,-4.53822
332565865,0.0,0.0,0.0,23.4353,1.0,-4.60586
332577672,0.0,0.0,0.0,23.4382,1.0,-4.67718
332590543,0.0,0.0,0.0,23.4353,1.0,-4.7503
332602206,0.0,0.0,0.0,23.4239,1.0,-4.8076
332615672,0.0,0.0,0.0,23.4411,1.0,-4.84413
332627001,0.0,0.0,0.0,23.4411,1.0,-4.87087
332639436,0.0,0.0,0.0,23.4554,1.0,-4.89551
332651093,0.0,0.0,0.0,23.4439,1.0,-4.91642
332665740,0.0,0.0,0.0,23.4353,1.0,-4.92564
332675974,0.0,0.0,1.95782,23.4353,1.0,-4.91151
332687561,0.0,0.0,0.0,23.4311,1.0,-4.87348
332699064,0.0,0.0,0.0,23.4125,1.0,-4.83247
332710437,0.0,0.0,0.0,23.4325,1.0,-4.79821
332722135,0.0,0.0,0.0,23.4396,1.0,-4.76314
332735437,0.0,0.0,0.0,23.4639,1.0,-4.73307
332746543,0.0,0.0,0.0,23.4496,1.0,-4.71208
332758337,0.0,0.0,0.0,23.4725,1.0,-4.68759
332770254,0.0,0.0,0.0,23.4339,1.0,-4.64946
332782125,0.0,0.0,0.0,23.4353,1.0,-4.60022
332794405,0.0,0.0,0.0,23.4268,1.0,-4.54991
332805728,0.0,0.0,0.0,23.4211,1.0,-4.50103
332817768,0.0,0.0,0.0,23.4439,1.0,-4.4449
332830280,0.0,0.0,0.0,23.4311,1.0,-4.37561
332842431,0.0,0.0,0.0,23.4639,1.0,-4.29616
332854428,0.0,0.0,0.0,23.4439,1.0,-4.20901
332867806,0.0,0.0,0.0,23.4525,1.0,-4.11527
332879630,0.0,0.0,0.0,23.4368,1.0,-4.02221
332890315,0.0,0.0,0.0,23.4382,1.0,-3.93238
332902447,0.0,0.0,0.0,23.4425,1.0,-3.83827
332914075,0.0,0.0,0.0,23.4382,1.0,-3.73599
332927006,0.0,0.0,0.0,23.4339,1.0,-3.63204
332938209,0.0,0.0,0.0,23.4496,1.0,-3.53537
332950417,0.0,0.0,0.0,23.4311,1.0,-3.45201
332962425,0.0,0.0,0.0,23.4153,1.0,-3.38759
332974042,0.0,0.0,0.0,23.4496,1.0,-3.35059
332986422,0.0,0.0,0.0,23.4754,1.0,-3.34629
332999230,0.0,0.0,0.0,23.4811,1.0,-3.36094
333011494,0.0,0.0,0.0,23.4782,1.0,-3.37638
333023387,0.0,0.0,0.0,23.4453,1.0,-3.39145
333037178,0.0,0.0,0.0,23.4496,1.0,-3.40961
333048839,0.0,0.0,0.0,23.4582,1.0,-3.42634
333060569,0.0,0.0,0.0,23.4696,1.0,-3.43845
333071958,0.0,0.0,0.0,23.4554,1.0,-3.4503
333084481,0.0,0.0,1.05024,23.4568,1.0,-3.45917
333096859,0.0,0.0,0.0,23.4368,1.0,-3.45848
333108970,0.0,0.0,0.0,23.4353,1.0,-3.45032
333120304,0.0,0.0,0.0,23.4211,1.0,-3.43916
333132845,0.0,0.0,0.0,23.4239,1.0,-3.43231
333144633,0.0,0.0,0.0,23.4268,1.0,-3.42993
333156760,0.0,0.0,0.0,23.4382,1.0,-3.42109
333167873,0.0,0.0,0.0,23.4696,1.0,-3.40793
333180024,0.0,0.0,0.0,23.4582,1.0,-3.40037
333192159,0.0,0.0,0.0,23.4325,1.0,-3.39247
333205014,0.0,0.0,0.0,23.4182,1.0,-3.37632
333216918,0.0,0.0,0.0,23.4382,1.0,-3.35199
333229931,0.0,0.0,0.0,23.4382,1.0,-3.32215
333241961,0.0,0.0,0.0,23.4211,1.0,-3.29574
333255792,0.0,0.0,0.0,23.4182,1.0,-3.28333
333265705,0.0,0.0,0.0,23.4268,1.0,-3.28782
333276887,0.0,0.0,0.0,23.4611,1.0,-3.30268
333288916,0.0,0.0,0.0,23.4725,1.0,-3.32937
333300802,0.0,0.0,0.0,23.4639,1.0,-3.3731
333313047,0.0,0.0,0.0,23.4439,1.0,-3.42593
333324606,0.0,0.0,0.0,23.4439,1.0,-3.48012
333336774,0.0,0.0,1.4158,23.4639,1.0,-3.5253
333348012,0.0,0.0,0.0,23.4711,1.0,-3.55038
333360346,0.0,0.0,0.0,23.4611,1.0,-3.55911
333371983,0.0,0.0,0.0,23.4253,1.0,-3.55791
333383856,0.0,0.0,0.0,23.4382,1.0,-3.55314
333396073,0.0,0.0,0.0,23.4611,1.0,-3.55102
333408606,0.0,0.0,0.0,23.4582,1.0,-3.5472
333420006,0.0,0.0,0.0,23.4496,1.0,-3.54102
333431936,0.0,0.0,0.0,23.4425,1.0,-3.53829
333443894,0.0,0.0,0.0,23.4468,1.0,-3.53765
333456842,0.0,0.0,0.0,23.4339,1.0,-3.5372
333471364,0.0,0.0,0.0,23.4296,1.0,-3.53947
333482783,0.0,0.0,0.0,23.4211,1.0,-3.54713
333494269,0.0,0.0,0.0,23.4496,1.0,-3.55889
333505600,0.0,0.0,0.0,23.4525,1.0,-3.57202
333518530,0.0,0.0,1.75912,23.4725,1.0,-3.57953
333529573,0.0,0.0,0.0,23.4268,1.0,-3.57513
333542458,0.0,0.0,0.0,23.4353,1.0,-3.56343
333553636,0.0,0.0,0.0,23.4439,1.0,-3.54295
333565988,0.0,0.0,0.0,23.4325,1.0,-3.50903
333577763,0.0,0.0,0.449202,23.4496,1.0,-3.46291
333588802,0.0,0.0,0.0,23.4268,1.0,-3.40608
333601245,0.0,0.0,0.0,23.4311,1.0,-3.34659
333613697,0.0,0.0,0.0,23.4411,1.0,-3.29398
333623573,0.0,0.0,0.0,23.5325,1.0,-3.25198
333638071,0.0,0.0,0.0,23.4668,1.0,-3.21854
333650723,0.0,0.0,1.41112,23.5068,1.0,-3.18162
333662050,0.0,0.0,0.0,23.4682,1.0,-3.13566
333677673,0.0,0.0,0.0,23.4382,1.0,-3.0913
333689474,0.0,0.0,0.0,23.4611,1.0,-3.0561
333701758,0.0,0.0,0.0,23.4496,1.0,-3.0289
333713412,0.0,0.0,0.0,23.4596,1.0,-3.00521
333726070,0.0,0.0,1.5388,23.4668,1.0,-2.97616
333737509,0.0,0.0,0.449202,23.4496,1.0,-2.93322
333750086,0.0,0.0,1.75904,23.4725,1.0,-2.8742
333761529,0.0,0.0,2.44948,23.4525,1.0,-2.79594
333774015,0.0,0.0,1.42519,23.4211,1.0,-2.69709
333785529,0.0,0.0,0.0,23.4782,1.0,-2.58707
333795619,0.0,0.0,0.0,23.4382,1.0,-2.47614
333810336,0.0,0.0,0.0,23.4411,1.0,-2.37122
333822552,0.0,0.0,0.0,23.4468,1.0,-2.28645
333833692,0.0,0.0,0.0,23.4439,1.0,-2.2333
333845407,0.0,0.0,0.0,23.4425,1.0,-2.2076
333858047,0.0,0.0,0.0,23.4268,1.0,-2.20455
333869435,0.0,0.0,0.733608,23.4954,1.0,-2.21552
333881177,0.0,0.0,0.0,23.4182,1.0,-2.22898
333894648,0.0,0.0,0.0,23.4382,1.0,-2.24826
333906997,0.0,0.0,0.0,23.4839,1.0,-2.27466
333918848,0.0,0.0,2.37421,23.4496,1.0,-2.29401
333931537,0.0,0.0,0.0,23.4625,1.0,-2.29656
333943191,0.0,0.0,0.0,23.4725,1.0,-2.28953
333954839,0.0,0.0,0.0,23.4211,1.0,-2.28001
333967682,0.0,0.0,0.867969,23.4539,1.0,-2.26574
333979896,0.0,0.0,0.0,23.4296,1.0,-2.24399
333991812,0.0,0.0,0.0,23.4439,1.0,-2.21579
334004248,0.0,0.0,0.0,23.4954,1.0,-2.18353
334015567,0.0,0.0,0.0,23.4296,1.0,-2.15405
334027625,0.0,0.0,0.0,23.4411,1.0,-2.13543
334038500,0.0,0.0,0.0,23.4268,1.0,-2.12949
334052825,0.0,0.0,0.0,23.4439,1.0,-2.13782
334066606,0.0,0.0,0.0,23.4182,1.0,-2.15807
334077000,0.0,0.0,0.0,23.4439,1.0,-2.18269
334087806,0.0,0.0,0.0,23.4353,1.0,-2.21081
334100081,0.0,0.0,0.0,23.4439,1.0,-2.24024
334111532,0.0,0.0,0.0,23.4268,1.0,-2.26303
334123422,0.0,0.0,2.8577,23.4696,1.0,-2.26951
334135806,0.0,0.0,2.37418,23.4496,1.0,-2.24797
334146890,0.0,0.0,0.0,23.4668,1.0,-2.20649
334159909,0.0,0.0,0.0,23.4711,1.0,-2.16534
334171545,0.0,0.0,0.0,23.4897,1.0,-2.126
334183217,0.0,0.0,0.0,23.4839,1.0,-2.08497
334194555,0.0,0.0,0.0,23.4639,1.0,-2.04676
334207422,0.0,0.0,0.0,23.4868,1.0,-2.0107
334219109,0.0,0.0,0.0,23.4211,1.0,-1.97363
334231923,0.0,0.0,0.0,23.4153,1.0,-1.93864
334243794,0.0,0.0,0.0,23.4211,1.0,-1.90852
334255160,0.0,0.0,1.85949,23.4754,1.0,-1.87699
334267052,0.0,0.0,0.0,23.4439,1.0,-1.8362
334278810,0.0,0.0,0.0,23.4268,1.0,-1.78982
334292368,0.0,0.0,0.0,23.4253,1.0,-1.74532
334303546,0.0,0.0,0.0,23.4211,1.0,-1.70514
334314833,0.0,0.0,0.0,23.4382,1.0,-1.66837
334327094,0.0,0.0,2.21894,23.4439,1.0,-1.62706
334339399,0.0,0.0,1.95807,23.4353,1.0,-1.57141
334350914,0.0,0.0,0.751697,23.4525,1.0,-1.50261
334363424,0.0,0.0,1.13644,23.4582,1.0,-1.42775
334374591,0.0,0.0,0.0,23.4439,1.0,-1.35496
334385690,0.0,0.0,0.0,23.4382,1.0,-1.29576
334396985,0.0,0.0,0.0,23.4239,1.0,-1.2573
334408612,0.0,0.0,0.0,23.4268,1.0,-1.23656
334420912,0.0,0.0,1.42517,23.4211,1.0,-1.22048
334432743,0.0,0.0,0.0,23.4296,1.0,-1.20017
334442562,0.0,0.0,0.0,23.4382,1.0,-1.17845
334454392,0.0,0.0,1.81544,23.4311,1.0,-1.15375
334464606,0.0,0.0,1.14813,23.4153,1.0,-1.12009
334477015,0.0,0.0,0.0,23.4139,1.0,-1.08252
334489513,0.0,0.0,0.0,23.4625,1.0,-1.05145
334500606,0.0,0.0,0.0,23.4496,1.0,-1.03097
334513699,0.0,0.0,0.0,23.4268,1.0,-1.0272
334524480,0.0,0.0,0.0,23.4339,1.0,-1.04215
334537662,0.0,0.0,1.66059,23.4268,1.0,-1.05979
334548406,0.0,0.0,0.0,23.4439,1.0,-1.0674
334558574,0.0,0.0,0.0,23.4268,1.0,-1.06923
334569598,0.0,0.0,0.0,23.4268,1.0,-1.07181
334580710,0.0,0.0,0.0,23.4239,1.0,-1.08412
334593214,0.0,0.0,0.0,23.4554,1.0,-1.11676
334605266,0.0,0.0,0.0,23.4554,1.0,-1.16581
334617049,0.0,0.0,0.0,23.4554,1.0,-1.22767
334628955,0.0,0.0,0.0,23.4554,1.0,-1.3078
334640784,0.0,0.0,0.0,23.4211,1.0,-1.40589
334653166,0.0,0.0,0.0,23.4439,1.0,-1.51986
334664724,0.0,0.0,0.0,23.4525,1.0,-1.64551
334677219,0.0,0.0,0.0,23.4382,1.0,-1.77134
334688693,0.0,0.0,0.0,23.4239,1.0,-1.89012
334700914,0.0,0.0,0.0,23.4439,1.0,-2.00843
334714054,0.0,0.0,1.28635,23.4611,1.0,-2.12429
334725637,0.0,0.0,0.0,23.4439,1.0,-2.22228
334737936,0.0,0.0,1.86293,23.4325,1.0,-2.29517
334748908,0.0,0.0,0.0,23.4439,1.0,-2.34367
334762016,0.0,0.0,1.66063,23.4268,1.0,-2.37054
334772625,0.0,0.0,0.0,23.4268,1.0,-2.38435
334784891,0.0,0.0,0.0,23.4468,1.0,-2.39457
334796990,0.0,0.0,0.0,23.4353,1.0,-2.40578
334808774,0.0,0.0,0.0,23.4596,1.0,-2.42281
334819794,0.0,0.0,0.0,23.4439,1.0,-2.44426
334830921,0.0,0.0,0.0,23.4211,1.0,-2.4697
334842823,0.0,0.0,0.0,23.4211,1.0,-2.50041
334858236,0.0,0.0,0.0,23.4353,1.0,-2.53228
334871011,0.0,0.0,2.04868,23.4382,1.0,-2.55766
334882752,0.0,0.0,0.0,23.4468,1.0,-2.56573
334895419,0.0,0.0,0.0,23.4411,1.0,-2.55678
334906276,0.0,0.0,0.0,23.4353,1.0,-2.53768
334919523,0.0,0.0,0.449227,23.4496,1.0,-2.50986
334930562,0.0,0.0,0.0,23.4439,1.0,-2.47264
334942481,0.0,0.0,0.0,23.4268,1.0,-2.42859
334954294,0.0,0.0,1.75908,23.4725,1.0,-2.37807
334966186,0.0,0.0,0.0,23.4496,1.0,-2.32118
334978697,0.0,0.0,0.0,23.4611,1.0,-2.26626
334990192,0.0,0.0,0.0,23.4496,1.0,-2.21879
335002474,0.0,0.0,1.4252,23.4211,1.0,-2.17371
335015011,0.0,0.0,0.0,23.4411,1.0,-2.12732
335027006,0.0,0.0,0.0,23.4439,1.0,-2.0871
335039400,0.0,0.0,2.37418,23.4496,1.0,-2.04953
335051141,0.0,0.0,2.04869,23.4382,1.0,-1.99724
335064421,0.0,0.0,0.0,23.4353,1.0,-1.92972
335077810,0.0,0.0,0.0,23.4439,1.0,-1.85824
335090377,0.0,0.0,0.0,23.4382,1.0,-1.78699
335102203,0.0,0.0,1.42521,23.4211,1.0,-1.71405
335114357,0.0,0.0,0.867978,23.4539,1.0,-1.63644
335126578,0.0,0.0,0.0,23.4296,1.0,-1.564
335138458,0.0,0.0,0.0,23.4525,1.0,-1.51149
335150768,0.0,0.0,0.0,23.4496,1.0,-1.47678
335163236,0.0,0.0,1.76662,23.4296,1.0,-1.44717
335174571,0.0,0.0,2.04872,23.4382,1.0,-1.40868
335186408,0.0,0.0,1.60291,23.4253,1.0,-1.35545
335198639,0.0,0.0,0.0,23.4268,1.0,-1.29506
335210452,0.0,0.0,0.0,23.4211,1.0,-1.23864
335222307,0.0,0.0,0.0,23.4211,1.0,-1.19133
335234209,0.0,0.0,0.0,23.4353,1.0,-1.15872
335246052,0.0,0.0,0.0,23.4496,1.0,-1.1466
335258606,0.0,0.0,0.0,23.4554,1.0,-1.15244
335270193,0.0,0.0,0.0,23.4496,1.0,-1.17239
335281794,0.0,0.0,0.0,23.4353,1.0,-1.20691
335292673,0.0,0.0,0.0,23.4353,1.0,-1.25772
335304524,0.0,0.0,0.0,23.4382,1.0,-1.32119
335316190,0.0,0.0,0.0,23.4339,1.0,-1.38847
335327930,0.0,0.0,0.0,23.4211,1.0,-1.45639
335339663,0.0,0.0,0.0,23.4382,1.0,-1.52578
335351401,0.0,0.0,0.0,23.4382,1.0,-1.6011
335363857,0.0,0.0,0.0,23.4668,1.0,-1.68818
335375660,0.0,0.0,0.0,23.4496,1.0,-1.77855
335388107,0.0,0.0,0.0,23.4353,1.0,-1.86913
335399838,0.0,0.0,0.0,23.4239,1.0,-1.9679
335411982,0.0,0.0,0.0,23.4211,1.0,-2.08169
335424375,0.0,0.0,0.0,23.4411,1.0,-2.21236
335435867,0.0,0.0,0.0,23.4268,1.0,-2.34813
335447857,0.0,0.0,0.0,23.4382,1.0,-2.48039
335459893,0.0,0.0,0.0,23.4382,1.0,-2.61076
335473525,0.0,0.0,0.0,23.4439,1.0,-2.74271
335484837,0.0,0.0,0.0,23.4411,1.0,-2.87452
335496414,0.0,0.0,0.0,23.4353,1.0,-3.00038
335507378,0.0,0.0,0.0,23.4182,1.0,-3.12049
335520015,0.0,0.0,0.0,23.4382,1.0,-3.23676
335531322,0.0,0.0,0.0,23.4439,1.0,-3.34896
335543856,0.0,0.0,0.0,23.4439,1.0,-3.45238
335555963,0.0,0.0,0.0,23.4268,1.0,-3.53711
335568015,0.0,0.0,0.0,23.4182,1.0,-3.60174
335579898,0.0,0.0,0.0,23.4439,1.0,-3.65305
335591844,0.0,0.0,0.0,23.4468,1.0,-3.69895
335603878,0.0,0.0,0.449225,23.4496,1.0,-3.73918
335615655,0.0,0.0,1.95808,23.4353,1.0,-3.75906
335627877,0.0,0.0,0.0,23.4296,1.0,-3.75229
335639962,0.0,0.0,0.0,23.4253,1.0,-3.73308
335651737,0.0,0.0,0.0,23.4296,1.0,-3.71657
335663619,0.0,0.0,0.0,23.4268,1.0,-3.70667
335676175,0.0,0.0,0.0,23.4425,1.0,-3.7042
335688749,0.0,0.0,0.0,23.4696,1.0,-3.71284
335700827,0.0,0.0,0.0,23.4411,1.0,-3.73869
335713053,0.0,0.0,0.0,23.4611,1.0,-3.78084
335724610,0.0,0.0,0.0,23.4496,1.0,-3.83317
335736796,0.0,0.0,0.0,23.4468,1.0,-3.89493
335748768,0.0,0.0,0.0,23.4668,1.0,-3.96455
335759547,0.0,0.0,0.0,23.4725,1.0,-4.03378
335771759,0.0,0.0,0.0,23.4368,1.0,-4.09278
335785278,0.0,0.0,0.0,23.4668,1.0,-4.14154
335797496,0.0,0.0,0.0,23.4596,1.0,-4.18198
335809420,0.0,0.0,0.0,23.4611,1.0,-4.21018
335822215,0.0,0.0,0.0,23.4311,1.0,-4.23063
335833594,0.0,0.0,0.0,23.4268,1.0,-4.24879
335843571,0.0,0.0,0.0,23.4211,1.0,-4.26208
335857477,0.0,0.0,0.0,23.4268,1.0,-4.26907
335870222,0.0,0.0,0.0,23.4268,1.0,-4.26979
335881753,0.0,0.0,0.0,23.4425,1.0,-4.26276
335891551,0.0,0.0,0.0,23.4425,1.0,-4.24854
335903561,0.0,0.0,0.0,23.4554,1.0,-4.23502
335916804,0.0,0.0,0.0,23.4525,1.0,-4.22421
335930290,0.0,0.0,0.0,23.4439,1.0,-4.20611
335941321,0.0,0.0,0.0,23.4439,1.0,-4.17642
335954024,0.0,0.0,0.0,23.4382,1.0,-4.1379
335965723,0.0,0.0,1.95808,23.4353,1.0,-4.08455
335978653,0.0,0.0,2.33712,23.4482,1.0,-4.00523
335989801,0.0,0.0,2.21895,23.4439,1.0,-3.89692
336002367,0.0,0.0,0.449218,23.4496,1.0,-3.76639
336014916,0.0,0.0,0.449218,23.4496,1.0,-3.62441
336026562,0.0,0.0,0.0,23.4439,1.0,-3.48141
336038714,0.0,0.0,0.0,23.4725,1.0,-3.34792
336049777,0.0,0.0,0.0,23.4554,1.0,-3.23026
336061512,0.0,0.0,0.0,23.4968,1.0,-3.12674
336073579,0.0,0.0,0.0,23.4725,1.0,-3.03242
336085432,0.0,0.0,0.0,23.4253,1.0,-2.94939
336097433,0.0,0.0,0.0,23.4754,1.0,-2.8809
336109279,0.0,0.0,0.0,23.4339,1.0,-2.82757
336122614,0.0,0.0,0.0,23.4353,1.0,-2.787
336133603,0.0,0.0,0.0,23.4339,1.0,-2.74787
336145716,0.0,0.0,0.16403,23.4482,1.0,-2.70189
336157606,0.0,0.0,1.7591,23.4725,1.0,-2.64492
336169668,0.0,0.0,0.0,23.4468,1.0,-2.57895
336182055,0.0,0.0,1.28638,23.4611,1.0,-2.51079
336194525,0.0,0.0,1.91289,23.4339,1.0,-2.43491
336206869,0.0,0.0,0.0,23.4353,1.0,-2.35205
336218903,0.0,0.0,0.0,23.4382,1.0,-2.27401
336231424,0.0,0.0,2.66273,23.4611,1.0,-2.19348
336243009,0.0,0.0,2.04873,23.4382,1.0,-2.09586
336255086,0.0,0.0,2.73245,23.4353,1.0,-1.97883
336268192,0.0,0.0,2.37978,23.4211,1.0,-1.84355
336279715,0.0,0.0,2.79573,23.4382,1.0,-1.69118
336291477,0.0,0.0,2.62711,23.4596,1.0,-1.523
336303849,0.0,0.0,2.73242,23.4353,1.0,-1.34083
336315933,0.0,0.0,2.59601,23.4296,1.0,-1.14748
336327610,0.0,0.0,0.0,23.4439,1.0,-0.955751
336340502,0.0,0.0,0.0,23.4754,1.0,-0.786693
336351529,0.0,0.0,1.53882,23.4668,1.0,-0.642075
336364283,0.0,0.0,1.66065,23.4268,1.0,-0.50714
336375805,0.0,0.0,0.0,23.4411,1.0,-0.377629
336387813,0.0,0.0,2.0056,23.4368,1.0,-0.255247
336399552,0.0,0.0,0.0,23.4439,1.0,-0.138661
336411591,0.0,0.0,1.66066,23.4268,1.0,-0.0286207
336422968,0.362495,0.366776,2.79569,23.4382,1.0,0.0804839
336435025,0.564607,0.579918,1.86297,23.4325,1.0,0.195254
336446877,0.714615,0.733559,2.21894,23.4439,1.0,0.312789
336459186,0.836111,0.860195,1.13645,23.4582,1.0,0.428188
336470428,0.939843,0.963479,2.66271,23.4611,1.0,0.541025
336482730,1.03158,1.05669,0.449216,23.4496,1.0,0.651798
336494884,1.10785,1.13649,0.0,23.4711,1.0,0.751746
336506829,1.168,1.19983,1.53881,23.4668,1.0,0.835594
336519532,1.21997,1.25468,2.08791,23.4825,1.0,0.911601
336530452,1.26811,1.302,1.2864,23.4611,1.0,0.98497
336543273,1.31023,1.34766,0.0,23.4468,1.0,1.05148
336554833,1.34588,1.38222,1.90596,23.4768,1.0,1.10948
336567596,1.37505,1.41107,0.0,23.4596,1.0,1.15809
336579085,1.39406,1.43005,0.0,23.4725,1.0,1.19034
336591637,1.40321,1.43936,0.0,23.4468,1.0,1.206
336602941,1.40649,1.44405,0.449223,23.4496,1.0,1.21166
336614855,1.40504,1.44401,0.0,23.4353,1.0,1.20916
336627932,1.39983,1.43931,1.66063,23.4268,1.0,1.2002
336639894,1.39439,1.42994,1.66063,23.4268,1.0,1.1909
336652287,1.39162,1.42999,2.13556,23.4411,1.0,1.18617
336664738,1.39191,1.43005,1.53882,23.4668,1.0,1.18666
336676462,1.39146,1.42996,0.0,23.4268,1.0,1.18589
336688748,1.38601,1.4253,0.449225,23.4496,1.0,1.17663
336701300,1.37571,1.41107,0.0,23.4382,1.0,1.1592
336714040,1.36117,1.3967,0.0,23.4411,1.0,1.13482
336724769,1.34189,1.37728,0.0,23.4325,1.0,1.10292
336734728,1.31721,1.35263,0.0,23.4296,1.0,1.06272
336748719,1.28703,1.32247,0.0,23.4368,1.0,1.01457
336761743,1.25311,1.28639,0.164035,23.4482,1.0,0.961807
336773532,1.2185,1.24928,1.28642,23.4611,1.0,0.909412
336785458,1.18741,1.22202,2.13558,23.4411,1.0,0.863585
336796813,1.16371,1.19417,2.04876,23.4382,1.0,0.829455
336809138,1.14757,1.17708,1.6606,23.4268,1.0,0.806608
336821001,1.13666,1.1656,1.60289,23.4253,1.0,0.791342
336833133,1.1291,1.15982,1.29152,23.4182,1.0,0.780854
336844944,1.12465,1.15404,1.91288,23.4339,1.0,0.774718
336857014,1.1247,1.15404,1.863,23.4325,1.0,0.774786
336870892,1.12549,1.15409,0.0,23.4596,1.0,0.775871
336882620,1.11825,1.14825,0.0,23.4582,1.0,0.765923
336893539,1.09356,1.12456,0.0,23.4539,1.0,0.732479
336904540,1.04467,1.07567,0.0,23.4668,1.0,0.668446
336916964,0.973316,0.997765,0.0,23.4325,1.0,0.580248
336928735,0.883997,0.90588,0.0,23.4239,1.0,0.478639
336941736,0.774929,0.795152,0.0,23.4268,1.0,0.367816
336952766,0.633614,0.645789,0.0,23.4382,1.0,0.245898
336965429,0.431575,0.449232,0.0,23.4496,1.0,0.114082
336977229,0.0,0.0,0.0,23.4439,1.0,-0.0230944
336990380,0.0,0.0,0.0,23.4611,1.0,-0.162655
337001529,0.0,0.0,0.0,23.4539,1.0,-0.304324
337012962,0.0,0.0,1.95811,23.4353,1.0,-0.443002
337024911,0.0,0.0,2.13553,23.4411,1.0,-0.562192
337037111,0.0,0.0,0.0,23.4325,1.0,-0.664775
337048699,0.0,0.0,1.86302,23.4325,1.0,-0.764359
337061113,0.0,0.0,1.66066,23.4268,1.0,-0.850772
337076064,0.0,0.0,1.66062,23.4268,1.0,-0.914656
337088691,0.0,0.0,0.0,23.4439,1.0,-0.961074
337098739,0.0,0.0,1.28638,23.4611,1.0,-0.994969
337110095,0.0,0.0,0.0,23.4611,1.0,-1.02085
337122908,0.0,0.0,0.0,23.4239,1.0,-1.04564
337135028,0.0,0.0,0.0,23.4568,1.0,-1.07339
337146563,0.0,0.0,1.05035,23.4568,1.0,-1.10083
337159267,0.0,0.0,0.449229,23.4496,1.0,-1.12106
337170706,0.0,0.0,0.0,23.4296,1.0,-1.13381
337183329,0.0,0.0,0.963489,23.4554,1.0,-1.1419
337194572,0.0,0.0,0.0,23.4425,1.0,-1.14393
337206053,0.0,0.0,0.0,23.4596,1.0,-1.14304
337218608,0.0,0.0,0.0,23.4596,1.0,-1.14879
337230142,0.0,0.0,1.28643,23.4611,1.0,-1.16145
337242409,0.0,0.0,0.0,23.4611,1.0,-1.1729
337254106,0.0,0.0,0.0,23.4668,1.0,-1.18391
337266444,0.0,0.0,0.449225,23.4496,1.0,-1.19502
337278231,0.0,0.0,0.0,23.4496,1.0,-1.20757
337291309,0.0,0.0,1.13649,23.4582,1.0,-1.22503
337302450,0.0,0.0,0.0,23.4268,1.0,-1.24113
337314822,0.0,0.0,0.0,23.4639,1.0,-1.25478
337327054,0.0,0.0,0.0,23.4725,1.0,-1.26958
337338799,0.0,0.0,1.1365,23.4582,1.0,-1.28138
337351451,0.0,0.0,0.0,23.4268,1.0,-1.28698
337363393,0.0,0.0,1.76663,23.4296,1.0,-1.28583
337375292,0.0,0.0,0.0,23.4411,1.0,-1.27576
337387254,0.0,0.0,1.66068,23.4268,1.0,-1.2566
337398552,0.0,0.0,1.54745,23.4239,1.0,-1.22709
337410540,0.0,0.0,1.76666,23.4296,1.0,-1.18559
337422012,0.0,0.0,1.28643,23.4611,1.0,-1.13385
337434321,0.0,0.0,1.13646,23.4582,1.0,-1.07519
337446206,0.0,0.0,0.0,23.4253,1.0,-1.01985
337460037,0.0,0.0,1.1482,23.4153,1.0,-0.975563
337471093,0.0,0.0,0.0,23.4196,1.0,-0.941994
337482562,0.0,0.0,0.0,23.4268,1.0,-0.92619
337495244,0.0,0.0,0.0,23.4411,1.0,-0.931705
337506142,0.0,0.0,0.0,23.4439,1.0,-0.952538
337518378,0.0,0.0,0.0,23.4411,1.0,-0.988171
337530206,0.0,0.0,0.0,23.4382,1.0,-1.04316
337543190,0.0,0.0,0.0,23.4554,1.0,-1.11723
337554441,0.0,0.0,0.0,23.4268,1.0,-1.20494
337564762,0.0,0.0,0.0,23.4239,1.0,-1.29874
337575810,0.0,0.0,0.0,23.4325,1.0,-1.3887
337588864,0.0,0.0,1.28642,23.4611,1.0,-1.46622
337601227,0.0,0.0,0.963494,23.4554,1.0,-1.52622
337612809,0.0,0.0,0.0,23.4296,1.0,-1.57099
337624644,0.0,0.0,0.0,23.4353,1.0,-1.60691
337636048,0.0,0.0,0.0,23.4411,1.0,-1.63554
337647844,0.0,0.0,0.0,23.4725,1.0,-1.6569
337660128,0.0,0.0,0.0,23.4468,1.0,-1.6759
337671886,0.0,0.0,0.0,23.4339,1.0,-1.69592
337684189,0.0,0.0,0.0,23.4382,1.0,-1.71716
337696748,0.0,0.0,0.751697,23.4525,1.0,-1.73838
337708814,0.0,0.0,0.0,23.4382,1.0,-1.75765
337720730,0.0,0.0,0.0,23.4253,1.0,-1.78198
337732813,0.0,0.0,0.0,23.4211,1.0,-1.81938
337744697,0.0,0.0,0.0,23.4496,1.0,-1.86762
337756377,0.0,0.0,1.2864,23.4611,1.0,-1.91473
337768176,0.0,0.0,1.85951,23.4754,1.0,-1.94554
337780180,0.0,0.0,2.37422,23.4496,1.0,-1.95163
337792045,0.0,0.0,1.66067,23.4268,1.0,-1.93287
337804741,0.0,0.0,1.14818,23.4153,1.0,-1.89582
337816588,0.0,0.0,2.21901,23.4439,1.0,-1.84423
337828477,0.0,0.0,2.13558,23.4411,1.0,-1.77559
337839874,0.0,0.0,1.54746,23.4239,1.0,-1.69145
337853883,0.0,0.0,0.449236,23.4496,1.0,-1.5992
337867837,0.0,0.0,0.96348,23.4554,1.0,-1.50474
337879835,0.0,0.0,0.44922,23.4496,1.0,-1.40993
337892713,0.0,0.0,0.0,23.4353,1.0,-1.31731
337903939,0.0,0.0,0.0,23.4382,1.0,-1.23026
337915675,0.0,0.0,0.0,23.4339,1.0,-1.14996
337927327,0.0,0.0,0.164029,23.4482,1.0,-1.07531
337940640,0.0,0.0,0.0,23.4382,1.0,-1.00473
337951619,0.0,0.0,0.96347,23.4554,1.0,-0.937059
337963627,0.0,0.0,1.9129,23.4339,1.0,-0.867828
337975369,0.0,0.0,0.867996,23.4539,1.0,-0.793876
337987545,0.0,0.0,0.449227,23.4496,1.0,-0.718925
337997703,0.0,0.0,0.0,23.4268,1.0,-0.653124
338009698,0.0,0.0,2.04871,23.4382,1.0,-0.599716
338021499,0.0,0.0,2.04871,23.4382,1.0,-0.544965
338033798,0.0,0.0,2.00557,23.4368,1.0,-0.479799
338045648,0.0,0.0,0.0,23.4668,1.0,-0.411454
338057422,0.0,0.0,0.0,23.4554,1.0,-0.352986
338069410,0.0,0.0,0.0,23.4353,1.0,-0.316334
338081791,0.0,0.0,0.0,23.4482,1.0,-0.306144
338093714,0.0,0.0,0.0,23.4496,1.0,-0.316248
338105282,0.0,0.0,0.0,23.4554,1.0,-0.346677
338117454,0.0,0.0,0.0,23.4554,1.0,-0.408131
338129293,0.0,0.0,0.0,23.4625,1.0,-0.498707
338141770,0.0,0.0,0.0,23.4596,1.0,-0.605327
338153407,0.0,0.0,0.0,23.4525,1.0,-0.722101
338166223,0.0,0.0,0.0,23.4382,1.0,-0.843384
338177582,0.0,0.0,0.0,23.4268,1.0,-0.965632
338189909,0.0,0.0,0.0,23.4325,1.0,-1.09545
338201908,0.0,0.0,0.0,23.4582,1.0,-1.2331
338214271,0.0,0.0,0.0,23.4496,1.0,-1.37222
338225778,0.0,0.0,0.0,23.4453,1.0,-1.50442
338237416,0.0,0.0,0.0,23.4439,1.0,-1.6244
338249324,0.0,0.0,0.0,23.4296,1.0,-1.74199
338262320,0.0,0.0,0.0,23.4282,1.0,-1.86698
338275661,0.0,0.0,0.0,23.4353,1.0,-1.9961
338287536,0.0,0.0,0.0,23.4325,1.0,-2.13152
338299667,0.0,0.0,0.0,23.4782,1.0,-2.28138
338311559,0.0,0.0,0.0,23.4725,1.0,-2.44233
338337762,0.0,0.0,0.0,23.4425,1.0,-2.7554
338349495,0.0,0.0,0.0,23.4382,1.0,-2.88271
338361411,0.0,0.0,0.0,23.4425,1.0,-2.98463
338373519,0.0,0.0,0.0,23.4296,1.0,-3.064
338385203,0.0,0.0,0.0,23.4325,1.0,-3.12453
338397430,0.0,0.0,0.0,23.4554,1.0,-3.17049
338409985,0.0,0.0,0.0,23.4611,1.0,-3.20627
338421834,0.0,0.0,0.0,23.4468,1.0,-3.23496
338433614,0.0,0.0,0.0,23.4425,1.0,-3.25557
338445269,0.0,0.0,0.0,23.4253,1.0,-3.26424
338457843,0.0,0.0,0.0,23.4239,1.0,-3.26183
338472351,0.0,0.0,0.0,23.4211,1.0,-3.25173
338483662,0.0,0.0,0.0,23.4411,1.0,-3.2335
338495877,0.0,0.0,0.751716,23.4525,1.0,-3.20327
338507535,0.0,0.0,0.0,23.4439,1.0,-3.16327
338518824,0.0,0.0,0.0,23.4782,1.0,-3.12324
338531109,0.0,0.0,0.0,23.4539,1.0,-3.08695
338542548,0.0,0.0,0.0,23.4611,1.0,-3.0521
338554789,0.0,0.0,0.0,23.4554,1.0,-3.01744
338568351,0.0,0.0,0.0,23.4439,1.0,-2.9847
338579814,0.0,0.0,1.65261,23.4696,1.0,-2.94988
338591277,0.0,0.0,0.0,23.4439,1.0,-2.90345
338603825,0.0,0.0,0.0,23.4211,1.0,-2.84739
338615611,0.0,0.0,0.0,23.4153,1.0,-2.79059
338627685,0.0,0.0,0.0,23.4439,1.0,-2.74111
338639264,0.0,0.0,0.0,23.4611,1.0,-2.70587
338651338,0.0,0.0,0.0,23.4639,1.0,-2.68138
338663165,0.0,0.0,0.0,23.4353,1.0,-2.66159
338675658,0.0,0.0,0.0,23.4353,1.0,-2.64865
338686568,0.0,0.0,0.0,23.4353,1.0,-2.6405
338699252,0.0,0.0,0.0,23.4353,1.0,-2.63528
338711079,0.0,0.0,0.0,23.4382,1.0,-2.63955
338723199,0.0,0.0,0.0,23.4296,1.0,-2.64976
338735843,0.0,0.0,0.0,23.4554,1.0,-2.65703
338747585,0.0,0.0,0.0,23.4668,1.0,-2.66051
338758854,0.0,0.0,2.04234,23.4811,1.0,-2.65434
338771279,0.0,0.0,0.0,23.4382,1.0,-2.63131
338783141,0.0,0.0,0.0,23.4239,1.0,-2.59747
338794656,0.0,0.0,1.66063,23.4268,1.0,-2.5566
338806594,0.0,0.0,0.0,23.4239,1.0,-2.51078
338818463,0.0,0.0,0.0,23.4296,1.0,-2.47324
338830635,0.0,0.0,0.0,23.4439,1.0,-2.4496
338843006,0.0,0.0,0.0,23.4611,1.0,-2.4335
338854819,0.0,0.0,0.0,23.4596,1.0,-2.41959
338867160,0.0,0.0,0.449223,23.4496,1.0,-2.40306
338879850,0.0,0.0,0.0,23.4239,1.0,-2.3804
338891578,0.0,0.0,0.0,23.4353,1.0,-2.35304
338903020,0.0,0.0,0.0,23.4268,1.0,-2.32699
338916466,0.0,0.0,0.0,23.4439,1.0,-2.30539
338928844,0.0,0.0,0.0,23.4353,1.0,-2.28195
338940962,0.0,0.0,2.44962,23.4525,1.0,-2.24678
338952828,0.0,0.0,0.0,23.4539,1.0,-2.19856
338964965,0.0,0.0,0.963514,23.4554,1.0,-2.14528
338976887,0.0,0.0,0.0,23.4468,1.0,-2.09241
338989026,0.0,0.0,0.0,23.4768,1.0,-2.04303
339001182,0.0,0.0,0.0,23.4496,1.0,-1.99893
339012904,0.0,0.0,0.0,23.4468,1.0,-1.96249
339025782,0.0,0.0,0.0,23.4554,1.0,-1.93552
339037700,0.0,0.0,0.751704,23.4525,1.0,-1.91184
339049586,0.0,0.0,0.0,23.4411,1.0,-1.88357
339064154,0.0,0.0,0.0,23.4239,1.0,-1.8513
339076715,0.0,0.0,0.0,23.4296,1.0,-1.82384
339086792,0.0,0.0,0.0,23.4639,1.0,-1.80652
339097617,0.0,0.0,0.0,23.4596,1.0,-1.79575
339108950,0.0,0.0,0.0,23.4668,1.0,-1.78768
339122235,0.0,0.0,0.0,23.4439,1.0,-1.7791
339133552,0.0,0.0,0.0,23.4353,1.0,-1.76624
339145885,0.0,0.0,0.0,23.4311,1.0,-1.74974
339156823,0.0,0.0,0.0,23.4325,1.0,-1.7316
339168784,0.0,0.0,0.0,23.4611,1.0,-1.71366
339178679,0.0,0.0,0.0,23.4554,1.0,-1.70638
339189316,0.0,0.0,0.963489,23.4554,1.0,-1.71413
339200503,0.0,0.0,0.449225,23.4496,1.0,-1.72085
339210567,0.0,0.0,0.0,23.4325,1.0,-1.72519
339220622,0.0,0.0,0.0,23.4611,1.0,-1.74268
339233304,0.0,0.0,0.0,23.4468,1.0,-1.77362
339244608,0.0,0.0,0.0,23.4211,1.0,-1.80908
339257238,0.0,0.0,0.0,23.4268,1.0,-1.84726
339268720,0.0,0.0,0.0,23.4196,1.0,-1.89404
339280457,0.0,0.0,0.0,23.4311,1.0,-1.95229
339292692,0.0,0.0,0.0,23.4382,1.0,-2.01827
339305388,0.0,0.0,0.0,23.4325,1.0,-2.0846
339316632,0.0,0.0,0.0,23.4353,1.0,-2.14253
339329416,0.0,0.0,0.0,23.4368,1.0,-2.18818
339340592,0.0,0.0,0.0,23.4325,1.0,-2.22241
339353654,0.0,0.0,1.66064,23.4268,1.0,-2.24321
339364444,0.0,0.0,0.0,23.4211,1.0,-2.24969
339375650,0.0,0.0,0.0,23.4296,1.0,-2.25545
339386693,0.0,0.0,0.0,23.4711,1.0,-2.27093
339398300,0.0,0.0,0.0,23.4754,1.0,-2.28701
339410044,0.0,0.0,1.85955,23.4754,1.0,-2.2915
339422457,0.0,0.0,0.0,23.4239,1.0,-2.2817
339435248,0.0,0.0,1.42525,23.4211,1.0,-2.26105
339446757,0.0,0.0,0.0,23.4353,1.0,-2.23073
339458264,0.0,0.0,0.0,23.4353,1.0,-2.19361
339469545,0.0,0.0,0.0,23.4296,1.0,-2.15398
339479528,0.0,0.0,0.0,23.4439,1.0,-2.11202
339490245,0.0,0.0,0.0,23.4339,1.0,-2.06692
339502254,0.0,0.0,0.0,23.4554,1.0,-2.02196
339514336,0.0,0.0,0.0,23.4596,1.0,-1.9822
339526586,0.0,0.0,0.751697,23.4525,1.0,-1.94506
339538259,0.0,0.0,1.60293,23.4253,1.0,-1.90139
339550320,0.0,0.0,1.42525,23.4211,1.0,-1.84581
339562914,0.0,0.0,0.0,23.4439,1.0,-1.78109
339575210,0.0,0.0,2.59366,23.4582,1.0,-1.70726
339587568,0.0,0.0,0.0,23.4353,1.0,-1.6228
339598602,0.0,0.0,0.0,23.4239,1.0,-1.54201
339610366,0.0,0.0,0.0,23.4496,1.0,-1.48253
339622596,0.0,0.0,0.0,23.4554,1.0,-1.44794
339634327,0.0,0.0,0.0,23.4296,1.0,-1.43479
339646370,0.0,0.0,0.0,23.4268,1.0,-1.44293
339658253,0.0,0.0,0.0,23.4353,1.0,-1.46818
339670067,0.0,0.0,0.0,23.4353,1.0,-1.4959
339682464,0.0,0.0,0.0,23.4268,1.0,-1.52285
339694441,0.0,0.0,0.0,23.4325,1.0,-1.55436
339706431,0.0,0.0,0.0,23.4382,1.0,-1.58895
339719175,0.0,0.0,0.0,23.4554,1.0,-1.62698
339730600,0.0,0.0,0.0,23.4668,1.0,-1.66707
339743007,0.0,0.0,0.0,23.4382,1.0,-1.71052
339754756,0.0,0.0,0.0,23.4411,1.0,-1.75955
339767038,0.0,0.0,0.0,23.4382,1.0,-1.80454
339778569,0.0,0.0,0.0,23.4325,1.0,-1.84365
339790818,0.0,0.0,0.0,23.4296,1.0,-1.88323
339803231,0.0,0.0,0.0,23.4353,1.0,-1.91932
339814714,0.0,0.0,0.0,23.4268,1.0,-1.95208
339826893,0.0,0.0,0.0,23.4411,1.0,-1.9899
339839701,0.0,0.0,0.0,23.4496,1.0,-2.03634
339851732,0.0,0.0,0.0,23.4411,1.0,-2.09085
339863887,0.0,0.0,0.0,23.4368,1.0,-2.15075
339875827,0.0,0.0,0.0,23.4268,1.0,-2.21502
339887902,0.0,0.0,0.0,23.4268,1.0,-2.28102
339899719,0.0,0.0,0.0,23.4239,1.0,-2.34098
339911660,0.0,0.0,0.0,23.4425,1.0,-2.38964
339924567,0.0,0.0,0.0,23.4439,1.0,-2.42437
339936767,0.0,0.0,1.28641,23.4611,1.0,-2.44257
339947947,0.0,0.0,1.28641,23.4611,1.0,-2.44227
339959698,0.0,0.0,0.0,23.4496,1.0,-2.42906
339969536,0.0,0.0,0.0,23.4382,1.0,-2.41194
339980814,0.0,0.0,0.0,23.4268,1.0,-2.39593
339992744,0.0,0.0,0.0,23.4182,1.0,-2.38524
340004343,0.0,0.0,0.0,23.4296,1.0,-2.37683
340015791,0.0,0.0,0.0,23.4311,1.0,-2.36895
340028871,0.0,0.0,0.0,23.4411,1.0,-2.36772
340040771,0.0,0.0,0.0,23.4439,1.0,-2.37432
340052962,0.0,0.0,0.0,23.4525,1.0,-2.38551
340064764,0.0,0.0,0.164037,23.4482,1.0,-2.39498
340074597,0.0,0.0,1.28644,23.4611,1.0,-2.39304
340084656,0.0,0.0,0.751716,23.4525,1.0,-2.37535
340094769,0.0,0.0,0.449234,23.4496,1.0,-2.34428
340106599,0.0,0.0,1.75917,23.4725,1.0,-2.30053
340117529,0.0,0.0,2.52266,23.4554,1.0,-2.2388
340128857,0.0,0.0,2.52266,23.4554,1.0,-2.15386
340141899,0.0,0.0,0.0,23.4311,1.0,-2.05262
340155261,0.0,0.0,0.0,23.4353,1.0,-1.95017
340166745,0.0,0.0,0.0,23.4268,1.0,-1.85808
340177560,0.0,0.0,0.0,23.4525,1.0,-1.78591
340190568,0.0,0.0,0.0,23.4268,1.0,-1.73741
340201525,0.0,0.0,0.0,23.4411,1.0,-1.70874
340214531,0.0,0.0,0.0,23.4411,1.0,-1.69495
340224539,0.0,0.0,0.0,23.4153,1.0,-1.69572
340238729,0.0,0.0,0.0,23.4182,1.0,-1.71438
340250818,0.0,0.0,0.0,23.4211,1.0,-1.75072
340266661,0.0,0.0,0.449223,23.4496,1.0,-1.79482
340278051,0.0,0.0,0.0,23.4696,1.0,-1.84059
340291209,0.0,0.0,2.04232,23.4811,1.0,-1.8868
340302187,0.0,0.0,1.41587,23.4639,1.0,-1.91926
340314005,0.0,0.0,0.0,23.4639,1.0,-1.93434
340326902,0.0,0.0,1.53885,23.4668,1.0,-1.9394
340338543,0.0,0.0,0.0,23.4582,1.0,-1.9357
340350575,0.0,0.0,0.963489,23.4554,1.0,-1.92585
340362085,0.0,0.0,0.0,23.4554,1.0,-1.92328
340374919,0.0,0.0,0.0,23.4782,1.0,-1.948
340386556,0.0,0.0,0.0,23.4268,1.0,-1.99768
340398054,0.0,0.0,0.0,23.4268,1.0,-2.05899
340410525,0.0,0.0,0.0,23.4368,1.0,-2.12317
340422254,0.0,0.0,0.0,23.4268,1.0,-2.18433
340432529,0.0,0.0,0.0,23.4382,1.0,-2.24657
340446213,0.0,0.0,0.0,23.4468,1.0,-2.31868
340459249,0.0,0.0,0.0,23.4268,1.0,-2.40125
340470508,0.0,0.0,0.0,23.4382,1.0,-2.47916
340483184,0.0,0.0,0.0,23.4668,1.0,-2.54509
340494271,0.0,0.0,0.0,23.4754,1.0,-2.60646
340506340,0.0,0.0,0.0,23.4368,1.0,-2.66694
340518234,0.0,0.0,0.0,23.4725,1.0,-2.72672
340531068,0.0,0.0,0.0,23.4525,1.0,-2.78427
340543200,0.0,0.0,0.0,23.4554,1.0,-2.83965
340554757,0.0,0.0,0.0,23.4711,1.0,-2.89263
340567298,0.0,0.0,1.21096,23.4596,1.0,-2.93382
340578873,0.0,0.0,0.0,23.4382,1.0,-2.95566
340592041,0.0,0.0,0.0,23.4554,1.0,-2.96367
340604195,0.0,0.0,0.0,23.4611,1.0,-2.96587
340615879,0.0,0.0,0.0,23.4668,1.0,-2.96655
340627986,0.0,0.0,0.0,23.4554,1.0,-2.97097
340640166,0.0,0.0,0.0,23.4611,1.0,-2.97985
340651957,0.0,0.0,0.0,23.4668,1.0,-2.9893
340664058,0.0,0.0,0.0,23.4611,1.0,-2.99807
340676674,0.0,0.0,0.0,23.4654,1.0,-3.00633
340688170,0.0,0.0,0.164027,23.4482,1.0,-3.01124
340699894,0.0,0.0,0.0,23.4439,1.0,-3.00941
340712456,0.0,0.0,0.0,23.4496,1.0,-3.00493
340724583,0.0,0.0,0.0,23.4339,1.0,-3.00603
340736800,0.0,0.0,0.0,23.4325,1.0,-3.0134
340748878,0.0,0.0,1.66053,23.4268,1.0,-3.01317
340760825,0.0,0.0,2.13555,23.4411,1.0,-2.99035
340772592,0.0,0.0,2.69776,23.4339,1.0,-2.93871
340784920,0.0,0.0,2.13555,23.4411,1.0,-2.85788
340795851,0.0,0.0,1.42515,23.4211,1.0,-2.75538
340807899,0.0,0.0,0.4492,23.4496,1.0,-2.64146
340820130,0.0,0.0,0.0,23.4439,1.0,-2.5233
340832911,0.0,0.0,2.37411,23.4496,1.0,-2.3997
340844608,0.0,0.0,1.53874,23.4668,1.0,-2.26537
340856120,0.0,0.0,0.0,23.4496,1.0,-2.13121
340868233,0.0,0.0,2.04864,23.4382,1.0,-2.00784
340880184,0.0,0.0,0.0,23.4496,1.0,-1.89341
340892257,0.0,0.0,0.0,23.4554,1.0,-1.79728
340904497,0.0,0.0,2.37415,23.4496,1.0,-1.71643
340916835,0.0,0.0,0.0,23.4554,1.0,-1.63556
340928120,0.0,0.0,0.96345,23.4554,1.0,-1.55597
340939815,0.0,0.0,0.0,23.4439,1.0,-1.48276
340951946,0.0,0.0,1.29148,23.4182,1.0,-1.41625
340964204,0.0,0.0,1.86294,23.4325,1.0,-1.34814
340975916,0.0,0.0,1.42515,23.4211,1.0,-1.27129
340987965,0.0,0.0,0.0,23.4211,1.0,-1.19212
340999894,0.0,0.0,1.42517,23.4211,1.0,-1.11666
341011985,0.0,0.0,2.04865,23.4382,1.0,-1.03899
341024154,0.0,0.0,2.66264,23.4611,1.0,-0.949859
341036874,0.0,0.0,0.0,23.4468,1.0,-0.850353
341049882,0.0,0.0,2.37418,23.4496,1.0,-0.746599
341061591,0.0,0.0,1.95803,23.4353,1.0,-0.637589
341074215,0.0,0.0,0.0,23.4353,1.0,-0.526985
341085555,0.0,0.0,1.42515,23.4211,1.0,-0.422629
341098291,0.0,0.0,1.42517,23.4211,1.0,-0.323018
341109712,0.0,0.0,1.86294,23.4325,1.0,-0.224237
341122242,0.0,0.0,0.0,23.4268,1.0,-0.129295
341133409,0.0,0.0,0.0,23.4554,1.0,-0.0482633
341145508,0.128826,0.115979,0.0,23.4353,1.0,0.0101652
341157255,0.27231,0.284082,0.0,23.4211,1.0,0.0454185
341169517,0.331915,0.347928,1.36241,23.4196,1.0,0.0674776
341181289,0.374251,0.384667,0.0,23.4339,1.0,0.0857893
341194503,0.403018,0.418181,0.0,23.4382,1.0,0.0994845
341205558,0.41456,0.418152,0.0,23.4211,1.0,0.105264
341218395,0.413297,0.418148,1.14808,23.4153,1.0,0.104624
341229529,0.405913,0.418157,0.0,23.4282,1.0,0.100919
341242339,0.385856,0.401774,0.0,23.4611,1.0,0.091192
341254287,0.346132,0.347935,0.0,23.4411,1.0,0.0733822
341267439,0.301031,0.306846,1.91274,23.4339,1.0,0.0555045
341278347,0.273367,0.284082,1.42514,23.4211,1.0,0.0457718
341289878,0.26098,0.259337,0.0,23.4368,1.0,0.0417178
341302759,0.257176,0.259338,2.04861,23.4382,1.0,0.0405105
341314236,0.242112,0.259335,0.0,23.4311,1.0,0.0359037
341326374,0.137183,0.115978,0.0,23.4325,1.0,0.0115267
341337562,0.0,0.0,3.54067,23.4325,1.0,-0.02098
341349984,0.0,0.0,2.21884,23.4439,1.0,-0.0323864
341361832,0.0,0.0,1.28634,23.4611,1.0,-0.0236477
341374385,0.0,-0.0,2.92265,23.4439,1.0,-0.0025375
341385799,0.232053,0.231967,1.53869,23.4668,1.0,0.0329822
341398578,0.351605,0.366764,0.867921,23.4539,1.0,0.0757211
341409585,0.449709,0.463916,3.01323,23.4482,1.0,0.123871
341421830,0.525244,0.543981,0.0,23.4382,1.0,0.168977
341433594,0.562922,0.579883,1.95791,23.4353,1.0,0.19409
341443616,0.590532,0.602616,2.33968,23.4196,1.0,0.213596
341457697,0.614599,0.635262,0.0,23.4596,1.0,0.231361
341469258,0.615614,0.635227,1.66052,23.4268,1.0,0.232126
341482122,0.598007,0.613685,0.0,23.4239,1.0,0.219037
341495431,0.565279,0.579867,0.977208,23.4125,1.0,0.195719
341506817,0.526186,0.543996,1.14815,23.4153,1.0,0.169584
341519809,0.501598,0.5187,2.79569,23.4382,1.0,0.154106
341531559,0.503646,0.518695,1.86297,23.4325,1.0,0.155366
341543293,0.532012,0.544017,2.79569,23.4382,1.0,0.17336
341555094,0.584335,0.602669,2.6651,23.4325,1.0,0.209137
341566454,0.656287,0.676303,2.85757,23.4696,1.0,0.263812
341579126,0.730581,0.751658,0.0,23.4611,1.0,0.326921
341592140,0.792317,0.811866,1.66059,23.4268,1.0,0.384507
341603549,0.844532,0.867908,1.29149,23.4182,1.0,0.436856
341615053,0.898743,0.92057,3.27633,23.4182,1.0,0.49474
341626815,0.958953,0.984126,1.14815,23.4153,1.0,0.56325
341639113,1.02431,1.05029,3.64015,23.4382,1.0,0.642638
341650855,1.09611,1.12452,2.13552,23.4411,1.0,0.735896
341663833,1.1671,1.19964,1.14808,23.4153,1.0,0.834305
341676205,1.22526,1.25977,0.0,23.4039,1.0,0.919528
341687557,1.26991,1.30183,2.33686,23.4482,1.0,0.987758
341698859,1.31607,1.35254,4.06259,23.4639,1.0,1.06088
341710850,1.3802,1.41567,4.48726,23.4496,1.0,1.16678
341723090,1.46576,1.50325,4.48883,23.4211,1.0,1.31593
341734437,1.56894,1.61127,4.72404,23.4382,1.0,1.50771
341744806,1.69022,1.73589,5.88441,23.4496,1.0,1.74982
341756835,1.82682,1.87732,4.28189,23.4353,1.0,2.04409
341767807,1.97238,2.02549,6.12609,23.4439,1.0,2.3828
341779528,2.12393,2.18205,4.44804,23.4182,1.0,2.76304
341790907,2.28151,2.34268,6.95687,23.4439,1.0,3.18823
341802733,2.4497,2.51446,6.30058,23.4611,1.0,3.67563
341815684,2.62633,2.69769,6.27166,23.4582,1.0,4.2248
341827362,2.80627,2.88103,6.70415,23.4596,1.0,4.82355
341839118,2.99035,3.07093,7.16123,23.4668,1.0,5.4771
341852924,3.1803,3.26608,7.53257,23.4382,1.0,6.195
341864740,3.37728,3.46776,8.01013,23.4253,1.0,6.98617
341876638,3.58246,3.67859,8.47129,23.4425,1.0,7.86082
341887315,3.79851,3.90034,9.47111,23.4268,1.0,8.83756
341899128,4.02484,4.13312,8.5667,23.4554,1.0,9.92208
341946592,4.92979,5.06203,8.73464,23.4353,1.0,14.8855
341956782,5.14162,5.28034,8.79726,23.4153,1.0,16.1922
341968490,5.34823,5.49272,8.69365,23.4296,1.0,17.5197
341980784,5.54949,5.69768,9.15908,23.4239,1.0,18.8631
341993451,5.74587,5.89952,8.90835,23.4311,1.0,20.2217
342004694,5.93508,6.0952,8.11018,23.4668,1.0,21.5754
342017440,6.11375,6.27768,8.22117,23.4525,1.0,22.894
342028606,6.28138,6.44983,8.26509,23.4582,1.0,24.1667
342040771,6.44002,6.6136,8.93832,23.4639,1.0,25.4028
342052606,6.59342,6.77013,9.57511,23.4425,1.0,26.6273
342064886,6.74284,6.92443,8.54504,23.4525,1.0,27.8478
342076717,6.88708,7.07315,9.52768,23.4782,1.0,29.052
342088473,7.02578,7.21496,8.52425,23.4496,1.0,30.234
342100728,7.1587,7.35138,9.49012,23.4296,1.0,31.3888
342112499,7.28806,7.48371,9.97379,23.4325,1.0,32.5334
342124786,7.41584,7.61558,9.52831,23.4353,1.0,33.6843
342136583,7.54128,7.74449,9.86355,23.4582,1.0,34.8334
342148709,7.66305,7.86891,9.13961,23.4211,1.0,35.9674
342158614,7.77986,7.98888,9.6225,23.4496,1.0,37.0723
342169707,7.89221,8.10414,9.77152,23.4439,1.0,38.1508
342180859,7.99982,8.21474,8.87811,23.4554,1.0,39.1982
342192588,8.10154,8.31956,9.77157,23.4439,1.0,40.2014
342205009,8.19884,8.41969,9.80854,23.4782,1.0,41.1729
342217453,8.29206,8.51511,9.10072,23.4153,1.0,42.1144
342228694,8.38015,8.60595,9.809,23.4496,1.0,43.014
342241734,8.46344,8.69195,9.25707,23.4811,1.0,43.8733
342252587,8.54218,8.77228,9.77181,23.4439,1.0,44.6934
342265772,8.61744,8.84989,9.99155,23.4782,1.0,45.4844
342276645,8.68969,8.92376,9.39375,23.4582,1.0,46.2503
342289298,8.75909,8.99749,10.5028,23.6326,1.0,46.992
342300694,8.82494,9.06275,8.31987,23.4654,1.0,47.7012
342313446,8.88409,9.12321,9.21928,23.4325,1.0,48.3428
342324874,8.93735,9.17875,9.99146,23.5068,1.0,48.9242
342336587,8.98738,9.22966,9.29718,23.4439,1.0,49.4735
342348721,9.03352,9.27785,9.37379,23.4982,1.0,49.9828
342360439,9.07492,9.31936,9.15996,23.4239,1.0,50.442
342372756,9.11209,9.35758,9.66029,23.4268,1.0,50.856
342384977,9.14675,9.39463,9.97269,23.5468,1.0,51.2436
342398412,9.18054,9.42826,10.0109,23.4382,1.0,51.6229
342410111,9.21379,9.4634,9.93708,23.4982,1.0,51.9975
342422330,9.2455,9.49457,9.39488,23.4153,1.0,52.3561
342434242,9.27383,9.52373,9.17044,23.4253,1.0,52.6774
342446472,9.29785,9.5493,9.29803,23.4439,1.0,52.9506
342458235,9.31802,9.56989,9.3753,23.4554,1.0,53.1807
342470792,9.33481,9.58777,9.21932,23.4754,1.0,53.3725
342482712,9.34776,9.60077,8.87928,23.4554,1.0,53.5207
342492529,9.35641,9.60917,9.08079,23.4554,1.0,53.6198
342507846,9.36158,9.61463,9.35577,23.4525,1.0,53.679
342519889,9.36395,9.61587,8.87912,23.4268,1.0,53.7061
342530804,9.36377,9.61603,9.53808,23.4368,1.0,53.7041
342542488,9.36166,9.61425,8.98049,23.4411,1.0,53.68
342554097,9.35743,9.61037,9.12052,23.4611,1.0,53.6314
342566675,9.35122,9.60389,9.33682,23.4496,1.0,53.5602
342577535,9.34449,9.59716,9.73495,23.4668,1.0,53.4832
342590528,9.33861,9.59032,9.70743,23.4339,1.0,53.4159
342602006,9.33429,9.58623,9.93832,23.4268,1.0,53.3665
342615244,9.33196,9.58408,9.92066,23.4239,1.0,53.3398
342627023,9.33165,9.5836,9.89305,23.4196,1.0,53.3363
342638762,9.3329,9.5854,9.77305,23.4439,1.0,53.3506
342650041,9.33515,9.58736,9.7543,23.4411,1.0,53.3764
342662497,9.33799,9.59044,9.67981,23.4582,1.0,53.4088
342674418,9.34136,9.59395,9.86499,23.4582,1.0,53.4474
342686828,9.34595,9.59955,10.1368,23.5011,1.0,53.4999
342698799,9.35196,9.60514,9.6617,23.4268,1.0,53.5688
342710883,9.35905,9.61214,10.2088,23.4268,1.0,53.65
342722759,9.36752,9.6222,9.93799,23.4982,1.0,53.7472
342733712,9.37725,9.63092,9.9754,23.4325,1.0,53.8588
342745777,9.38821,9.64478,10.2956,23.5983,1.0,53.9848
342757687,9.40038,9.65517,9.73705,23.4382,1.0,54.1249
342770118,9.41215,9.66822,9.47132,23.5125,1.0,54.2605
342782433,9.42155,9.67703,9.08162,23.4554,1.0,54.3689
342798066,9.42858,9.68425,9.95758,23.4296,1.0,54.4501
342810357,9.43549,9.69086,10.1559,23.4182,1.0,54.53
342822857,9.44369,9.70059,9.97488,23.5039,1.0,54.6247
342833995,9.4534,9.70988,10.4469,23.4368,1.0,54.7372
342846749,9.46523,9.72373,10.2619,23.5211,1.0,54.8742
342856598,9.47894,9.73489,10.2085,23.4268,1.0,55.0333
342868970,9.49439,9.75251,10.5907,23.5325,1.0,55.2128
342880211,9.51169,9.76923,10.1462,23.4596,1.0,55.4143
342895244,9.52911,9.78686,9.58615,23.4439,1.0,55.6174
342907422,9.54579,9.8066,10.5913,23.5754,1.0,55.8123
342919412,9.56287,9.82213,10.0027,23.4368,1.0,56.0122
342932365,9.57992,9.83954,9.96726,23.4311,1.0,56.2121
342943939,9.59707,9.85835,10.7873,23.4939,1.0,56.4135
342955651,9.61582,9.87623,10.3505,23.4211,1.0,56.6341
342967412,9.63682,9.89934,11.0774,23.5011,1.0,56.8819
342979423,9.66059,9.92261,10.6695,23.4311,1.0,57.1628
342992330,9.68647,9.94957,10.6094,23.4639,1.0,57.4694
343003905,9.7138,9.97818,10.9456,23.4782,1.0,57.7942
