timestamp,roll_body,pitch_body,yaw_body,yaw_sp_move_rate,q_d[0],q_d[1],q_d[2],q_d[3],thrust,landing_gear,q_d_valid,roll_reset_integral,pitch_reset_integral,yaw_reset_integral,fw_control_yaw,disable_mc_yaw_control,apply_flaps
265652038,0.0,0.0,0.0,0.0,1.0,0.0,0.0,0.0,0.0,0.0,1,0,0,0,0,0,0
265652038,-3.44245e-09,-0.0961712,0.0,0.0,0.998844,-1.71923e-09,-0.0480671,-8.27342e-11,0.631847,0.0,1,0,0,0,0,0,0
265652038,-4.17615e-11,-0.0961712,0.0,0.0,0.998844,-2.08566e-11,-0.0480671,-1.00368e-12,0.632055,0.0,1,0,0,0,0,0,0
265652038,6.58653e-10,-0.0961712,0.0,0.0,0.998844,3.28946e-10,-0.0480671,1.58298e-11,0.632109,0.0,1,0,0,0,0,0,0
265652038,2.51568e-10,-0.0961712,0.0,0.0,0.998844,1.25639e-10,-0.0480671,6.04607e-12,0.631879,0.0,1,0,0,0,0,0,0
265652038,-3.60135e-11,-0.0958401,0.0,0.0,0.998852,-1.79861e-11,-0.0479017,-8.62554e-13,0.631784,0.0,1,0,0,0,0,0,0
265652038,-6.25689e-11,-0.0950556,0.0,0.0,0.998871,-3.12491e-11,-0.0475099,-1.48632e-12,0.631585,0.0,1,0,0,0,0,0,0
265652038,-1.60689e-11,-0.0944994,0.0,0.0,0.998884,-8.02549e-12,-0.0472321,-3.79484e-13,0.631321,0.0,1,0,0,0,0,0,0
265652038,6.31407e-12,-0.0944475,0.0,0.0,0.998885,3.15352e-12,-0.0472062,1.49032e-13,0.631472,0.0,1,0,0,0,0,0,0
265652038,5.47977e-12,-0.0945372,0.0,0.0,0.998883,2.73682e-12,-0.047251,1.29462e-13,0.631996,0.0,1,0,0,0,0,0,0
265652038,7.88529e-13,-0.0945805,0.0,0.0,0.998882,3.93823e-13,-0.0472726,1.86379e-14,0.632369,0.0,1,0,0,0,0,0,0
265652038,-7.81642e-13,-0.094579,0.0,0.0,0.998882,-3.90384e-13,-0.0472719,-1.84748e-14,0.632196,0.0,1,0,0,0,0,0,0
265652038,-4.43244e-13,-0.0942388,0.0,0.0,0.99889,-2.21376e-13,-0.047102,-1.04388e-14,0.63185,0.0,1,0,0,0,0,0,0
265652038,-1.07331e-14,-0.0941134,0.0,0.0,0.998893,-5.36059e-15,-0.0470393,-2.52438e-16,0.631756,0.0,1,0,0,0,0,0,0
265652038,-1.07331e-14,-0.0941134,0.0,0.0,0.998893,-5.36059e-15,-0.0470393,-2.52438e-16,0.631756,0.0,1,0,0,0,0,0,0
265652038,8.2828e-14,-0.0947959,0.0,0.0,0.998877,4.13675e-14,-0.0473802,1.9622e-15,0.63158,0.0,1,0,0,0,0,0,0
265652038,3.27089e-14,-0.0950726,0.0,0.0,0.99887,1.6336e-14,-0.0475184,7.77138e-16,0.631325,0.0,1,0,0,0,0,0,0
265652038,-4.13219e-15,-0.0947101,0.0,0.0,0.998879,-2.06378e-15,-0.0473374,-9.78036e-17,0.631265,0.0,1,0,0,0,0,0,0
265652038,-7.93188e-15,-0.094522,0.0,0.0,0.998883,-3.96151e-15,-0.0472434,-1.87364e-16,0.631293,0.0,1,0,0,0,0,0,0
265652038,-2.1219e-15,-0.0948546,0.0,0.0,0.998876,-1.05976e-15,-0.0474095,-5.0299e-17,0.631315,0.0,1,0,0,0,0,0,0
265652038,7.69088e-16,-0.0956765,0.0,0.0,0.998856,3.84104e-16,-0.04782,1.83889e-17,0.631318,0.0,1,0,0,0,0,0,0
265652038,6.997e-16,-0.0959151,0.0,0.0,0.99885,3.49448e-16,-0.0479392,1.67715e-17,0.631523,0.0,1,0,0,0,0,0,0
265652038,1.07959e-16,-0.0951801,0.0,0.0,0.998868,5.39182e-17,-0.0475721,2.56791e-18,0.631807,0.0,1,0,0,0,0,0,0
265652038,-9.71185e-17,-0.0945307,0.0,0.0,0.998883,-4.8505e-17,-0.0472478,-2.29432e-18,0.631663,0.0,1,0,0,0,0,0,0
265652038,-5.70279e-17,-0.0947658,0.0,0.0,0.998878,-2.8482e-17,-0.0473652,-1.35057e-18,0.631554,0.0,1,0,0,0,0,0,0
265652038,-2.05604e-18,-0.0953109,0.0,0.0,0.998865,-1.02685e-18,-0.0476374,-4.89723e-20,0.63196,0.0,1,0,0,0,0,0,0
265652038,1.04072e-17,-0.0951352,0.0,0.0,0.998869,5.19771e-18,-0.0475497,2.47429e-19,0.632131,0.0,1,0,0,0,0,0,0
265652038,4.24835e-18,-0.0943013,0.0,0.0,0.998889,2.12181e-18,-0.0471332,1.00119e-19,0.631906,0.0,1,0,0,0,0,0,0
265652038,-4.68012e-19,-0.0936965,0.0,0.0,0.998903,-2.33749e-19,-0.0468311,-1.09588e-20,0.631789,0.0,1,0,0,0,0,0,0
265652038,-1.00484e-18,-0.0939674,0.0,0.0,0.998896,-5.01864e-19,-0.0469664,-2.35968e-20,0.631582,0.0,1,0,0,0,0,0,0
265652038,-2.7967e-19,-0.094517,0.0,0.0,0.998884,-1.39679e-19,-0.0472409,-6.60594e-21,0.631528,0.0,1,0,0,0,0,0,0
265652038,9.3417e-20,-0.0946671,0.0,0.0,0.99888,4.66562e-20,-0.0473159,2.21005e-21,0.631966,0.0,1,0,0,0,0,0,0
265652038,8.9284e-20,-0.0946149,0.0,0.0,0.998881,4.45921e-20,-0.0472898,2.11111e-21,0.632138,0.0,1,0,0,0,0,0,0
265652038,1.47004e-20,-0.0942351,0.0,0.0,0.99889,7.34202e-21,-0.0471001,3.46194e-22,0.631699,0.0,1,0,0,0,0,0,0
265652038,-1.2051e-20,-0.0937739,0.0,0.0,0.998901,-6.01889e-21,-0.0468698,-2.82415e-22,0.631294,0.0,1,0,0,0,0,0,0
265652038,-7.33174e-21,-0.0940089,0.0,0.0,0.998895,-3.66182e-21,-0.0469872,-1.72249e-22,0.631231,0.0,1,0,0,0,0,0,0
265652038,-3.49498e-22,-0.0941861,0.0,0.0,0.998891,-1.74555e-22,-0.0470756,-8.22643e-24,0.631286,0.0,1,0,0,0,0,0,0
265652038,1.30652e-21,-0.0938744,0.0,0.0,0.998899,6.52541e-22,-0.04692,3.0651e-23,0.631319,0.0,1,0,0,0,0,0,0
265652038,5.51233e-22,-0.0940557,0.0,0.0,0.998894,2.75312e-22,-0.0470105,1.29569e-23,0.631529,0.0,1,0,0,0,0,0,0
265652038,-5.2142e-23,-0.0945148,0.0,0.0,0.998884,-2.60419e-23,-0.0472398,-1.23159e-24,0.631809,0.0,1,0,0,0,0,0,0
265652038,-1.27208e-22,-0.0949801,0.0,0.0,0.998873,-6.35322e-23,-0.0474722,-3.01942e-24,0.631663,0.0,1,0,0,0,0,0,0
265652038,-3.67966e-23,-0.0953932,0.0,0.0,0.998863,-1.83774e-23,-0.0476785,-8.77203e-25,0.631345,0.0,1,0,0,0,0,0,0
265652038,1.1312e-23,-0.0951237,0.0,0.0,0.998869,5.64959e-24,-0.0475439,2.68908e-25,0.631257,0.0,1,0,0,0,0,0,0
265652038,1.13854e-23,-0.094612,0.0,0.0,0.998881,5.68635e-24,-0.0472884,2.69199e-25,0.631286,0.0,1,0,0,0,0,0,0
265652038,1.99216e-24,-0.0941447,0.0,0.0,0.998892,9.94978e-25,-0.0470549,4.68706e-26,0.631314,0.0,1,0,0,0,0,0,0
265652038,-1.49329e-24,-0.093741,0.0,0.0,0.998902,-7.45823e-25,-0.0468534,-3.49827e-26,0.631319,0.0,1,0,0,0,0,0,0
265652038,-9.41907e-25,-0.0940145,0.0,0.0,0.998895,-4.70433e-25,-0.0469899,-2.21301e-26,0.631524,0.0,1,0,0,0,0,0,0
265652038,-5.56513e-26,-0.0945257,0.0,0.0,0.998883,-2.77946e-26,-0.0472453,-1.31463e-27,0.632016,0.0,1,0,0,0,0,0,0
265652038,1.63876e-25,-0.094661,0.0,0.0,0.99888,8.1846e-26,-0.0473129,3.87671e-27,0.632158,0.0,1,0,0,0,0,0,0
265652038,7.14539e-26,-0.094611,0.0,0.0,0.998881,3.5687e-26,-0.0472878,1.68945e-27,0.631696,0.0,1,0,0,0,0,0,0
265652038,-5.68525e-27,-0.0948971,0.0,0.0,0.998875,-2.83943e-27,-0.0474307,-1.34828e-28,0.631289,0.0,1,0,0,0,0,0,0
265652038,-1.60926e-26,-0.0953437,0.0,0.0,0.998864,-8.03718e-27,-0.0476538,-3.83438e-28,0.631229,0.0,1,0,0,0,0,0,0
265652038,-4.83341e-27,-0.0951216,0.0,0.0,0.998869,-2.41397e-27,-0.0475429,-1.14897e-28,0.631287,0.0,1,0,0,0,0,0,0
265652038,1.36512e-27,-0.094621,0.0,0.0,0.998881,6.81794e-28,-0.0472928,3.22801e-29,0.63132,0.0,1,0,0,0,0,0,0
265652038,1.45091e-27,-0.0944795,0.0,0.0,0.998884,7.24643e-28,-0.0472222,3.42574e-29,0.631321,0.0,1,0,0,0,0,0,0
265652038,2.68838e-28,-0.0945252,0.0,0.0,0.998883,1.34269e-28,-0.047245,6.35062e-30,0.631315,0.0,1,0,0,0,0,0,0
265652038,-1.84767e-28,-0.0945698,0.0,0.0,0.998882,-9.22803e-29,-0.0472673,-4.36672e-30,0.631521,0.0,1,0,0,0,0,0,0
265652038,-1.84767e-28,-0.0945698,0.0,0.0,0.998882,-9.22803e-29,-0.0472673,-4.36672e-30,0.631521,0.0,1,0,0,0,0,0,0
265652038,-1.20919e-28,-0.0945774,0.0,0.0,0.998882,-6.0392e-29,-0.0472711,-2.85799e-30,0.632016,0.0,1,0,0,0,0,0,0
265652038,-8.50261e-30,-0.0945714,0.0,0.0,0.998882,-4.24655e-30,-0.0472681,-2.00951e-31,0.632158,0.0,1,0,0,0,0,0,0
265652038,2.05359e-29,-0.0948988,0.0,0.0,0.998874,1.02564e-29,-0.0474316,4.87026e-31,0.631696,0.0,1,0,0,0,0,0,0
265652038,9.25353e-30,-0.0956832,0.0,0.0,0.998856,4.62147e-30,-0.0478234,2.21267e-31,0.631289,0.0,1,0,0,0,0,0,0
265652038,-6.01826e-31,-0.0959089,0.0,0.0,0.99885,-3.00567e-31,-0.0479361,-1.44246e-32,0.631438,0.0,1,0,0,0,0,0,0
265652038,-2.03438e-30,-0.0951765,0.0,0.0,0.998868,-1.01604e-30,-0.0475703,-4.8388e-32,0.631781,0.0,1,0,0,0,0,0,0
265652038,-6.33911e-31,-0.0945306,0.0,0.0,0.998883,-3.16602e-31,-0.0472477,-1.49754e-32,0.63167,0.0,1,0,0,0,0,0,0
265652038,1.64116e-31,-0.0944353,0.0,0.0,0.998885,8.19664e-32,-0.0472001,3.87314e-33,0.631562,0.0,1,0,0,0,0,0,0
265652038,1.84775e-31,-0.0945266,0.0,0.0,0.998883,9.22843e-32,-0.0472457,4.36491e-33,0.631961,0.0,1,0,0,0,0,0,0
265652038,3.6143e-32,-0.094579,0.0,0.0,0.998882,1.80513e-32,-0.0472719,8.54272e-34,0.63213,0.0,1,0,0,0,0,0,0
265652038,-2.2826e-32,-0.0945805,0.0,0.0,0.998882,-1.14003e-32,-0.0472726,-5.39523e-34,0.631697,0.0,1,0,0,0,0,0,0
265652038,-1.55122e-32,-0.0945708,0.0,0.0,0.998882,-7.74743e-33,-0.0472678,-3.66613e-34,0.631295,0.0,1,0,0,0,0,0,0
265652038,-1.26248e-33,-0.0945669,0.0,0.0,0.998882,-6.30537e-34,-0.0472658,-2.98362e-35,0.631231,0.0,1,0,0,0,0,0,0
265652038,-1.26248e-33,-0.0945669,0.0,0.0,0.998882,-6.30537e-34,-0.0472658,-2.98362e-35,0.631231,0.0,1,0,0,0,0,0,0
265652038,2.57101e-33,-0.0945673,0.0,0.0,0.998882,1.28407e-33,-0.0472661,6.07607e-35,0.631495,0.0,1,0,0,0,0,0,0
265652038,1.19727e-33,-0.0945683,0.0,0.0,0.998882,5.97967e-34,-0.0472665,2.82955e-35,0.632022,0.0,1,0,0,0,0,0,0
265652038,-6.10193e-35,-0.0942374,0.0,0.0,0.99889,-3.04758e-35,-0.0471013,-1.43704e-36,0.632166,0.0,1,0,0,0,0,0,0
265652038,-2.56993e-34,-0.0937839,0.0,0.0,0.998901,-1.28355e-34,-0.0468748,-6.02324e-36,0.631698,0.0,1,0,0,0,0,0,0
265652038,-8.30174e-35,-0.0940122,0.0,0.0,0.998895,-4.14628e-35,-0.0469888,-1.95044e-36,0.631288,0.0,1,0,0,0,0,0,0
265652038,1.96461e-35,-0.0945164,0.0,0.0,0.998884,9.81208e-36,-0.0472406,4.64047e-37,0.631229,0.0,1,0,0,0,0,0,0
265652038,2.35159e-35,-0.0946581,0.0,0.0,0.99888,1.17448e-35,-0.0473114,5.56284e-37,0.631287,0.0,1,0,0,0,0,0,0
265652038,4.84274e-36,-0.0946117,0.0,0.0,0.998881,2.41866e-36,-0.0472882,1.14502e-37,0.63132,0.0,1,0,0,0,0,0,0
265652038,-2.81525e-36,-0.0945668,0.0,0.0,0.998882,-1.40605e-36,-0.0472658,-6.65326e-38,0.631529,0.0,1,0,0,0,0,0,0
265652038,-1.9886e-36,-0.0942282,0.0,0.0,0.99889,-9.93196e-37,-0.0470967,-4.68282e-38,0.632018,0.0,1,0,0,0,0,0,0
265652038,-1.83571e-37,-0.0934496,0.0,0.0,0.998909,-9.16851e-38,-0.0467078,-4.28709e-39,0.632366,0.0,1,0,0,0,0,0,0
265652038,3.21564e-37,-0.092566,0.0,0.0,0.998929,1.6061e-37,-0.0462665,7.43883e-39,0.63219,0.0,1,0,0,0,0,0,0
265652038,1.54773e-37,-0.0857699,0.0,0.0,0.999081,7.73153e-38,-0.0428718,3.31769e-39,0.63164,0.0,1,0,0,0,0,0,0
265652038,-5.7746e-39,-0.069194,0.0,0.0,0.999402,-2.88557e-39,-0.0345901,-9.98719e-41,0.631262,0.0,1,0,0,0,0,0,0
265652038,-3.24408e-38,-0.0524798,0.0,0.0,0.999656,-1.62148e-38,-0.0262369,-4.25573e-40,0.63123,0.0,1,0,0,0,0,0,0
265652038,-1.0857e-38,-0.0412717,0.0,0.0,0.999787,-5.42735e-39,-0.0206344,-1.12014e-40,0.631293,0.0,1,0,0,0,0,0,0
265652038,2.34046e-39,-0.0311319,0.0,0.0,0.999879,1.17009e-39,-0.0155653,1.82155e-41,0.63153,0.0,1,0,0,0,0,0,0
265652038,2.34046e-39,-0.0311319,0.0,0.0,0.999879,1.17009e-39,-0.0155653,1.82155e-41,0.63153,0.0,1,0,0,0,0,0,0
265652038,2.99084e-39,-0.0213021,0.0,0.0,0.999943,1.49533e-39,-0.0106509,1.59272e-41,0.631815,0.0,1,0,0,0,0,0,0
265652038,6.46898e-40,-0.015682,0.0,0.0,0.999969,3.23439e-40,-0.00784092,2.53635e-42,0.631665,0.0,1,0,0,0,0,0,0
265652038,-3.46607e-40,-0.0148678,0.0,0.0,0.999972,-1.733e-40,-0.00743385,-1.28779e-42,0.631345,0.0,1,0,0,0,0,0,0
265652038,-2.54753e-40,-0.0156675,0.0,0.0,0.999969,-1.27372e-40,-0.00783366,-9.97725e-43,0.631256,0.0,1,0,0,0,0,0,0
265652038,-2.62673e-41,-0.0167846,0.0,0.0,0.999965,-1.3133e-41,-0.00839221,-1.10703e-43,0.631494,0.0,1,0,0,0,0,0,0
265652038,4.0178e-41,-0.017703,0.0,0.0,0.999961,2.00876e-41,-0.00885141,1.77965e-43,0.632017,0.0,1,0,0,0,0,0,0
265652038,1.99909e-41,-0.0168304,0.0,0.0,0.999965,9.99546e-42,-0.00841508,8.40779e-44,0.632164,0.0,1,0,0,0,0,0,0
265652038,-4.80645e-43,-0.0153347,0.0,0.0,0.999971,-2.41023e-43,-0.00766729,-1.4013e-45,0.631907,0.0,1,0,0,0,0,0,0
265652038,-4.09179e-42,-0.0159462,0.0,0.0,0.999968,-2.0459e-42,-0.00797304,-1.68156e-44,0.631783,0.0,1,0,0,0,0,0,0
265652038,-1.41811e-42,-0.0201072,0.0,0.0,0.999949,-7.09057e-43,-0.0100535,-7.00649e-45,0.631579,0.0,1,0,0,0,0,0,0
265652038,2.77457e-43,-0.030796,0.0,0.0,0.999881,1.38729e-43,-0.0153974,2.8026e-45,0.631319,0.0,1,0,0,0,0,0,0
265652038,3.79752e-43,-0.0534662,0.0,0.0,0.999643,1.90577e-43,-0.0267299,5.60519e-45,0.631472,0.0,1,0,0,0,0,0,0
265652038,8.54792e-44,-0.0819345,0.0,0.0,0.999161,4.2039e-44,-0.0409558,1.4013e-45,0.631788,0.0,1,0,0,0,0,0,0
265652038,-4.34403e-44,-0.0979482,0.0,0.0,0.998801,-2.24208e-44,-0.0489545,-1.4013e-45,0.631875,0.0,1,0,0,0,0,0,0
265652038,-3.22299e-44,-0.0986223,0.0,0.0,0.998784,-1.68156e-44,-0.0492912,-1.4013e-45,0.631845,0.0,1,0,0,0,0,0,0
265652038,-4.2039e-45,-0.0950735,0.0,0.0,0.99887,-2.8026e-45,-0.0475188,0.0,0.631608,0.0,1,0,0,0,0,0,0
265652038,4.2039e-45,-0.093299,0.0,0.0,0.998912,2.8026e-45,-0.0466326,0.0,0.631318,0.0,1,0,0,0,0,0,0
265652038,4.2039e-45,-0.093299,0.0,0.0,0.998912,2.8026e-45,-0.0466326,0.0,0.631318,0.0,1,0,0,0,0,0,0
265652038,0.0,-0.093369,0.0,0.0,0.99891,0.0,-0.0466675,0.0,0.631292,0.0,1,0,0,0,0,0,0
265652038,0.0,-0.093369,0.0,0.0,0.99891,0.0,-0.0466675,0.0,0.631292,0.0,1,0,0,0,0,0,0
265652038,0.0,-0.0933727,0.0,0.0,0.99891,0.0,-0.0466694,0.0,0.631525,0.0,1,0,0,0,0,0,0
265652038,0.0,-0.0940303,0.0,0.0,0.998895,0.0,-0.0469978,0.0,0.631813,0.0,1,0,0,0,0,0,0
265652038,0.0,-0.0949348,0.0,0.0,0.998874,0.0,-0.0474496,0.0,0.631665,0.0,1,0,0,0,0,0,0
265652038,0.0,-0.0948091,0.0,0.0,0.998877,0.0,-0.0473868,0.0,0.631554,0.0,1,0,0,0,0,0,0
265652038,0.0,-0.0932612,0.0,0.0,0.998913,0.0,-0.0466137,0.0,0.631751,0.0,1,0,0,0,0,0,0
265652038,0.0,-0.0923826,0.0,0.0,0.998933,0.0,-0.0461749,0.0,0.631636,0.0,1,0,0,0,0,0,0
265652038,0.0,-0.0926922,0.0,0.0,0.998926,0.0,-0.0463295,0.0,0.631347,0.0,1,0,0,0,0,0,0
265652038,0.0,-0.0933098,0.0,0.0,0.998912,0.0,-0.046638,0.0,0.631471,0.0,1,0,0,0,0,0,0
265652038,0.0,-0.0938084,0.0,0.0,0.9989,0.0,-0.046887,0.0,0.631991,0.0,1,0,0,0,0,0,0
265652038,0.0,-0.0935407,0.0,0.0,0.998906,0.0,-0.0467533,0.0,0.632159,0.0,1,0,0,0,0,0,0
265652038,0.0,-0.093013,0.0,0.0,0.998919,0.0,-0.0464897,0.0,0.631702,0.0,1,0,0,0,0,0,0
265652038,0.0,-0.0928704,0.0,0.0,0.998922,0.0,-0.0464185,0.0,0.631291,0.0,1,0,0,0,0,0,0
265652038,0.0,-0.0929211,0.0,0.0,0.998921,0.0,-0.0464438,0.0,0.631438,0.0,1,0,0,0,0,0,0
265652038,0.0,-0.0932988,0.0,0.0,0.998912,0.0,-0.0466325,0.0,0.631989,0.0,1,0,0,0,0,0,0
265652038,0.0,-0.0937596,0.0,0.0,0.998901,0.0,-0.0468626,0.0,0.632373,0.0,1,0,0,0,0,0,0
265652038,0.0,-0.0937596,0.0,0.0,0.998901,0.0,-0.0468626,0.0,0.632373,0.0,1,0,0,0,0,0,0
265652038,0.0,-0.0938559,0.0,0.0,0.998899,0.0,-0.0469107,0.0,0.632616,0.0,1,0,0,0,0,0,0
265652038,0.0,-0.0945468,0.0,0.0,0.998883,0.0,-0.0472558,0.0,0.631962,0.0,1,0,0,0,0,0,0
265652038,0.0,-0.0939835,0.0,0.0,0.998896,0.0,-0.0469745,0.0,0.631295,0.0,1,0,0,0,0,0,0
265652038,0.0,-0.0923699,0.0,0.0,0.998934,0.0,-0.0461685,0.0,0.631179,0.0,1,0,0,0,0,0,0
265652038,0.0,-0.0923699,0.0,0.0,0.998934,0.0,-0.0461685,0.0,0.631179,0.0,1,0,0,0,0,0,0
265652038,0.0,-0.092229,0.0,0.0,0.998937,0.0,-0.0460981,0.0,0.631322,0.0,1,0,0,0,0,0,0
265652038,0.0,-0.092229,0.0,0.0,0.998937,0.0,-0.0460981,0.0,0.631322,0.0,1,0,0,0,0,0,0
265652038,0.0,-0.09297,0.0,0.0,0.99892,0.0,-0.0464683,0.0,0.631534,0.0,1,0,0,0,0,0,0
265652038,0.0,-0.0931114,0.0,0.0,0.998917,0.0,-0.0465389,0.0,0.63181,0.0,1,0,0,0,0,0,0
265652038,0.0,-0.0926874,0.0,0.0,0.998926,0.0,-0.0463271,0.0,0.631662,0.0,1,0,0,0,0,0,0
265652038,0.0,-0.0918409,0.0,0.0,0.998946,0.0,-0.0459043,0.0,0.631345,0.0,1,0,0,0,0,0,0
265652038,0.0,-0.09128,0.0,0.0,0.998959,0.0,-0.0456241,0.0,0.631465,0.0,1,0,0,0,0,0,0
265652038,0.0,-0.0912385,0.0,0.0,0.99896,0.0,-0.0456034,0.0,0.63178,0.0,1,0,0,0,0,0,0
265652038,0.0,-0.0910018,0.0,0.0,0.998965,0.0,-0.0454852,0.0,0.631873,0.0,1,0,0,0,0,0,0
265652038,0.0,-0.0902603,0.0,0.0,0.998982,0.0,-0.0451148,0.0,0.631637,0.0,1,0,0,0,0,0,0
265652038,0.0,-0.0897015,0.0,0.0,0.998994,0.0,-0.0448357,0.0,0.631323,0.0,1,0,0,0,0,0,0
265652038,0.0,-0.0896403,0.0,0.0,0.998996,0.0,-0.0448051,0.0,0.631671,0.0,1,0,0,0,0,0,0
265652038,0.0,-0.089727,0.0,0.0,0.998994,0.0,-0.0448485,0.0,0.632069,0.0,1,0,0,0,0,0,0
265652038,0.0,-0.0897711,0.0,0.0,0.998993,0.0,-0.0448705,0.0,0.631731,0.0,1,0,0,0,0,0,0
265652038,0.0,-0.0897704,0.0,0.0,0.998993,0.0,-0.0448701,0.0,0.63132,0.0,1,0,0,0,0,0,0
265652038,0.0,-0.0897615,0.0,0.0,0.998993,0.0,-0.0448657,0.0,0.631234,0.0,1,0,0,0,0,0,0
265652038,0.0,-0.0897584,0.0,0.0,0.998993,0.0,-0.0448641,0.0,0.631283,0.0,1,0,0,0,0,0,0
265652038,0.0,-0.0897589,0.0,0.0,0.998993,0.0,-0.0448644,0.0,0.631317,0.0,1,0,0,0,0,0,0
265652038,0.0,-0.0897598,0.0,0.0,0.998993,0.0,-0.0448648,0.0,0.631321,0.0,1,0,0,0,0,0,0
265652038,0.0,-0.0890977,0.0,0.0,0.999008,0.0,-0.0445341,0.0,0.631524,0.0,1,0,0,0,0,0,0
265652038,0.0,-0.0878596,0.0,0.0,0.999035,0.0,-0.0439157,0.0,0.632015,0.0,1,0,0,0,0,0,0
265652038,0.0,-0.0872006,0.0,0.0,0.99905,0.0,-0.0435865,0.0,0.632157,0.0,1,0,0,0,0,0,0
265652038,0.0,-0.0872006,0.0,0.0,0.99905,0.0,-0.0435865,0.0,0.632157,0.0,1,0,0,0,0,0,0
265652038,0.0,-0.0868685,0.0,0.0,0.999057,0.0,-0.0434206,0.0,0.631696,0.0,1,0,0,0,0,0,0
265652038,0.0,-0.0865437,0.0,0.0,0.999064,0.0,-0.0432583,0.0,0.631289,0.0,1,0,0,0,0,0,0
265652038,0.0,-0.0864887,0.0,0.0,0.999065,0.0,-0.0432309,0.0,0.631229,0.0,1,0,0,0,0,0,0
265652038,0.0,-0.086532,0.0,0.0,0.999064,0.0,-0.0432525,0.0,0.631287,0.0,1,0,0,0,0,0,0
265652038,0.0,-0.0865587,0.0,0.0,0.999064,0.0,-0.0432658,0.0,0.63132,0.0,1,0,0,0,0,0,0
265652038,0.0,-0.0865601,0.0,0.0,0.999064,0.0,-0.0432666,0.0,0.631529,0.0,1,0,0,0,0,0,0
265652038,0.0,-0.0865554,0.0,0.0,0.999064,0.0,-0.0432642,0.0,0.631809,0.0,1,0,0,0,0,0,0
265652038,0.0,-0.0865534,0.0,0.0,0.999064,0.0,-0.0432632,0.0,0.631663,0.0,1,0,0,0,0,0,0
265652038,0.0,-0.0868847,0.0,0.0,0.999057,0.0,-0.0434287,0.0,0.631554,0.0,1,0,0,0,0,0,0
265652038,0.0,-0.0873386,0.0,0.0,0.999047,0.0,-0.0436554,0.0,0.631751,0.0,1,0,0,0,0,0,0
265652038,0.0,-0.0871104,0.0,0.0,0.999052,0.0,-0.0435414,0.0,0.631636,0.0,1,0,0,0,0,0,0
265652038,0.0,-0.086606,0.0,0.0,0.999063,0.0,-0.0432895,0.0,0.631347,0.0,1,0,0,0,0,0,0
265652038,0.0,-0.085471,0.0,0.0,0.999087,0.0,-0.0427225,0.0,0.631262,0.0,1,0,0,0,0,0,0
265652038,0.0,-0.0791905,0.0,0.0,0.999216,0.0,-0.0395849,0.0,0.631288,0.0,1,0,0,0,0,0,0
265652038,0.0,-0.0638477,0.0,0.0,0.99949,0.0,-0.0319184,0.0,0.631314,0.0,1,0,0,0,0,0,0
265652038,0.0,-0.0448394,0.0,0.0,0.999749,0.0,-0.0224178,0.0,0.631318,0.0,1,0,0,0,0,0,0
265652038,0.0,-0.032542,0.0,0.0,0.999868,0.0,-0.0162703,0.0,0.631524,0.0,1,0,0,0,0,0,0
265652038,0.0,-0.0284089,0.0,0.0,0.999899,0.0,-0.014204,0.0,0.632016,0.0,1,0,0,0,0,0,0
265652038,0.0,-0.0236608,0.0,0.0,0.99993,0.0,-0.0118301,0.0,0.632158,0.0,1,0,0,0,0,0,0
265652038,0.0,-0.0147691,0.0,0.0,0.999973,0.0,-0.00738447,0.0,0.631905,0.0,1,0,0,0,0,0,0
265652038,0.0,-0.00711541,0.0,0.0,0.999994,0.0,-0.0035577,0.0,0.631992,0.0,1,0,0,0,0,0,0
265652038,0.0,-0.00271726,0.0,0.0,0.999999,0.0,-0.00135863,0.0,0.632283,0.0,1,0,0,0,0,0,0
265652038,0.0,-0.000273004,0.0,0.0,1.0,0.0,-0.000136502,0.0,0.632373,0.0,1,0,0,0,0,0,0
265652038,0.0,0.000431201,0.0,0.0,1.0,0.0,0.0002156,0.0,0.632141,0.0,1,0,0,0,0,0,0
265652038,0.0,0.000431201,0.0,0.0,1.0,0.0,0.0002156,0.0,0.632141,0.0,1,0,0,0,0,0,0
265652038,0.0,-5.80093e-06,0.0,0.0,1.0,0.0,-2.90047e-06,0.0,0.631968,0.0,1,0,0,0,0,0,0
265652038,0.0,-4.3813e-05,0.0,0.0,1.0,0.0,-2.19065e-05,0.0,0.632289,0.0,1,0,0,0,0,0,0
265652038,0.0,-1.50542e-05,0.0,0.0,1.0,0.0,-7.52709e-06,0.0,0.63238,0.0,1,0,0,0,0,0,0
265652038,0.0,3.01634e-06,0.0,0.0,1.0,0.0,1.50817e-06,0.0,0.632142,0.0,1,0,0,0,0,0,0
265652038,0.0,4.06246e-06,0.0,0.0,1.0,0.0,2.03123e-06,0.0,0.631619,0.0,1,0,0,0,0,0,0
265652038,0.0,4.06246e-06,0.0,0.0,1.0,0.0,2.03123e-06,0.0,0.631619,0.0,1,0,0,0,0,0,0
265652038,0.0,9.10544e-07,0.0,0.0,1.0,0.0,4.55272e-07,0.0,0.631264,0.0,1,0,0,0,0,0,0
265652038,0.0,-4.59023e-07,0.0,0.0,1.0,0.0,-2.29512e-07,0.0,0.631235,0.0,1,0,0,0,0,0,0
265652038,0.0,-3.4792e-07,0.0,0.0,1.0,0.0,-1.7396e-07,0.0,0.631294,0.0,1,0,0,0,0,0,0
265652038,0.0,-3.86821e-08,0.0,0.0,1.0,0.0,-1.93411e-08,0.0,0.63153,0.0,1,0,0,0,0,0,0
265652038,0.0,5.38342e-08,0.0,0.0,1.0,0.0,2.69171e-08,0.0,0.631814,0.0,1,0,0,0,0,0,0
265652038,0.0,2.74678e-08,0.0,0.0,1.0,0.0,1.37339e-08,0.0,0.631665,0.0,1,0,0,0,0,0,0
265652038,0.0,-3.91493e-10,0.0,0.0,1.0,0.0,-1.95747e-10,0.0,0.631345,0.0,1,0,0,0,0,0,0
265652038,0.0,-5.52329e-09,0.0,0.0,1.0,0.0,-2.76164e-09,0.0,0.631256,0.0,1,0,0,0,0,0,0
265652038,0.0,-1.96434e-09,0.0,0.0,1.0,0.0,-9.82172e-10,0.0,0.631286,0.0,1,0,0,0,0,0,0
265652038,0.0,3.55668e-10,0.0,0.0,1.0,0.0,1.77834e-10,0.0,0.631314,0.0,1,0,0,0,0,0,0
265652038,0.0,5.16078e-10,0.0,0.0,1.0,0.0,2.58039e-10,0.0,0.631319,0.0,1,0,0,0,0,0,0
265652038,0.0,1.2106e-10,0.0,0.0,1.0,0.0,6.05299e-11,0.0,0.631315,0.0,1,0,0,0,0,0,0
265652038,0.0,-0.00165552,0.0,0.0,1.0,0.0,-0.000827762,0.0,0.631313,0.0,1,0,0,0,0,0,0
265652038,0.0,-0.00590944,0.0,0.0,0.999996,0.0,-0.00295472,0.0,0.631521,0.0,1,0,0,0,0,0,0
265652038,0.0,-0.00590944,0.0,0.0,0.999996,0.0,-0.00295472,0.0,0.631521,0.0,1,0,0,0,0,0,0
265652038,0.0,-0.00914383,0.0,0.0,0.99999,0.0,-0.0045719,0.0,0.631807,0.0,1,0,0,0,0,0,0
265652038,0.0,-0.00950604,0.0,0.0,0.999989,0.0,-0.004753,0.0,0.635211,0.0,1,0,0,0,0,0,0
265652038,0.0,-0.00999986,0.0,0.0,0.999987,0.0,-0.00499991,0.0,0.645385,0.0,1,0,0,0,0,0,0
265652038,0.0,-0.012098,0.0,0.0,0.999982,0.0,-0.00604898,0.0,0.658285,0.0,1,0,0,0,0,0,0
265652038,0.0,-0.0150944,0.0,0.0,0.999972,0.0,-0.00754713,0.0,0.671075,0.0,1,0,0,0,0,0,0
265652038,0.0,-0.0191018,0.0,0.0,0.999954,0.0,-0.00955078,0.0,0.683917,0.0,1,0,0,0,0,0,0
265652038,0.0,-0.0229759,0.0,0.0,0.999934,0.0,-0.0114877,0.0,0.692001,0.0,1,0,0,0,0,0,0
265652038,0.0,-0.0252783,0.0,0.0,0.99992,0.0,-0.0126388,0.0,0.693516,0.0,1,0,0,0,0,0,0
265652038,0.0,-0.0266949,0.0,0.0,0.999911,0.0,-0.0133471,0.0,0.692493,0.0,1,0,0,0,0,0,0
265652038,0.0,-0.0277608,0.0,0.0,0.999904,0.0,-0.01388,0.0,0.691819,0.0,1,0,0,0,0,0,0
265652038,0.0,-0.0285396,0.0,0.0,0.999898,0.0,-0.0142693,0.0,0.69177,0.0,1,0,0,0,0,0,0
265652038,0.0,-0.0289497,0.0,0.0,0.999895,0.0,-0.0144743,0.0,0.692301,0.0,1,0,0,0,0,0,0
265652038,0.0,-0.0289488,0.0,0.0,0.999895,0.0,-0.0144739,0.0,0.69355,0.0,1,0,0,0,0,0,0
265652038,0.0,-0.0288681,0.0,0.0,0.999896,0.0,-0.0144335,0.0,0.695368,0.0,1,0,0,0,0,0,0
265652038,0.0,-0.0281763,0.0,0.0,0.999901,0.0,-0.0140877,0.0,0.697465,0.0,1,0,0,0,0,0,0
265652038,0.0,-0.0252876,0.0,0.0,0.99992,0.0,-0.0126434,0.0,0.698927,0.0,1,0,0,0,0,0,0
265652038,0.0,-0.0252876,0.0,0.0,0.99992,0.0,-0.0126434,0.0,0.698927,0.0,1,0,0,0,0,0,0
265652038,0.0,-0.0207134,0.0,0.0,0.999946,0.0,-0.0103565,0.0,0.699265,0.0,1,0,0,0,0,0,0
265652038,-0.00210898,-0.0152392,0.0,0.0,0.99997,-0.00105446,-0.00761953,-8.03472e-06,0.699187,0.0,1,0,0,0,0,0,0
265652038,-0.00210898,-0.0152392,0.0,0.0,0.99997,-0.00105446,-0.00761953,-8.03472e-06,0.699187,0.0,1,0,0,0,0,0,0
265652038,-0.00700548,-0.0125136,0.0,0.0,0.999974,-0.00350267,-0.00625672,-2.19158e-05,0.700084,0.0,1,0,0,0,0,0,0
265652038,-0.0154199,-0.00892435,0.0,0.0,0.99996,-0.00770982,-0.00446203,-3.44028e-05,0.702068,0.0,1,0,0,0,0,0,0
265652038,-0.0384405,-0.00672785,0.0,0.0,0.99981,-0.019219,-0.0033633,-6.46514e-05,0.707179,0.0,1,0,0,0,0,0,0
265652038,-0.0384405,-0.00672785,0.0,0.0,0.99981,-0.019219,-0.0033633,-6.46514e-05,0.707179,0.0,1,0,0,0,0,0,0
265652038,-0.0507977,-0.00611972,0.0,0.0,0.999673,-0.025396,-0.00305887,-7.77084e-05,0.70945,0.0,1,0,0,0,0,0,0
265652038,-0.0595852,-0.00425503,0.0,0.0,0.999554,-0.0297881,-0.00212657,-6.33748e-05,0.711476,0.0,1,0,0,0,0,0,0
265652038,-0.064717,-0.00269175,0.0,0.0,0.999476,-0.0323528,-0.00134517,-4.35429e-05,0.712406,0.0,1,0,0,0,0,0,0
265652038,-0.069197,-0.00148589,0.0,0.0,0.999401,-0.0345916,-0.000742501,-2.56997e-05,0.713813,0.0,1,0,0,0,0,0,0
265652038,-0.0715031,-0.000353096,0.0,0.0,0.999361,-0.035744,-0.000176435,-6.31052e-06,0.717907,0.0,1,0,0,0,0,0,0
265652038,-0.0711469,0.000160482,0.0,0.0,0.999367,-0.035566,8.01904e-05,2.85386e-06,0.722483,0.0,1,0,0,0,0,0,0
265652038,-0.0708949,0.000128444,0.0,0.0,0.999372,-0.03544,6.41818e-05,2.27603e-06,0.724624,0.0,1,0,0,0,0,0,0
265652038,-0.0718648,1.60387e-05,0.0,0.0,0.999354,-0.0359247,8.01418e-06,2.88092e-07,0.724728,0.0,1,0,0,0,0,0,0
265652038,-0.0732659,-1.92247e-05,0.0,0.0,0.999329,-0.0366247,-9.60589e-06,-3.52049e-07,0.724347,0.0,1,0,0,0,0,0,0
265652038,-0.0739248,-1.02447e-05,0.0,0.0,0.999317,-0.036954,-5.11884e-06,-1.89291e-07,0.724186,0.0,1,0,0,0,0,0,0
265652038,-0.0738939,-2.1192e-08,0.0,0.0,0.999318,-0.0369385,-1.05887e-08,-3.914e-10,0.724201,0.0,1,0,0,0,0,0,0
265652038,-0.0737535,1.99824e-06,0.0,0.0,0.99932,-0.0368684,9.98439e-07,3.68359e-08,0.724238,0.0,1,0,0,0,0,0,0
265652038,-0.0737076,7.42553e-07,0.0,0.0,0.999321,-0.0368455,3.71024e-07,1.36799e-08,0.72404,0.0,1,0,0,0,0,0,0
265652038,-0.073056,-1.16893e-07,0.0,0.0,0.999333,-0.0365199,-5.84074e-08,-2.13445e-09,0.723751,0.0,1,0,0,0,0,0,0
265652038,-0.073056,-1.16893e-07,0.0,0.0,0.999333,-0.0365199,-5.84074e-08,-2.13445e-09,0.723751,0.0,1,0,0,0,0,0,0
265652038,-0.0708375,-1.88599e-07,0.0,0.0,0.999373,-0.0354114,-9.42401e-08,-3.33926e-09,0.723892,0.0,1,0,0,0,0,0,0
265652038,-0.065841,-4.68029e-08,0.0,0.0,0.999458,-0.0329145,-2.33887e-08,-7.70247e-10,0.724209,0.0,1,0,0,0,0,0,0
265652038,-0.0574758,1.96356e-08,0.0,0.0,0.999587,-0.028734,9.81376e-09,2.82105e-10,0.724299,0.0,1,0,0,0,0,0,0
265652038,-0.0494032,1.64206e-08,0.0,0.0,0.999695,-0.0246991,8.20781e-09,2.02787e-10,0.72427,0.0,1,0,0,0,0,0,0
265652038,-0.0460715,2.22291e-09,0.0,0.0,0.999735,-0.0230337,1.11116e-09,2.56009e-11,0.724241,0.0,1,0,0,0,0,0,0
265652038,-0.0464211,-2.39399e-09,0.0,0.0,0.999731,-0.0232085,-1.19667e-09,-2.77805e-11,0.724237,0.0,1,0,0,0,0,0,0
265652038,-0.0468716,-1.31993e-09,0.0,0.0,0.999725,-0.0234337,-6.59782e-10,-1.54653e-11,0.72424,0.0,1,0,0,0,0,0,0
265652038,-0.0463074,-1.89672e-11,0.0,0.0,0.999732,-0.0231516,-9.48105e-12,-2.19561e-13,0.724243,0.0,1,0,0,0,0,0,0
265652038,-0.043693,2.51453e-10,0.0,0.0,0.999761,-0.0218448,1.25697e-10,2.74647e-12,0.724243,0.0,1,0,0,0,0,0,0
265652038,-0.0362153,9.66329e-11,0.0,0.0,0.999836,-0.0181066,4.83085e-11,8.74849e-13,0.724243,0.0,1,0,0,0,0,0,0
265652038,-0.0256864,0.00066221,0.0,0.0,0.999917,-0.0128428,0.000331078,4.25232e-06,0.724242,0.0,1,0,0,0,0,0,0
265652038,-0.0189555,0.00223133,0.0,0.0,0.999954,-0.00947762,0.00111562,1.05739e-05,0.724242,0.0,1,0,0,0,0,0,0
265652038,-0.0205167,0.0026815,0.0,0.0,0.999946,-0.0102581,0.00134068,1.37536e-05,0.724242,0.0,1,0,0,0,0,0,0
265652038,-0.0310203,0.00121617,0.0,0.0,0.99988,-0.0155095,0.00060801,9.43107e-06,0.724242,0.0,1,0,0,0,0,0,0
265652038,-0.0458535,-7.56728e-05,0.0,0.0,0.999737,-0.0229247,-3.78265e-05,-8.67391e-07,0.724243,0.0,1,0,0,0,0,0,0
265652038,-0.0565623,-0.000266108,0.0,0.0,0.9996,-0.0282774,-0.000133001,-3.76241e-06,0.724242,0.0,1,0,0,0,0,0,0
265652038,-0.0596016,-8.3516e-05,0.0,0.0,0.999556,-0.0297964,-4.17395e-05,-1.24424e-06,0.724242,0.0,1,0,0,0,0,0,0
265652038,-0.0586277,2.12466e-05,0.0,0.0,0.99957,-0.0293097,1.06187e-05,3.11365e-07,0.724242,0.0,1,0,0,0,0,0,0
265652038,-0.0573416,2.42049e-05,0.0,0.0,0.999589,-0.0286669,1.20975e-05,3.4694e-07,0.724243,0.0,1,0,0,0,0,0,0
265652038,-0.0560637,4.78397e-06,0.0,0.0,0.999607,-0.0280282,2.39105e-06,6.70431e-08,0.724242,0.0,1,0,0,0,0,0,0
265652038,-0.054519,-2.9719e-06,0.0,0.0,0.999628,-0.0272561,-1.4854e-06,-4.05012e-08,0.724242,0.0,1,0,0,0,0,0,0
265652038,-0.0528739,-2.03498e-06,0.0,0.0,0.999651,-0.0264339,-1.01713e-06,-2.68961e-08,0.724242,0.0,1,0,0,0,0,0,0
265652038,-0.0519063,-1.70034e-07,0.0,0.0,0.999663,-0.0259502,-8.49883e-08,-2.20621e-09,0.724243,0.0,1,0,0,0,0,0,0
265652038,-0.0528642,3.35648e-07,0.0,0.0,0.999651,-0.026429,1.67765e-07,4.43542e-09,0.724242,0.0,1,0,0,0,0,0,0
265652038,-0.0557254,1.57326e-07,0.0,0.0,0.999612,-0.0278591,7.86326e-08,2.19148e-09,0.724242,0.0,1,0,0,0,0,0,0
265652038,-0.059575,-7.58876e-09,0.0,0.0,0.999556,-0.0297831,-3.79269e-09,-1.13008e-10,0.724242,0.0,1,0,0,0,0,0,0
265652038,-0.0637484,-3.36112e-08,0.0,0.0,0.999492,-0.0318688,-1.67971e-08,-5.35574e-10,0.724243,0.0,1,0,0,0,0,0,0
265652038,-0.0671855,-1.09343e-08,0.0,0.0,0.999436,-0.0335865,-5.46405e-09,-1.83622e-10,0.724242,0.0,1,0,0,0,0,0,0
265652038,-0.069294,2.5411e-09,0.0,0.0,0.9994,-0.0346401,1.26979e-09,4.40119e-11,0.724242,0.0,1,0,0,0,0,0,0
265652038,-0.0697312,3.08011e-09,0.0,0.0,0.999392,-0.0348585,1.53912e-09,5.3684e-11,0.724242,0.0,1,0,0,0,0,0,0
265652038,-0.0688176,6.40596e-10,0.0,0.0,0.999408,-0.034402,3.20108e-10,1.10189e-11,0.724243,0.0,1,0,0,0,0,0,0
265652038,-0.0683945,-3.66415e-10,0.0,0.0,0.999415,-0.0341906,-1.83101e-10,-6.26397e-12,0.724242,0.0,1,0,0,0,0,0,0
265652038,-0.0697414,-2.60839e-10,0.0,0.0,0.999392,-0.0348636,-1.3034e-10,-4.5469e-12,0.724242,0.0,1,0,0,0,0,0,0
265652038,-0.0723086,-2.46373e-11,0.0,0.0,0.999346,-0.0361464,-1.23106e-11,-4.45276e-13,0.724242,0.0,1,0,0,0,0,0,0
265652038,-0.0739868,-0.000331105,0.0,0.0,0.999316,-0.036985,-0.000165439,-6.12295e-06,0.724243,0.0,1,0,0,0,0,0,0
265652038,-0.0741043,-0.00144677,0.0,0.0,0.999313,-0.0370437,-0.000722889,-2.67969e-05,0.724242,0.0,1,0,0,0,0,0,0
265652038,-0.0738191,-0.00344973,0.0,0.0,0.999317,-0.0369011,-0.00172369,-6.36495e-05,0.724242,0.0,1,0,0,0,0,0,0
265652038,-0.0736907,-0.00562694,0.0,0.0,0.999317,-0.0368369,-0.00281155,-0.00010364,0.724242,0.0,1,0,0,0,0,0,0
265652038,-0.0743613,-0.00670147,0.0,0.0,0.999303,-0.0371719,-0.00334841,-0.000124554,0.724243,0.0,1,0,0,0,0,0,0
265652038,-0.0776142,-0.00799663,0.0,0.0,0.999239,-0.038797,-0.00399529,-0.000155124,0.724242,0.0,1,0,0,0,0,0,0
265652038,-0.0829893,-0.0115759,0.0,0.0,0.999123,-0.041482,-0.00578292,-0.000240098,0.724242,0.0,1,0,0,0,0,0,0
265652038,-0.0866563,-0.0156248,0.0,0.0,0.999031,-0.0433132,-0.007805,-0.000338388,0.724242,0.0,1,0,0,0,0,0,0
265652038,-0.087621,-0.0180757,0.0,0.0,0.999,-0.0437947,-0.00902904,-0.00039582,0.724243,0.0,1,0,0,0,0,0,0
265652038,-0.0882528,-0.0191818,0.0,0.0,0.998981,-0.04411,-0.00958142,-0.000423068,0.724242,0.0,1,0,0,0,0,0,0
265652038,-0.0892906,-0.0194417,0.0,0.0,0.998956,-0.0446284,-0.00971103,-0.00043384,0.724451,0.0,1,0,0,0,0,0,0
265652038,-0.0892906,-0.0194417,0.0,0.0,0.998956,-0.0446284,-0.00971103,-0.00043384,0.724451,0.0,1,0,0,0,0,0,0
265652038,-0.0873342,-0.0099693,0.0,0.0,0.999034,-0.0436527,-0.00497988,-0.000217595,0.724593,0.0,1,0,0,0,0,0,0
265652038,-0.0849961,-0.00439248,0.0,0.0,0.999095,-0.0424851,-0.00219425,-9.33077e-05,0.724275,0.0,1,0,0,0,0,0,0
265652038,-0.0849961,-0.00439248,0.0,0.0,0.999095,-0.0424851,-0.00219425,-9.33077e-05,0.724275,0.0,1,0,0,0,0,0,0
265652038,-0.0835079,-0.00298204,0.0,0.0,0.999127,-0.0417418,-0.00148972,-6.22379e-05,0.724186,0.0,1,0,0,0,0,0,0
265652038,-0.0850713,-0.00421509,0.0,0.0,0.999093,-0.0425227,-0.00210564,-8.96187e-05,0.724215,0.0,1,0,0,0,0,0,0
265652038,-0.0902448,-0.00594023,0.0,0.0,0.998978,-0.0451069,-0.00296709,-0.000133973,0.724243,0.0,1,0,0,0,0,0,0
265652038,-0.0944993,-0.00600516,0.0,0.0,0.998879,-0.0472318,-0.00299923,-0.000141818,0.724248,0.0,1,0,0,0,0,0,0
265652038,-0.0957205,-0.00370472,0.0,0.0,0.998853,-0.0478419,-0.00185024,-8.86206e-05,0.724244,0.0,1,0,0,0,0,0,0
265652038,-0.0956699,-0.000855299,0.0,0.0,0.998856,-0.0478167,-0.00042716,-2.04488e-05,0.724242,0.0,1,0,0,0,0,0,0
265652038,-0.0950809,0.000409386,0.0,0.0,0.99887,-0.0475225,0.000204462,9.72753e-06,0.724242,0.0,1,0,0,0,0,0,0
265652038,-0.0945421,0.00031876,0.0,0.0,0.998883,-0.0472534,0.000159202,7.53126e-06,0.724242,0.0,1,0,0,0,0,0,0
265652038,-0.0944583,3.76264e-05,0.0,0.0,0.998885,-0.0472116,1.87922e-05,8.88201e-07,0.724034,0.0,1,0,0,0,0,0,0
265652038,-0.0945328,-4.85143e-05,0.0,0.0,0.998883,-0.0472488,-2.42301e-05,-1.14612e-06,0.723748,0.0,1,0,0,0,0,0,0
265652038,-0.0945768,-2.52952e-05,0.0,0.0,0.998882,-0.0472708,-1.26335e-05,-5.97862e-07,0.723892,0.0,1,0,0,0,0,0,0
265652038,-0.0949095,1.52599e-07,0.0,0.0,0.998874,-0.047437,7.62135e-08,3.61941e-09,0.72421,0.0,1,0,0,0,0,0,0
265652038,-0.095355,5.00959e-06,0.0,0.0,0.998864,-0.0476594,2.50195e-06,1.19377e-07,0.724299,0.0,1,0,0,0,0,0,0
265652038,-0.0947922,1.8213e-06,0.0,0.0,0.998877,-0.0473784,9.09626e-07,4.31451e-08,0.72427,0.0,1,0,0,0,0,0,0
265652038,-0.0935037,-3.07937e-07,0.0,0.0,0.998907,-0.0467348,-1.538e-07,-7.19569e-09,0.724241,0.0,1,0,0,0,0,0,0
265652038,-0.0931378,-4.7043e-07,0.0,0.0,0.998916,-0.0465521,-2.3496e-07,-1.09497e-08,0.724237,0.0,1,0,0,0,0,0,0
265652038,-0.0939171,-0.000331218,0.0,0.0,0.998898,-0.0469413,-0.000165427,-7.77391e-06,0.72424,0.0,1,0,0,0,0,0,0
265652038,-0.0939171,-0.000331218,0.0,0.0,0.998898,-0.0469413,-0.000165427,-7.77391e-06,0.72424,0.0,1,0,0,0,0,0,0
265652038,-0.0950416,-0.00534992,0.0,0.0,0.998868,-0.0475027,-0.00267194,-0.000127068,0.724243,0.0,1,0,0,0,0,0,0
265652038,-0.0950416,-0.00534992,0.0,0.0,0.998868,-0.0475027,-0.00267194,-0.000127068,0.724243,0.0,1,0,0,0,0,0,0
265652038,-0.0973843,-0.00818608,0.0,0.0,0.998806,-0.0486725,-0.00408818,-0.00019922,0.724243,0.0,1,0,0,0,0,0,0
265652038,-0.102801,-0.00959279,0.0,0.0,0.998668,-0.0513771,-0.00479004,-0.000246427,0.724242,0.0,1,0,0,0,0,0,0
265652038,-0.10931,-0.0105506,0.0,0.0,0.998493,-0.054627,-0.00526738,-0.000288175,0.724242,0.0,1,0,0,0,0,0,0
265652038,-0.116615,-0.0126157,0.0,0.0,0.998281,-0.0582731,-0.00629707,-0.000367581,0.724242,0.0,1,0,0,0,0,0,0
265652038,-0.123999,-0.0158401,0.0,0.0,0.998047,-0.0619579,-0.00790473,-0.000490718,0.724242,0.0,1,0,0,0,0,0,0
265652038,-0.128609,-0.0196071,0.0,0.0,0.997885,-0.0642569,-0.00978314,-0.000629966,0.724243,0.0,1,0,0,0,0,0,0
265652038,-0.132177,-0.0236788,0.0,0.0,0.997747,-0.0660357,-0.0118133,-0.000781861,0.724242,0.0,1,0,0,0,0,0,0
265652038,-0.136897,-0.0267635,0.0,0.0,0.997569,-0.0683891,-0.01335,-0.00091522,0.724242,0.0,1,0,0,0,0,0,0
265652038,-0.140923,-0.0277683,0.0,0.0,0.997422,-0.0703963,-0.0138492,-0.000977455,0.724242,0.0,1,0,0,0,0,0,0
265652038,-0.143804,-0.0275356,0.0,0.0,0.997322,-0.0718331,-0.0137318,-0.000989045,0.724243,0.0,1,0,0,0,0,0,0
265652038,-0.147391,-0.0272528,0.0,0.0,0.997193,-0.073622,-0.013589,-0.00100327,0.724242,0.0,1,0,0,0,0,0,0
265652038,-0.151795,-0.0268628,0.0,0.0,0.997031,-0.0758177,-0.0133923,-0.0010184,0.724242,0.0,1,0,0,0,0,0,0
265652038,-0.157355,-0.0257807,0.0,0.0,0.996824,-0.0785898,-0.0128501,-0.00101311,0.724242,0.0,1,0,0,0,0,0,0
265652038,-0.157355,-0.0257807,0.0,0.0,0.996824,-0.0785898,-0.0128501,-0.00101311,0.724242,0.0,1,0,0,0,0,0,0
265652038,-0.164507,-0.0238017,0.0,0.0,0.996549,-0.0821551,-0.0118603,-0.000977762,0.724243,0.0,1,0,0,0,0,0,0
265652038,-0.170366,-0.0206335,0.0,0.0,0.996321,-0.0850754,-0.0102791,-0.000877731,0.724242,0.0,1,0,0,0,0,0,0
265652038,-0.173117,-0.0165392,0.0,0.0,0.996222,-0.0864474,-0.00823853,-0.000714901,0.724242,0.0,1,0,0,0,0,0,0
265652038,-0.173979,-0.0133289,0.0,0.0,0.996197,-0.0868781,-0.00663919,-0.000579003,0.724242,0.0,1,0,0,0,0,0,0
265652038,-0.174422,-0.0116199,0.0,0.0,0.996183,-0.0870989,-0.00578784,-0.000506046,0.724243,0.0,1,0,0,0,0,0,0
265652038,-0.175897,-0.00947455,0.0,0.0,0.996124,-0.0878341,-0.00471895,-0.000416097,0.724242,0.0,1,0,0,0,0,0,0
265652038,-0.175897,-0.00947455,0.0,0.0,0.996124,-0.0878341,-0.00471895,-0.000416097,0.724242,0.0,1,0,0,0,0,0,0
265652038,-0.176402,-0.00943217,0.0,0.0,0.996102,-0.0880855,-0.00469774,-0.000415422,0.724242,0.0,1,0,0,0,0,0,0
265652038,-0.176428,-0.00957669,0.0,0.0,0.9961,-0.0880986,-0.00476971,-0.00042185,0.724243,0.0,1,0,0,0,0,0,0
265652038,-0.176339,-0.0096384,0.0,0.0,0.996104,-0.0880542,-0.00480046,-0.000424354,0.724242,0.0,1,0,0,0,0,0,0
265652038,-0.176301,-0.0096329,0.0,0.0,0.996106,-0.0880352,-0.00479773,-0.000424021,0.724242,0.0,1,0,0,0,0,0,0
265652038,-0.176304,-0.00961879,0.0,0.0,0.996106,-0.0880369,-0.0047907,-0.000423407,0.724242,0.0,1,0,0,0,0,0,0
265652038,-0.176313,-0.00961465,0.0,0.0,0.996105,-0.0880413,-0.00478864,-0.000423246,0.724243,0.0,1,0,0,0,0,0,0
265652038,-0.176313,-0.00961465,0.0,0.0,0.996105,-0.0880413,-0.00478864,-0.000423246,0.724243,0.0,1,0,0,0,0,0,0
265652038,-0.176647,-0.00961588,0.0,0.0,0.996091,-0.0882074,-0.00478918,-0.000424099,0.724242,0.0,1,0,0,0,0,0,0
265652038,-0.177761,-0.00961715,0.0,0.0,0.996041,-0.0887627,-0.00478957,-0.000426825,0.724242,0.0,1,0,0,0,0,0,0
265652038,-0.179764,-0.00961737,0.0,0.0,0.995952,-0.0897598,-0.00478926,-0.00043163,0.724034,0.0,1,0,0,0,0,0,0
265652038,-0.182272,-0.00961721,0.0,0.0,0.995839,-0.0910087,-0.00478863,-0.000437628,0.723748,0.0,1,0,0,0,0,0,0
265652038,-0.185124,-0.009286,0.0,0.0,0.995708,-0.092429,-0.00462311,-0.000429151,0.723892,0.0,1,0,0,0,0,0,0
265652038,-0.188667,-0.00817033,0.0,0.0,0.995546,-0.094193,-0.00406699,-0.000384796,0.72421,0.0,1,0,0,0,0,0,0
265652038,-0.192729,-0.0068296,0.0,0.0,0.995355,-0.0962148,-0.00339895,-0.000328555,0.724299,0.0,1,0,0,0,0,0,0
265652038,-0.19784,-0.00555931,0.0,0.0,0.995108,-0.0987585,-0.00276606,-0.000274515,0.72427,0.0,1,0,0,0,0,0,0
265652038,-0.203569,-0.00336581,0.0,0.0,0.994823,-0.101609,-0.0016742,-0.000170998,0.724241,0.0,1,0,0,0,0,0,0
265652038,-0.207334,-0.000817369,0.0,0.0,0.994631,-0.103482,-0.00040649,-4.22913e-05,0.724028,0.0,1,0,0,0,0,0,0
265652038,-0.209259,0.000357039,0.0,0.0,0.994531,-0.104439,0.000177543,1.86444e-05,0.723746,0.0,1,0,0,0,0,0,0
265652038,-0.211551,0.000291989,0.0,0.0,0.994411,-0.105578,0.000145179,1.54139e-05,0.723892,0.0,1,0,0,0,0,0,0
265652038,-0.214339,3.79842e-05,0.0,0.0,0.994263,-0.106964,1.88831e-05,2.03148e-06,0.72421,0.0,1,0,0,0,0,0,0
265652038,-0.216576,-4.31399e-05,0.0,0.0,0.994143,-0.108076,-2.14436e-05,-2.3312e-06,0.724299,0.0,1,0,0,0,0,0,0
265652038,-0.218181,-2.33793e-05,0.0,0.0,0.994056,-0.108874,-1.16201e-05,-1.2727e-06,0.72427,0.0,1,0,0,0,0,0,0
265652038,-0.220323,-1.91804e-07,0.0,0.0,0.993938,-0.109939,-9.53208e-08,-1.05433e-08,0.724241,0.0,1,0,0,0,0,0,0
265652038,-0.223117,4.50715e-06,0.0,0.0,0.993784,-0.111327,2.23957e-06,2.50885e-07,0.724237,0.0,1,0,0,0,0,0,0
265652038,-0.223117,4.50715e-06,0.0,0.0,0.993784,-0.111327,2.23957e-06,2.50885e-07,0.724237,0.0,1,0,0,0,0,0,0
265652038,-0.225055,1.70307e-06,0.0,0.0,0.993675,-0.11229,8.46151e-07,9.56193e-08,0.724241,0.0,1,0,0,0,0,0,0
265652038,-0.226879,-2.53239e-07,0.0,0.0,0.993573,-0.113197,-1.25806e-07,-1.43329e-08,0.724243,0.0,1,0,0,0,0,0,0
265652038,-0.230154,-4.27067e-07,0.0,0.0,0.993386,-0.114823,-2.12121e-07,-2.45186e-08,0.724243,0.0,1,0,0,0,0,0,0
265652038,-0.233987,-1.08225e-07,0.0,0.0,0.993164,-0.116727,-5.37425e-08,-6.31636e-09,0.724243,0.0,1,0,0,0,0,0,0
265652038,-0.237411,4.36345e-08,0.0,0.0,0.992963,-0.118427,2.16637e-08,2.58374e-09,0.724242,0.0,1,0,0,0,0,0,0
265652038,-0.241237,3.73162e-08,0.0,0.0,0.992734,-0.120326,1.85226e-08,2.24506e-09,0.724242,0.0,1,0,0,0,0,0,0
265652038,-0.248602,-0.000662204,0.0,0.0,0.992285,-0.123981,-0.000328548,-4.10504e-05,0.724242,0.0,1,0,0,0,0,0,0
265652038,-0.260177,-0.00223134,0.0,0.0,0.99155,-0.129722,-0.00110624,-0.000144726,0.724242,0.0,1,0,0,0,0,0,0
265652038,-0.269634,-0.00334371,0.0,0.0,0.990925,-0.134409,-0.00165668,-0.000224712,0.724243,0.0,1,0,0,0,0,0,0
265652038,-0.272848,-0.0034475,0.0,0.0,0.990707,-0.136001,-0.00170773,-0.000234432,0.724242,0.0,1,0,0,0,0,0,0
265652038,-0.273178,-0.00326803,0.0,0.0,0.990685,-0.136164,-0.0016188,-0.000222495,0.724242,0.0,1,0,0,0,0,0,0
265652038,-0.274325,-0.00318139,0.0,0.0,0.990607,-0.136733,-0.00157576,-0.000217501,0.724242,0.0,1,0,0,0,0,0,0
265652038,-0.276672,-0.00285341,0.0,0.0,0.990446,-0.137895,-0.00141308,-0.000196736,0.724243,0.0,1,0,0,0,0,0,0
265652038,-0.279632,-0.00241808,0.0,0.0,0.990241,-0.139361,-0.00119724,-0.000168492,0.724242,0.0,1,0,0,0,0,0,0
265652038,-0.283577,-0.00298364,0.0,0.0,0.989964,-0.141314,-0.00147685,-0.000210815,0.724242,0.0,1,0,0,0,0,0,0
265652038,-0.283577,-0.00298364,0.0,0.0,0.989964,-0.141314,-0.00147685,-0.000210815,0.724242,0.0,1,0,0,0,0,0,0
265652038,-0.287766,-0.00427119,0.0,0.0,0.989664,-0.143387,-0.00211353,-0.000306217,0.724242,0.0,1,0,0,0,0,0,0
265652038,-0.290529,-0.00496734,0.0,0.0,0.989465,-0.144754,-0.00245751,-0.00035952,0.724243,0.0,1,0,0,0,0,0,0
265652038,-0.293047,-0.00497246,0.0,0.0,0.989282,-0.145999,-0.00245959,-0.000362988,0.724242,0.0,1,0,0,0,0,0,0
265652038,-0.29741,-0.00483803,0.0,0.0,0.988961,-0.148157,-0.00239232,-0.000358395,0.724034,0.0,1,0,0,0,0,0,0
265652038,-0.302171,-0.00478736,0.0,0.0,0.988605,-0.150511,-0.00236641,-0.000360275,0.723748,0.0,1,0,0,0,0,0,0
265652038,-0.305725,-0.00512606,0.0,0.0,0.988336,-0.152267,-0.00253314,-0.000390266,0.723892,0.0,1,0,0,0,0,0,0
265652038,-0.309086,-0.00459893,0.0,0.0,0.988079,-0.153928,-0.00227206,-0.000353953,0.72421,0.0,1,0,0,0,0,0,0
265652038,-0.313274,-0.00202009,0.0,0.0,0.987757,-0.155997,-0.000997678,-0.000157564,0.724299,0.0,1,0,0,0,0,0,0
265652038,-0.318799,0.000154066,0.0,0.0,0.987323,-0.158725,7.60564e-05,1.22271e-05,0.72427,0.0,1,0,0,0,0,0,0
265652038,-0.324656,0.000452496,0.0,0.0,0.986854,-0.161616,0.000223274,3.65653e-05,0.724241,0.0,1,0,0,0,0,0,0
265652038,-0.324656,0.000452496,0.0,0.0,0.986854,-0.161616,0.000223274,3.65653e-05,0.724241,0.0,1,0,0,0,0,0,0
265652038,-0.328387,0.000137041,0.0,0.0,0.986551,-0.163457,6.7599e-05,1.12002e-05,0.724237,0.0,1,0,0,0,0,0,0
265652038,-0.32895,-3.79654e-05,0.0,0.0,0.986504,-0.163735,-1.87265e-05,-3.10813e-06,0.72424,0.0,1,0,0,0,0,0,0
265652038,-0.327434,-4.08641e-05,0.0,0.0,0.986628,-0.162987,-2.01588e-05,-3.33015e-06,0.724243,0.0,1,0,0,0,0,0,0
265652038,-0.326433,-7.66616e-06,0.0,0.0,0.98671,-0.162493,-3.78214e-06,-6.22848e-07,0.724243,0.0,1,0,0,0,0,0,0
265652038,-0.327353,5.16897e-06,0.0,0.0,0.986635,-0.162947,2.54994e-06,4.21133e-07,0.724243,0.0,1,0,0,0,0,0,0
265652038,-0.328551,3.41123e-06,0.0,0.0,0.986537,-0.163538,1.68265e-06,2.78932e-07,0.724242,0.0,1,0,0,0,0,0,0
265652038,-0.328483,2.48377e-07,0.0,0.0,0.986543,-0.163504,1.22517e-07,2.03053e-08,0.724242,0.0,1,0,0,0,0,0,0
265652038,-0.327229,-5.76191e-07,0.0,0.0,0.986645,-0.162886,-2.84248e-07,-4.69266e-08,0.724242,0.0,1,0,0,0,0,0,0
265652038,-0.326117,-2.61554e-07,0.0,0.0,0.986735,-0.162337,-1.29042e-07,-2.123e-08,0.724242,0.0,1,0,0,0,0,0,0
265652038,-0.326283,1.61758e-08,0.0,0.0,0.986722,-0.162419,7.98049e-09,1.31362e-09,0.724243,0.0,1,0,0,0,0,0,0
265652038,-0.326893,5.71938e-08,0.0,0.0,0.986672,-0.16272,2.82158e-08,4.65328e-09,0.724242,0.0,1,0,0,0,0,0,0
265652038,-0.327086,1.79672e-08,0.0,0.0,0.986657,-0.162815,8.86373e-09,1.46267e-09,0.724242,0.0,1,0,0,0,0,0,0
265652038,-0.326707,-4.56008e-09,0.0,0.0,0.986687,-0.162628,-2.24969e-09,-3.70798e-10,0.724242,0.0,1,0,0,0,0,0,0
265652038,-0.325205,-5.20333e-09,0.0,0.0,0.986809,-0.161887,-2.56735e-09,-4.21175e-10,0.724243,0.0,1,0,0,0,0,0,0
265652038,-0.323068,-1.02984e-09,0.0,0.0,0.986982,-0.160832,-5.08216e-10,-8.28157e-11,0.724242,0.0,1,0,0,0,0,0,0
265652038,-0.321911,6.38341e-10,0.0,0.0,0.987075,-0.160261,3.15045e-10,5.11506e-11,0.724242,0.0,1,0,0,0,0,0,0
265652038,-0.321901,4.37543e-10,0.0,0.0,0.987075,-0.160257,2.15944e-10,3.50596e-11,0.724242,0.0,1,0,0,0,0,0,0
265652038,-0.322787,3.66869e-11,0.0,0.0,0.987004,-0.160694,1.81051e-11,2.94767e-12,0.724243,0.0,1,0,0,0,0,0,0
265652038,-0.324771,-0.00066221,0.0,0.0,0.986844,-0.161673,-0.000326749,-5.35307e-05,0.724242,0.0,1,0,0,0,0,0,0
265652038,-0.324771,-0.00066221,0.0,0.0,0.986844,-0.161673,-0.000326749,-5.35307e-05,0.724242,0.0,1,0,0,0,0,0,0
265652038,-0.329635,-0.00223133,0.0,0.0,0.986448,-0.164072,-0.00110055,-0.00018305,0.724242,0.0,1,0,0,0,0,0,0
265652038,-0.339322,-0.00433702,0.0,0.0,0.98564,-0.168848,-0.00213737,-0.000366149,0.724242,0.0,1,0,0,0,0,0,0
265652038,-0.350558,-0.00778781,0.0,0.0,0.984671,-0.174381,-0.00383424,-0.000679028,0.724243,0.0,1,0,0,0,0,0,0
265652038,-0.359435,-0.0122928,0.0,0.0,0.983876,-0.178748,-0.00604737,-0.00109867,0.724242,0.0,1,0,0,0,0,0,0
265652038,-0.367468,-0.0172551,0.0,0.0,0.983132,-0.182695,-0.00848221,-0.00157625,0.724034,0.0,1,0,0,0,0,0,0
265652038,-0.375321,-0.022511,0.0,0.0,0.982381,-0.186549,-0.0110576,-0.00209979,0.723748,0.0,1,0,0,0,0,0,0
265652038,-0.379298,-0.0257992,0.0,0.0,0.981989,-0.188499,-0.012668,-0.00243169,0.723892,0.0,1,0,0,0,0,0,0
265652038,-0.379561,-0.0263162,0.0,0.0,0.981961,-0.188627,-0.0129215,-0.00248212,0.724418,0.0,1,0,0,0,0,0,0
265652038,-0.379542,-0.0258634,0.0,0.0,0.981965,-0.188618,-0.0126992,-0.00243929,0.724793,0.0,1,0,0,0,0,0,0
265652038,-0.380808,-0.0255948,0.0,0.0,0.981847,-0.18924,-0.0125658,-0.00242191,0.72462,0.0,1,0,0,0,0,0,0
265652038,-0.384259,-0.0252531,0.0,0.0,0.981522,-0.190935,-0.0123939,-0.00241097,0.724274,0.0,1,0,0,0,0,0,0
265652038,-0.389591,-0.0248484,0.0,0.0,0.981012,-0.193551,-0.0121889,-0.00240484,0.72418,0.0,1,0,0,0,0,0,0
265652038,-0.39519,-0.0250968,0.0,0.0,0.980464,-0.196296,-0.0123039,-0.00246333,0.724213,0.0,1,0,0,0,0,0,0
265652038,-0.400188,-0.0252679,0.0,0.0,0.97997,-0.198746,-0.0123815,-0.00251107,0.724244,0.0,1,0,0,0,0,0,0
265652038,-0.400188,-0.0252679,0.0,0.0,0.97997,-0.198746,-0.0123815,-0.00251107,0.724244,0.0,1,0,0,0,0,0,0
265652038,-0.404912,-0.0246202,0.0,0.0,0.979501,-0.201061,-0.0120584,-0.0024752,0.724249,0.0,1,0,0,0,0,0,0
265652038,-0.408659,-0.0240163,0.0,0.0,0.979127,-0.202896,-0.0117581,-0.00243652,0.724245,0.0,1,0,0,0,0,0,0
265652038,-0.410774,-0.0239199,0.0,0.0,0.978912,-0.203931,-0.0117083,-0.00243913,0.724242,0.0,1,0,0,0,0,0,0
265652038,-0.412477,-0.0240026,0.0,0.0,0.978738,-0.204765,-0.0117467,-0.00245756,0.724242,0.0,1,0,0,0,0,0,0
265652038,-0.414348,-0.0237209,0.0,0.0,0.978547,-0.205681,-0.0116066,-0.00243958,0.724242,0.0,1,0,0,0,0,0,0
265652038,-0.415037,-0.0229384,0.0,0.0,0.978481,-0.206019,-0.0112229,-0.00236297,0.724243,0.0,1,0,0,0,0,0,0
265652038,-0.414594,-0.0223733,0.0,0.0,0.97853,-0.205803,-0.0109469,-0.00230234,0.724242,0.0,1,0,0,0,0,0,0
265652038,-0.414627,-0.0223177,0.0,0.0,0.978526,-0.205819,-0.0109197,-0.0022968,0.724242,0.0,1,0,0,0,0,0,0
265652038,-0.415056,-0.0224078,0.0,0.0,0.978482,-0.206029,-0.0109633,-0.00230843,0.724034,0.0,1,0,0,0,0,0,0
265652038,-0.416533,-0.0227831,0.0,0.0,0.978327,-0.206751,-0.0111452,-0.00235532,0.723748,0.0,1,0,0,0,0,0,0
265652038,-0.419644,-0.0238975,0.0,0.0,0.977998,-0.208271,-0.0116864,-0.00248869,0.723892,0.0,1,0,0,0,0,0,0
265652038,-0.421828,-0.0258913,0.0,0.0,0.977758,-0.209336,-0.0126584,-0.00271015,0.72421,0.0,1,0,0,0,0,0,0
265652038,-0.422027,-0.0280654,0.0,0.0,0.977723,-0.20943,-0.013721,-0.00293906,0.72409,0.0,1,0,0,0,0,0,0
265652038,-0.421672,-0.0298028,0.0,0.0,0.977748,-0.209254,-0.0145709,-0.00311841,0.723775,0.0,1,0,0,0,0,0,0
265652038,-0.421502,-0.0323368,0.0,0.0,0.977746,-0.209167,-0.01581,-0.00338219,0.723682,0.0,1,0,0,0,0,0,0
265652038,-0.421509,-0.0369062,0.0,0.0,0.977707,-0.209162,-0.0180438,-0.00386013,0.72371,0.0,1,0,0,0,0,0,0
265652038,-0.421545,-0.0417407,0.0,0.0,0.977657,-0.20917,-0.020407,-0.00436608,0.723947,0.0,1,0,0,0,0,0,0
265652038,-0.421888,-0.0439568,0.0,0.0,0.977598,-0.209332,-0.0214895,-0.00460153,0.724237,0.0,1,0,0,0,0,0,0
265652038,-0.423663,-0.0441602,0.0,0.0,0.977409,-0.210199,-0.0215848,-0.00464198,0.724299,0.0,1,0,0,0,0,0,0
265652038,-0.428556,-0.0441325,0.0,0.0,0.976892,-0.21259,-0.0215598,-0.00469183,0.724264,0.0,1,0,0,0,0,0,0
265652038,-0.435645,-0.0440824,0.0,0.0,0.976133,-0.216052,-0.0215186,-0.00476281,0.724239,0.0,1,0,0,0,0,0,0
265652038,-0.442605,-0.0444005,0.0,0.0,0.975372,-0.219446,-0.021657,-0.00487256,0.724237,0.0,1,0,0,0,0,0,0
265652038,-0.450079,-0.0448589,0.0,0.0,0.97454,-0.223089,-0.0218621,-0.0050046,0.724241,0.0,1,0,0,0,0,0,0
265652038,-0.457107,-0.044966,0.0,0.0,0.973749,-0.226512,-0.0218965,-0.00509352,0.724243,0.0,1,0,0,0,0,0,0
265652038,-0.457107,-0.044966,0.0,0.0,0.973749,-0.226512,-0.0218965,-0.00509352,0.724243,0.0,1,0,0,0,0,0,0
265652038,-0.460889,-0.0449158,0.0,0.0,0.973319,-0.228353,-0.0218624,-0.00512919,0.724243,0.0,1,0,0,0,0,0,0
265652038,-0.461573,-0.0448763,0.0,0.0,0.973242,-0.228686,-0.0218414,-0.00513215,0.724243,0.0,1,0,0,0,0,0,0
265652038,-0.460754,-0.0448715,0.0,0.0,0.973335,-0.228287,-0.0218412,-0.00512266,0.724242,0.0,1,0,0,0,0,0,0
265652038,-0.459986,-0.0448775,0.0,0.0,0.973423,-0.227913,-0.0218461,-0.00511495,0.724242,0.0,1,0,0,0,0,0,0
265652038,-0.460194,-0.0448807,0.0,0.0,0.973399,-0.228015,-0.0218471,-0.00511758,0.724243,0.0,1,0,0,0,0,0,0
265652038,-0.461083,-0.0448806,0.0,0.0,0.973298,-0.228447,-0.0218448,-0.00512729,0.724242,0.0,1,0,0,0,0,0,0
265652038,-0.462034,-0.04488,0.0,0.0,0.973189,-0.22891,-0.021842,-0.0051376,0.724242,0.0,1,0,0,0,0,0,0
265652038,-0.462873,-0.045542,0.0,0.0,0.973086,-0.229316,-0.022162,-0.00522267,0.724242,0.0,1,0,0,0,0,0,0
265652038,-0.463328,-0.0471112,0.0,0.0,0.973016,-0.229534,-0.0229242,-0.0054078,0.724243,0.0,1,0,0,0,0,0,0
265652038,-0.463663,-0.0498791,0.0,0.0,0.972945,-0.229689,-0.0242698,-0.00572953,0.724242,0.0,1,0,0,0,0,0,0
265652038,-0.464691,-0.0542369,0.0,0.0,0.972771,-0.230176,-0.0263865,-0.00624354,0.724242,0.0,1,0,0,0,0,0,0
265652038,-0.466661,-0.0582851,0.0,0.0,0.972489,-0.231121,-0.0283488,-0.00673735,0.724242,0.0,1,0,0,0,0,0,0
265652038,-0.469505,-0.0605832,0.0,0.0,0.972126,-0.232496,-0.0294563,-0.00704482,0.724243,0.0,1,0,0,0,0,0,0
265652038,-0.472819,-0.061302,0.0,0.0,0.971729,-0.234104,-0.0297938,-0.00717775,0.724242,0.0,1,0,0,0,0,0,0
265652038,-0.475805,-0.0607864,0.0,0.0,0.971386,-0.235556,-0.0295326,-0.0071615,0.724242,0.0,1,0,0,0,0,0,0
265652038,-0.475805,-0.0607864,0.0,0.0,0.971386,-0.235556,-0.0295326,-0.0071615,0.724242,0.0,1,0,0,0,0,0,0
265652038,-0.478245,-0.0594619,0.0,0.0,0.971117,-0.236746,-0.0288807,-0.00704075,0.724242,0.0,1,0,0,0,0,0,0
265652038,-0.488034,-0.0546041,0.0,0.0,0.970014,-0.241513,-0.02649,-0.00659544,0.724242,0.0,1,0,0,0,0,0,0
265652038,-0.488034,-0.0546041,0.0,0.0,0.970014,-0.241513,-0.02649,-0.00659544,0.724242,0.0,1,0,0,0,0,0,0
265652038,-0.500655,-0.0508964,0.0,0.0,0.968518,-0.247641,-0.0246523,-0.00630337,0.724242,0.0,1,0,0,0,0,0,0
265652038,-0.502575,-0.0503487,0.0,0.0,0.968286,-0.248573,-0.0243811,-0.00625897,0.724243,0.0,1,0,0,0,0,0,0
265652038,-0.502575,-0.0503487,0.0,0.0,0.968286,-0.248573,-0.0243811,-0.00625897,0.724243,0.0,1,0,0,0,0,0,0
265652038,-0.502222,-0.0490337,0.0,0.0,0.968346,-0.248406,-0.0237455,-0.00609135,0.724242,0.0,1,0,0,0,0,0,0
265652038,-0.501716,-0.0483239,0.0,0.0,0.968417,-0.248163,-0.0234034,-0.00599726,0.724242,0.0,1,0,0,0,0,0,0
265652038,-0.501598,-0.0493124,0.0,0.0,0.96842,-0.248103,-0.0238824,-0.00611851,0.724242,0.0,1,0,0,0,0,0,0
265652038,-0.501654,-0.0514722,0.0,0.0,0.968387,-0.248123,-0.024928,-0.00638713,0.724243,0.0,1,0,0,0,0,0,0
265652038,-0.501697,-0.0537323,0.0,0.0,0.968353,-0.248137,-0.0260222,-0.00666808,0.724242,0.0,1,0,0,0,0,0,0
265652038,-0.501702,-0.0548067,0.0,0.0,0.968338,-0.248135,-0.0265424,-0.00680145,0.724242,0.0,1,0,0,0,0,0,0
265652038,-0.501696,-0.0544301,0.0,0.0,0.968344,-0.248133,-0.02636,-0.00675463,0.724242,0.0,1,0,0,0,0,0,0
265652038,-0.501692,-0.0537494,0.0,0.0,0.968353,-0.248134,-0.0260305,-0.00667014,0.724243,0.0,1,0,0,0,0,0,0
265652038,-0.501692,-0.0535717,0.0,0.0,0.968355,-0.248135,-0.0259444,-0.00664808,0.724242,0.0,1,0,0,0,0,0,0
265652038,-0.502355,-0.0536393,0.0,0.0,0.968272,-0.248455,-0.0259749,-0.00666508,0.724242,0.0,1,0,0,0,0,0,0
265652038,-0.504587,-0.053699,0.0,0.0,0.967993,-0.249535,-0.0259964,-0.00670152,0.724242,0.0,1,0,0,0,0,0,0
265652038,-0.507599,-0.0537079,0.0,0.0,0.967616,-0.250993,-0.0259906,-0.00674178,0.724243,0.0,1,0,0,0,0,0,0
265652038,-0.5096,-0.0536995,0.0,0.0,0.967365,-0.251961,-0.0259797,-0.00676671,0.724242,0.0,1,0,0,0,0,0,0
265652038,-0.512067,-0.0530324,0.0,0.0,0.967062,-0.253156,-0.0256488,-0.00671432,0.724242,0.0,1,0,0,0,0,0,0
265652038,-0.517223,-0.0521253,0.0,0.0,0.966418,-0.255651,-0.0251931,-0.00666447,0.724034,0.0,1,0,0,0,0,0,0
265652038,-0.522287,-0.0519208,0.0,0.0,0.96577,-0.258098,-0.0250774,-0.00670184,0.723748,0.0,1,0,0,0,0,0,0
265652038,-0.524804,-0.0520228,0.0,0.0,0.965443,-0.259313,-0.0251182,-0.00674663,0.723892,0.0,1,0,0,0,0,0,0
265652038,-0.526067,-0.0521006,0.0,0.0,0.965278,-0.259923,-0.0251515,-0.00677259,0.72421,0.0,1,0,0,0,0,0,0
265652038,-0.527696,-0.0521093,0.0,0.0,0.965066,-0.260709,-0.0251502,-0.00679422,0.724299,0.0,1,0,0,0,0,0,0
265652038,-0.529707,-0.0524284,0.0,0.0,0.964799,-0.261678,-0.0252973,-0.00686125,0.72427,0.0,1,0,0,0,0,0,0
265652038,-0.530793,-0.0528758,0.0,0.0,0.964651,-0.2622,-0.0255093,-0.00693363,0.724241,0.0,1,0,0,0,0,0,0
265652038,-0.5308,-0.0533097,0.0,0.0,0.964645,-0.262202,-0.0257185,-0.00699061,0.724237,0.0,1,0,0,0,0,0,0
265652038,-0.53059,-0.0543757,0.0,0.0,0.964658,-0.262097,-0.0262335,-0.00712762,0.72424,0.0,1,0,0,0,0,0,0
265652038,-0.530511,-0.055678,0.0,0.0,0.964652,-0.262054,-0.0268619,-0.00729722,0.724034,0.0,1,0,0,0,0,0,0
265652038,-0.530511,-0.055678,0.0,0.0,0.964652,-0.262054,-0.0268619,-0.00729722,0.724034,0.0,1,0,0,0,0,0,0
265652038,-0.530192,-0.0562816,0.0,0.0,0.964685,-0.261898,-0.0271542,-0.00737197,0.723749,0.0,1,0,0,0,0,0,0
265652038,-0.529992,-0.0561196,0.0,0.0,0.964714,-0.261802,-0.0270768,-0.00734805,0.72421,0.0,1,0,0,0,0,0,0
265652038,-0.529992,-0.0561196,0.0,0.0,0.964714,-0.261802,-0.0270768,-0.00734805,0.72421,0.0,1,0,0,0,0,0,0
265652038,-0.530494,-0.0560779,0.0,0.0,0.964648,-0.262045,-0.0270548,-0.00734938,0.724299,0.0,1,0,0,0,0,0,0
265652038,-0.530634,-0.056419,0.0,0.0,0.964625,-0.262111,-0.0272188,-0.00739598,0.72427,0.0,1,0,0,0,0,0,0
265652038,-0.532243,-0.0572154,0.0,0.0,0.964403,-0.262884,-0.0275969,-0.00752256,0.724241,0.0,1,0,0,0,0,0,0
265652038,-0.539101,-0.0581051,0.0,0.0,0.963484,-0.266186,-0.0279996,-0.00773556,0.724237,0.0,1,0,0,0,0,0,0
265652038,-0.551585,-0.0586091,0.0,0.0,0.961797,-0.272193,-0.0281931,-0.00797876,0.72424,0.0,1,0,0,0,0,0,0
265652038,-0.564788,-0.0586211,0.0,0.0,0.959979,-0.278536,-0.0281455,-0.00816637,0.724243,0.0,1,0,0,0,0,0,0
265652038,-0.574838,-0.0585268,0.0,0.0,0.958568,-0.283357,-0.028059,-0.00829434,0.724243,0.0,1,0,0,0,0,0,0
265652038,-0.583912,-0.0584896,0.0,0.0,0.957273,-0.287703,-0.0280033,-0.00841623,0.724243,0.0,1,0,0,0,0,0,0
265652038,-0.594238,-0.0588255,0.0,0.0,0.95577,-0.29264,-0.0281199,-0.00860982,0.724242,0.0,1,0,0,0,0,0,0
265652038,-0.602567,-0.0592879,0.0,0.0,0.954537,-0.296616,-0.0283046,-0.00879545,0.724242,0.0,1,0,0,0,0,0,0
265652038,-0.606603,-0.0593931,0.0,0.0,0.953935,-0.298541,-0.0283369,-0.00886824,0.724242,0.0,1,0,0,0,0,0,0
265652038,-0.606603,-0.0593931,0.0,0.0,0.953935,-0.298541,-0.0283369,-0.00886824,0.724242,0.0,1,0,0,0,0,0,0
265652038,-0.608781,-0.0596725,0.0,0.0,0.953605,-0.299579,-0.0284604,-0.00894095,0.724242,0.0,1,0,0,0,0,0,0
265652038,-0.613432,-0.0604173,0.0,0.0,0.952895,-0.301792,-0.0287945,-0.00911949,0.724243,0.0,1,0,0,0,0,0,0
265652038,-0.621345,-0.0606379,0.0,0.0,0.95169,-0.305559,-0.0288631,-0.00926706,0.724242,0.0,1,0,0,0,0,0,0
265652038,-0.627995,-0.0595802,0.0,0.0,0.950685,-0.308726,-0.0283294,-0.0091997,0.724242,0.0,1,0,0,0,0,0,0
265652038,-0.632875,-0.0578218,0.0,0.0,0.949953,-0.311053,-0.0274716,-0.00899532,0.724242,0.0,1,0,0,0,0,0,0
265652038,-0.639999,-0.0557236,0.0,0.0,0.948867,-0.314444,-0.026444,-0.00876324,0.724243,0.0,1,0,0,0,0,0,0
265652038,-0.647304,-0.0533059,0.0,0.0,0.947743,-0.317918,-0.0252661,-0.00847547,0.724242,0.0,1,0,0,0,0,0,0
265652038,-0.650265,-0.051499,0.0,0.0,0.947294,-0.319328,-0.0243977,-0.00822435,0.724242,0.0,1,0,0,0,0,0,0
265652038,-0.65059,-0.0513047,0.0,0.0,0.947245,-0.319483,-0.0243044,-0.00819729,0.724242,0.0,1,0,0,0,0,0,0
265652038,-0.650793,-0.0519178,0.0,0.0,0.947205,-0.319577,-0.0245939,-0.00829773,0.724243,0.0,1,0,0,0,0,0,0
265652038,-0.64948,-0.0518513,0.0,0.0,0.947415,-0.318955,-0.0245679,-0.00827097,0.724242,0.0,1,0,0,0,0,0,0
265652038,-0.645975,-0.0517067,0.0,0.0,0.947975,-0.317295,-0.0245138,-0.00820496,0.724242,0.0,1,0,0,0,0,0,0
265652038,-0.639308,-0.0529907,0.0,0.0,0.949011,-0.314128,-0.0251502,-0.00832487,0.723825,0.0,1,0,0,0,0,0,0
265652038,-0.62826,-0.0554801,0.0,0.0,0.9507,-0.30887,-0.0263792,-0.00857027,0.723254,0.0,1,0,0,0,0,0,0
265652038,-0.617536,-0.057473,0.0,0.0,0.952315,-0.30376,-0.0273737,-0.0087314,0.723541,0.0,1,0,0,0,0,0,0
265652038,-0.612426,-0.0580531,0.0,0.0,0.95308,-0.301323,-0.0276724,-0.00874882,0.723968,0.0,1,0,0,0,0,0,0
265652038,-0.612426,-0.0580531,0.0,0.0,0.95308,-0.301323,-0.0276724,-0.00874882,0.723968,0.0,1,0,0,0,0,0,0
265652038,-0.605907,-0.0576986,0.0,0.0,0.954062,-0.298216,-0.0275317,-0.00860571,0.723452,0.0,1,0,0,0,0,0,0
265652038,-0.605907,-0.0576986,0.0,0.0,0.954062,-0.298216,-0.0275317,-0.00860571,0.723452,0.0,1,0,0,0,0,0,0
265652038,-0.596411,-0.057667,0.0,0.0,0.955468,-0.293683,-0.0275571,-0.00847026,0.723857,0.0,1,0,0,0,0,0,0
265652038,-0.569595,-0.0576903,0.0,0.0,0.959319,-0.280846,-0.0276794,-0.00810331,0.724255,0.0,1,0,0,0,0,0,0
265652038,-0.517177,-0.0580362,0.0,0.0,0.966345,-0.255609,-0.0280494,-0.00741937,0.724322,0.0,1,0,0,0,0,0,0
265652038,-0.456042,-0.059815,0.0,0.0,0.97368,-0.225949,-0.029129,-0.00675959,0.72427,0.0,1,0,0,0,0,0,0
265652038,-0.408617,-0.0627223,0.0,0.0,0.97872,-0.202791,-0.0307039,-0.00636183,0.724237,0.0,1,0,0,0,0,0,0
265652038,-0.392138,-0.0631173,0.0,0.0,0.980352,-0.194718,-0.0309488,-0.00614708,0.724235,0.0,1,0,0,0,0,0,0
265652038,-0.40891,-0.0587206,0.0,0.0,0.97875,-0.202946,-0.0287447,-0.00596027,0.724032,0.0,1,0,0,0,0,0,0
265652038,-0.436876,-0.0530454,0.0,0.0,0.975894,-0.216629,-0.0258894,-0.00574693,0.72354,0.0,1,0,0,0,0,0,0
265652038,-0.454191,-0.0504847,0.0,0.0,0.974014,-0.225077,-0.0245916,-0.00568267,0.723398,0.0,1,0,0,0,0,0,0
265652038,-0.458755,-0.0499876,0.0,0.0,0.973504,-0.2273,-0.0243366,-0.00568228,0.723859,0.0,1,0,0,0,0,0,0
265652038,-0.458044,-0.0496431,0.0,0.0,0.973589,-0.226955,-0.0241709,-0.00563454,0.724266,0.0,1,0,0,0,0,0,0
265652038,-0.455232,-0.0502753,0.0,0.0,0.973899,-0.225585,-0.0244867,-0.00567186,0.724326,0.0,1,0,0,0,0,0,0
265652038,-0.45069,-0.0515697,0.0,0.0,0.974393,-0.223369,-0.0251302,-0.00576081,0.724269,0.0,1,0,0,0,0,0,0
265652038,-0.447245,-0.0532487,0.0,0.0,0.974755,-0.221685,-0.0259583,-0.0059036,0.724236,0.0,1,0,0,0,0,0,0
265652038,-0.44653,-0.0556022,0.0,0.0,0.974803,-0.221329,-0.0271076,-0.00615478,0.724235,0.0,1,0,0,0,0,0,0
265652038,-0.44694,-0.0574676,0.0,0.0,0.974732,-0.221523,-0.0280155,-0.00636696,0.724241,0.0,1,0,0,0,0,0,0
265652038,-0.446239,-0.0580272,0.0,0.0,0.974802,-0.22118,-0.0282904,-0.00641901,0.724243,0.0,1,0,0,0,0,0,0
265652038,-0.444244,-0.0581998,0.0,0.0,0.975019,-0.220207,-0.028381,-0.00640979,0.724243,0.0,1,0,0,0,0,0,0
265652038,-0.442982,-0.0591473,0.0,0.0,0.975144,-0.219588,-0.028847,-0.00649591,0.724243,0.0,1,0,0,0,0,0,0
265652038,-0.442575,-0.0611192,0.0,0.0,0.97516,-0.219383,-0.0298098,-0.00670635,0.724242,0.0,1,0,0,0,0,0,0
265652038,-0.44234,-0.0633178,0.0,0.0,0.975153,-0.219262,-0.0308826,-0.0069439,0.724242,0.0,1,0,0,0,0,0,0
265652038,-0.442002,-0.0644063,0.0,0.0,0.975173,-0.219093,-0.0314145,-0.00705793,0.724242,0.0,1,0,0,0,0,0,0
265652038,-0.441592,-0.0643781,0.0,0.0,0.975218,-0.218893,-0.0314022,-0.00704839,0.724034,0.0,1,0,0,0,0,0,0
265652038,-0.441507,-0.0641544,0.0,0.0,0.975231,-0.218852,-0.0312934,-0.00702258,0.723748,0.0,1,0,0,0,0,0,0
265652038,-0.440893,-0.0640774,0.0,0.0,0.975299,-0.218553,-0.031258,-0.00700456,0.723683,0.0,1,0,0,0,0,0,0
265652038,-0.43969,-0.0647549,0.0,0.0,0.97542,-0.217964,-0.0315926,-0.00705959,0.723715,0.0,1,0,0,0,0,0,0
265652038,-0.439035,-0.0666758,0.0,0.0,0.97546,-0.217638,-0.0325319,-0.00725827,0.723948,0.0,1,0,0,0,0,0,0
265652038,-0.439028,-0.0689086,0.0,0.0,0.975424,-0.217626,-0.0336208,-0.00750112,0.724237,0.0,1,0,0,0,0,0,0
265652038,-0.439154,-0.0706819,0.0,0.0,0.97538,-0.217681,-0.0344852,-0.00769624,0.724298,0.0,1,0,0,0,0,0,0
265652038,-0.438871,-0.0718933,0.0,0.0,0.97539,-0.217538,-0.0350771,-0.00782312,0.724264,0.0,1,0,0,0,0,0,0
265652038,-0.438079,-0.0723248,0.0,0.0,0.975468,-0.21715,-0.0352907,-0.00785609,0.72424,0.0,1,0,0,0,0,0,0
265652038,-0.435193,-0.0732403,0.0,0.0,0.975765,-0.215739,-0.0357486,-0.00790392,0.724237,0.0,1,0,0,0,0,0,0
265652038,-0.426335,-0.0768052,0.0,0.0,0.976645,-0.211401,-0.0375242,-0.00812234,0.724241,0.0,1,0,0,0,0,0,0
265652038,-0.414025,-0.0815854,0.0,0.0,0.977835,-0.205366,-0.0399107,-0.00838209,0.724243,0.0,1,0,0,0,0,0,0
265652038,-0.414025,-0.0815854,0.0,0.0,0.977835,-0.205366,-0.0399107,-0.00838209,0.724243,0.0,1,0,0,0,0,0,0
265652038,-0.406244,-0.0839782,0.0,0.0,0.978578,-0.20155,-0.0411138,-0.00846789,0.724243,0.0,1,0,0,0,0,0,0
265652038,-0.402755,-0.0841008,0.0,0.0,0.978926,-0.199842,-0.0411885,-0.00840841,0.724242,0.0,1,0,0,0,0,0,0
265652038,-0.402755,-0.0841008,0.0,0.0,0.978926,-0.199842,-0.0411885,-0.00840841,0.724242,0.0,1,0,0,0,0,0,0
265652038,-0.402189,-0.0848377,0.0,0.0,0.978967,-0.199562,-0.0415516,-0.00847028,0.724242,0.0,1,0,0,0,0,0,0
265652038,-0.401521,-0.0844136,0.0,0.0,0.979043,-0.199237,-0.0413468,-0.00841416,0.724243,0.0,1,0,0,0,0,0,0
265652038,-0.400061,-0.0834504,0.0,0.0,0.979208,-0.198526,-0.0408813,-0.00828835,0.724242,0.0,1,0,0,0,0,0,0
265652038,-0.39899,-0.0838397,0.0,0.0,0.979306,-0.198,-0.0410764,-0.008305,0.724242,0.0,1,0,0,0,0,0,0
265652038,-0.39888,-0.0854966,0.0,0.0,0.979282,-0.197939,-0.0418882,-0.00846673,0.724242,0.0,1,0,0,0,0,0,0
