timestamp,roll,pitch,yaw,thrust
272791985,-0.0957025,-0.0588435,0.00225369,0.0
407514413,0.30131,-1.0396,-0.125907,0.0
407522699,0.302938,-1.03952,-0.126584,0.0
407534290,0.30511,-1.03941,-0.127487,0.0
407546322,0.307025,-1.03931,-0.128284,0.0
407555172,0.308515,-1.03923,-0.128903,0.0
407565596,0.309818,-1.03917,-0.129444,0.0
407575917,0.310815,-1.03911,-0.129859,0.0
407587902,0.310118,-1.03915,-0.129569,0.0
407596775,0.308324,-1.03924,-0.128823,0.0
407608525,0.303724,-1.03948,-0.126911,0.0
407615982,0.299205,-1.03971,-0.125032,0.0
407632761,0.287491,-1.04028,-0.120159,0.0
407639944,0.280711,-1.0406,-0.117337,0.0
407655980,0.265959,-1.04128,-0.111195,0.0
407668331,0.254708,-1.04177,-0.106507,0.0
407676741,0.247342,-1.04208,-0.103437,0.0
407687945,0.236645,-1.04251,-0.0989778,0.0
407700054,0.2265,-1.0429,-0.0947466,0.0
407708106,0.219979,-1.04315,-0.0920258,0.0
407715924,0.213948,-1.04337,-0.0895092,0.0
407731991,0.203262,-1.04374,-0.0850484,0.0
407743989,0.196791,-1.04396,-0.0823467,0.0
407755940,0.192167,-1.04411,-0.0804155,0.0
407766108,0.190204,-1.04417,-0.0795957,0.0
407776374,0.18868,-1.04422,-0.0789591,0.0
407783978,0.188785,-1.04421,-0.0790027,0.0
407800338,0.190971,-1.04414,-0.0799161,0.0
407807993,0.193182,-1.04407,-0.0808393,0.0
407823963,0.199529,-1.04386,-0.0834899,0.0
407832133,0.203416,-1.04373,-0.0851128,0.0
407848086,0.212234,-1.04343,-0.0887937,0.0
407859875,0.219386,-1.0366,-0.0912004,0.0
407871396,0.224236,-1.00619,-0.0904922,0.0
407880370,0.231158,-0.960776,-0.0890904,0.0
407887893,0.235496,-0.931229,-0.0879805,0.0
407904214,0.243297,-0.872419,-0.0851719,0.0
407911942,0.246747,-0.84202,-0.0833773,0.0
407928246,0.252788,-0.782624,-0.0794059,0.0
407940330,0.256879,-0.737945,-0.0760929,0.0
407952032,0.260791,-0.692089,-0.0724591,0.0
407960486,0.263,-0.663212,-0.0700284,0.0
407971995,0.265842,-0.618936,-0.0660648,0.0
407979885,0.267228,-0.591149,-0.0634304,0.0
407995996,0.2684,-0.537738,-0.0579544,0.0
408003888,0.268164,-0.511388,-0.0550656,0.0
408016213,0.266797,-0.473469,-0.0507208,0.0
408027960,0.264181,-0.438546,-0.0465156,0.0
408039933,0.26069,-0.404055,-0.0422865,0.0
408053938,0.256243,-0.366942,-0.0377428,0.0
408065592,0.252148,-0.334792,-0.0338818,0.0
408077914,0.248264,-0.306667,-0.0305542,0.0
408085894,0.246023,-0.287463,-0.0283807,0.0
408098110,0.243087,-0.262929,-0.0256467,0.0
408109588,0.240224,-0.241327,-0.0232607,0.0
408118014,0.238196,-0.227866,-0.0217766,0.0
408129564,0.234612,-0.21083,-0.0198436,0.0
408137725,0.231762,-0.199914,-0.0185862,0.0
408153548,0.224341,-0.180847,-0.0162722,0.0
408165595,0.217164,-0.168728,-0.0146937,0.0
408173603,0.211623,-0.161426,-0.0136973,0.0
408186188,0.201842,-0.152055,-0.0123032,0.0
408193544,0.194744,-0.145613,-0.0113659,0.0
408209968,0.179432,-0.137064,-0.00985441,0.0
408217568,0.171449,-0.132468,-0.00909889,0.0
408233540,0.155223,-0.12758,-0.00793152,0.0
408245545,0.143217,-0.12497,-0.00716694,0.0
408253692,0.135452,-0.123675,-0.00670736,0.0
408265666,0.12364,-0.12333,-0.00610438,0.0
408277567,0.111791,-0.123514,-0.00552681,0.0
408285568,0.103855,-0.123212,-0.00512143,0.0
408297533,0.091797,-0.124761,-0.00458314,0.0
408309523,0.0796388,-0.127466,-0.00406186,0.0
408321544,0.0679398,-0.131426,-0.0035725,0.0
408333565,0.0567754,-0.134977,-0.00306589,0.0
408341767,0.0496335,-0.138631,-0.00275265,0.0
408353525,0.0390966,-0.142864,-0.00223438,0.0
408361587,0.0321854,-0.146882,-0.00189109,0.0
408373587,0.0215521,-0.151605,-0.001307,0.0
408389904,0.00720039,-0.157425,-0.00045341,0.0
408401585,-0.00340337,-0.162183,0.000220787,0.0
408413558,-0.0138001,-0.165719,0.000914781,0.0
408421787,-0.0206177,-0.168899,0.00139295,0.0
408433558,-0.030426,-0.172257,0.00209654,0.0
408445581,-0.0396379,-0.176523,0.00279904,0.0
408449933,-0.0423632,-0.176813,0.00299644,0.0
408469533,-0.0546745,-0.182738,0.00399708,0.0
408479712,-0.0586018,-0.185637,0.00435226,0.0
408489475,-0.0635348,-0.188566,0.00479322,0.0
408501530,-0.0676171,-0.192621,0.00521106,0.0
408509614,-0.0699095,-0.194443,0.00543878,0.0
408521522,-0.072513,-0.197044,0.0057169,0.0
408529605,-0.0736909,-0.198524,0.00585346,0.0
408543170,-0.0753592,-0.200405,0.00604279,0.0
408559947,-0.0773018,-0.203033,0.00627993,0.0
408571192,-0.0797945,-0.204015,0.00651391,0.0
408581572,-0.0819361,-0.205813,0.0067478,0.0
408591870,-0.0861789,-0.206305,0.00711446,0.0
408599117,-0.0894089,-0.206611,0.00739231,0.0
408615159,-0.0966749,-0.206154,0.00797592,0.0
408623215,-0.100743,-0.204706,0.00825352,0.0
408639200,-0.109625,-0.204154,0.00895791,0.0
408651104,-0.116862,-0.203307,0.00951049,0.0
408659511,-0.12168,-0.203012,0.00988877,0.0
408672068,-0.128443,-0.202338,0.0104047,0.0
408683173,-0.134337,-0.201853,0.010857,0.0
408692149,-0.137405,-0.201628,0.011093,0.0
408703192,-0.139935,-0.201312,0.01128,0.0
408715199,-0.139479,-0.201256,0.0112401,0.0
408723359,-0.137508,-0.201122,0.0110735,0.0
408731169,-0.133852,-0.201024,0.0107733,0.0
408747482,-0.121382,-0.201132,0.00977319,0.0
408759267,-0.107447,-0.200795,0.00863529,0.0
408771360,-0.089705,-0.201194,0.00722233,0.0
408783180,-0.0693836,-0.201128,0.00558343,0.0
408795179,-0.0471762,-0.20319,0.00383475,0.0
408803416,-0.0319727,-0.203231,0.00259928,0.0
408811158,-0.0168857,-0.203836,0.00137678,0.0
408827092,0.0121407,-0.204412,-0.000992686,0.0
408835122,0.0252084,-0.202765,-0.00204463,0.0
408847298,0.0427974,-0.203036,-0.0034761,0.0
408855162,0.0534634,-0.201524,-0.00431033,0.0
408871280,0.0738389,-0.201311,-0.00594755,0.0
408883204,0.0880906,-0.200736,-0.00707612,0.0
408893704,0.09643,-0.200345,-0.00773156,0.0
408903188,0.10627,-0.200461,-0.0085263,0.0
408913949,0.111025,-0.200488,-0.00890954,0.0
408927113,0.11684,-0.20132,-0.00941572,0.0
408939161,0.118091,-0.201763,-0.00953769,0.0
408947138,0.11771,-0.202252,-0.0095299,0.0
408959107,0.116108,-0.20279,-0.00942502,0.0
408967100,0.114281,-0.203384,-0.00930366,0.0
408983270,0.109352,-0.204712,-0.00895995,0.0
408993791,0.106405,-0.205457,-0.00874994,0.0
409003111,0.101571,-0.207166,-0.00842149,0.0
409011255,0.0981405,-0.208278,-0.00818042,0.0
409027376,0.091709,-0.211352,-0.00775663,0.0
409040334,0.0865402,-0.213913,-0.0074078,0.0
409048746,0.0825793,-0.215854,-0.00713261,0.0
409061571,0.0764696,-0.217712,-0.00666142,0.0
409068721,0.0718331,-0.219724,-0.00631513,0.0
409076723,0.0668833,-0.220661,-0.00590482,0.0
409092759,0.0558775,-0.22493,-0.00502826,0.0
409100931,0.0502665,-0.227717,-0.00457923,0.0
409112871,0.0419683,-0.231308,-0.00388341,0.0
409120744,0.0365927,-0.23468,-0.00343527,0.0
409136983,0.0266802,-0.239062,-0.00255138,0.0
409148743,0.0194822,-0.242331,-0.00188849,0.0
409157084,0.0146637,-0.244173,-0.00143221,0.0
409169315,0.00754234,-0.246479,-0.000743613,0.0
409180772,0.000626588,-0.248756,-6.23469e-05,0.0
409190930,-0.00385798,-0.249984,0.000385773,0.0
409200738,-0.00983091,-0.252018,0.00099103,0.0
409211150,-0.0132122,-0.252408,0.00133396,0.0
409220740,-0.0171364,-0.2543,0.00174314,0.0
409228741,-0.0191905,-0.255352,0.00196018,0.0
409244682,-0.0218845,-0.255444,0.00223616,0.0
409252915,-0.0227808,-0.254143,0.00231589,0.0
409268898,-0.0244136,-0.255522,0.00249537,0.0
409282330,-0.0258632,-0.239799,0.00248088,0.0
409292843,-0.0278946,-0.241048,0.00268968,0.0
409300755,-0.0294518,-0.200485,0.00236196,0.0
409312889,-0.0317789,-0.202095,0.00256908,0.0
409320739,-0.0331147,-0.161452,0.00213869,0.0
409334817,-0.0346555,-0.163486,0.00226642,0.0
409345400,-0.035179,-0.137807,0.00193929,0.0
409358782,-0.0347284,-0.140542,0.00195244,0.0
409368780,-0.0330043,-0.118308,0.00156195,0.0
409376740,-0.0314229,-0.120521,0.00151492,0.0
409392815,-0.027443,-0.100876,0.00110738,0.0
409400687,-0.0251294,-0.103423,0.00103962,0.0
409412872,-0.0215476,-0.0935541,0.000806366,0.0
409425168,-0.0175172,-0.0980461,0.000687009,0.0
409432853,-0.0145455,-0.101465,0.000590352,0.0
409445315,-0.0103091,-0.104787,0.000432107,0.0
409456820,-0.00676869,-0.112573,0.00030479,0.0
409464889,-0.00505915,-0.11667,0.000236102,0.0
409476754,-0.0034914,-0.125869,0.000175784,0.0
409488742,-0.00248256,-0.132745,0.000131819,0.0
409497126,-0.0017175,-0.137312,9.43333e-05,0.0
409508659,0.000728779,-0.146909,-4.28257e-05,0.0
409519891,0.00333488,-0.152303,-0.000203164,0.0
409530372,0.00782528,-0.1588,-0.000497062,0.0
409540656,0.0108809,-0.164395,-0.000715512,0.0
409550418,0.0153985,-0.169237,-0.00104241,0.0
409558298,0.0183749,-0.174898,-0.00128551,0.0
409574405,0.0240179,-0.18709,-0.00179746,0.0
409586354,0.0274193,-0.194749,-0.00213604,0.0
409594473,0.02939,-0.209807,-0.00246661,0.0
409606340,0.0316611,-0.216594,-0.00274319,0.0
409618335,0.0329392,-0.24986,-0.00329227,0.0
409626739,0.0333481,-0.254026,-0.00338872,0.0
409638340,0.0334546,-0.31691,-0.00424108,0.0
409646998,0.0335788,-0.320796,-0.00430904,0.0
409658711,0.0345912,-0.397325,-0.00549792,0.0
409670555,0.0370823,-0.401677,-0.00595847,0.0
409679074,0.0395565,-0.444105,-0.00702748,0.0
409686359,0.0425259,-0.445814,-0.00758419,0.0
409702400,0.0506493,-0.44878,-0.00909339,0.0
409714296,0.0581512,-0.448159,-0.0104263,0.0
409726351,0.065909,-0.4377,-0.011542,0.0
409736699,0.0711304,-0.435954,-0.0124072,0.0
409746377,0.0782375,-0.428492,-0.013414,0.0
409754388,0.0821402,-0.425866,-0.0139973,0.0
409770337,0.0867981,-0.420228,-0.0145959,0.0
409780746,0.0873438,-0.41706,-0.014577,0.0
409794350,0.0840754,-0.410013,-0.013794,0.0
409802397,0.0801793,-0.406174,-0.0130312,0.0
409818525,0.0681965,-0.39876,-0.0108803,0.0
409826362,0.0604881,-0.39528,-0.00956576,0.0
409838430,0.0466328,-0.391714,-0.00730753,0.0
409846591,0.0366902,-0.388529,-0.00570249,0.0
409866336,0.00905484,-0.383022,-0.00138729,0.0
409874658,-0.00249503,-0.380143,0.000379388,0.0
409886382,-0.0194261,-0.375705,0.00291945,0.0
409898264,-0.0350922,-0.371843,0.00521986,0.0
409908363,-0.0442164,-0.3656,0.00646688,0.0
409918251,-0.0556235,-0.36187,0.00805272,0.0
409926392,-0.0618801,-0.357278,0.00884516,0.0
409938330,-0.069421,-0.353334,0.00981405,0.0
409946364,-0.0732118,-0.351506,0.0102967,0.0
409962432,-0.077991,-0.346031,0.0107984,0.0
409970292,-0.0793141,-0.344624,0.0109371,0.0
409986617,-0.080436,-0.340431,0.010957,0.0
409998302,-0.0802895,-0.336988,0.0108264,0.0
410006816,-0.0799887,-0.33498,0.0107215,0.0
410019179,-0.0784119,-0.331261,0.0103933,0.0
410028808,-0.0769453,-0.329166,0.0101343,0.0
410039901,-0.074409,-0.325333,0.00968595,0.0
410052428,-0.0713036,-0.322795,0.00920909,0.0
410063928,-0.0677601,-0.319883,0.00867225,0.0
410076331,-0.0642008,-0.317412,0.00815302,0.0
410083929,-0.0618358,-0.316054,0.00781897,0.0
410097279,-0.0585757,-0.31376,0.00735282,0.0
410107989,-0.0563184,-0.312818,0.00704816,0.0
410118272,-0.0552417,-0.31158,0.006886,0.0
410127930,-0.0544814,-0.311329,0.00678573,0.0
410135920,-0.0544455,-0.310449,0.00676209,0.0
410151997,-0.0551833,-0.30973,0.0068379,0.0
410164305,-0.056028,-0.309107,0.00692862,0.0
410172162,-0.0564359,-0.309593,0.00699006,0.0
410183922,-0.0568468,-0.30926,0.00703338,0.0
410195960,-0.0565525,-0.310017,0.00701409,0.0
410207952,-0.0558888,-0.308234,0.00689189,0.0
410219905,-0.0553309,-0.307708,0.00681142,0.0
410228226,-0.0550924,-0.30325,0.0066838,0.0
410239899,-0.0554909,-0.302606,0.00671786,0.0
410247856,-0.0561138,-0.302191,0.00678397,0.0
410263973,-0.0586336,-0.299177,0.00701802,0.0
410276439,-0.0614739,-0.300314,0.00738607,0.0
410287900,-0.0645545,-0.299656,0.00773939,0.0
410299959,-0.0676743,-0.300844,0.00814575,0.0
410307895,-0.0695348,-0.300492,0.00836002,0.0
410320337,-0.071858,-0.300276,0.00863329,0.0
410332073,-0.0736125,-0.300095,0.00883886,0.0
410340483,-0.0744894,-0.300108,0.00894458,0.0
410351966,-0.0751453,-0.299062,0.00899194,0.0
410359879,-0.0754206,-0.299042,0.00902432,0.0
410375857,-0.076347,-0.297017,0.00907337,0.0
410387940,-0.0776352,-0.295437,0.00917749,0.0
410396105,-0.0785832,-0.295433,0.00928948,0.0
410403866,-0.0791482,-0.295301,0.00935214,0.0
410415898,-0.079129,-0.294917,0.00933772,0.0
410432005,-0.0764128,-0.293861,0.00898471,0.0
410443907,-0.0717801,-0.293699,0.00843503,0.0
410452108,-0.0675429,-0.291651,0.00788152,0.0
410459922,-0.0626019,-0.291315,0.00729628,0.0
410475880,-0.0519259,-0.288871,0.00600081,0.0
410483892,-0.0463571,-0.288241,0.00534543,0.0
410501004,-0.0338325,-0.286595,0.00387873,0.0
410513827,-0.0242982,-0.285517,0.0027751,0.0
410521480,-0.0184807,-0.285001,0.00210684,0.0
410529519,-0.0126439,-0.284068,0.00143671,0.0
410549524,0.000409189,-0.282242,-4.61961e-05,0.0
410561527,0.00669105,-0.281233,-0.0007527,0.0
410573771,0.0118669,-0.280282,-0.00133044,0.0
410583833,0.0146319,-0.27981,-0.00163768,0.0
410593826,0.0172553,-0.279256,-0.00192749,0.0
410602568,0.0183602,-0.279153,-0.00205016,0.0
410617559,0.0194576,-0.279069,-0.00217205,0.0
410625584,0.0196199,-0.279195,-0.00219116,0.0
410641656,0.0207869,-0.280021,-0.00232836,0.0
410654260,0.0227745,-0.280585,-0.00255614,0.0
410661884,0.0244798,-0.281187,-0.00275345,0.0
410674270,0.0271516,-0.28207,-0.00306358,0.0
410685539,0.0293599,-0.281488,-0.00330593,0.0
410693843,0.0305214,-0.282107,-0.00344429,0.0
410705468,0.031979,-0.280301,-0.00358569,0.0
410713861,0.0328218,-0.28109,-0.00369057,0.0
410725588,0.0334512,-0.28091,-0.00375893,0.0
410741968,0.0324368,-0.282856,-0.00367018,0.0
410756037,0.0306338,-0.283905,-0.00347901,0.0
410769721,0.0263975,-0.28614,-0.00302146,0.0
410777988,0.0243296,-0.28777,-0.00280061,0.0
410789500,0.0220476,-0.290107,-0.00255854,0.0
410797592,0.0209173,-0.291726,-0.0024409,0.0
410813509,0.0194876,-0.294872,-0.00229858,0.0
410821575,0.0193797,-0.296378,-0.00229754,0.0
410837554,0.0190205,-0.299332,-0.00227742,0.0
410849980,0.0180853,-0.30099,-0.00217744,0.0
410857777,0.0167774,-0.30215,-0.00202775,0.0
410870459,0.0140539,-0.303392,-0.00170555,0.0
410881462,0.0121498,-0.304368,-0.00147922,0.0
410891739,0.012443,-0.305029,-0.0015182,0.0
410901615,0.014978,-0.306756,-0.00183786,0.0
410909532,0.0177664,-0.308049,-0.0021892,0.0
410925600,0.0245014,-0.311437,-0.00305235,0.0
410933488,0.0279696,-0.314148,-0.00351478,0.0
410949542,0.0340798,-0.317362,-0.00432651,0.0
410961496,0.0374425,-0.320799,-0.00480496,0.0
410969828,0.0390749,-0.322068,-0.00503433,0.0
410981452,0.0399755,-0.323155,-0.00516775,0.0
410989502,0.0392741,-0.323774,-0.00508678,0.0
411002522,0.0366104,-0.322965,-0.00472988,0.0
411011215,0.0338507,-0.322721,-0.00436999,0.0
411027226,0.0277344,-0.318449,-0.00353295,0.0
411035180,0.0240623,-0.302003,-0.00290684,0.0
411051561,0.0162608,-0.301051,-0.00195816,0.0
411063810,0.0103535,-0.262126,-0.00108558,0.0
411071411,0.00666347,-0.262013,-0.000698367,0.0
411079195,0.00335565,-0.214461,-0.000287862,0.0
411091153,-0.000840182,-0.214358,7.20398e-05,0.0
411107203,-0.00506322,-0.183965,0.000372583,0.0
411119577,-0.00773555,-0.18446,0.000570761,0.0
411129648,-0.00928086,-0.174705,0.000648568,0.0
411139550,-0.0112643,-0.175748,0.000791878,0.0
411151266,-0.0130956,-0.165476,0.00086681,0.0
411159588,-0.0141956,-0.166963,0.000948068,0.0
411171726,-0.0156996,-0.147287,0.000924954,0.0
411181524,-0.0166953,-0.149529,0.00099859,0.0
411195084,-0.0181497,-0.135976,0.000987186,0.0
411207123,-0.0190802,-0.140956,0.00107581,0.0
411215804,-0.0194278,-0.133775,0.0010396,0.0
411227169,-0.0200392,-0.139891,0.00112134,0.0
411237547,-0.0203585,-0.13829,0.00112618,0.0
411251290,-0.0204749,-0.147594,0.00120882,0.0
411261491,-0.0204491,-0.150837,0.00123382,0.0
411275329,-0.0201023,-0.161651,0.00129985,0.0
411287580,-0.0200106,-0.170256,0.0013628,0.0
411295305,-0.0198498,-0.175905,0.00139671,0.0
411307128,-0.0196187,-0.184747,0.00144982,0.0
411319200,-0.0195186,-0.193485,0.00151066,0.0
411327736,-0.0195986,-0.19928,0.00156228,0.0
411339047,-0.0196235,-0.208049,0.00163309,0.0
411348131,-0.0197835,-0.213697,0.0016911,0.0
411363135,-0.0208003,-0.225249,0.00187415,0.0
411375164,-0.0223399,-0.233665,0.00208808,0.0
411383162,-0.024075,-0.239342,0.00230493,0.0
411395171,-0.0279634,-0.247508,0.00276859,0.0
411403144,-0.031245,-0.252694,0.00315833,0.0
411419118,-0.0372076,-0.262362,0.00390503,0.0
411427098,-0.0396554,-0.266636,0.00422977,0.0
411443259,-0.0425636,-0.274424,0.00467264,0.0
411451049,-0.0431967,-0.278171,0.00480689,0.0
411467519,-0.0442017,-0.285453,0.00504753,0.0
411479128,-0.0444079,-0.29064,0.00516322,0.0
411488768,-0.0444108,-0.294508,0.00523228,0.0
411500676,-0.045094,-0.29992,0.00541043,0.0
411511065,-0.0459344,-0.303445,0.00557604,0.0
411520684,-0.0477377,-0.308542,0.00589235,0.0
411532765,-0.050429,-0.313441,0.00632347,0.0
411541276,-0.0531194,-0.316358,0.0067229,0.0
411552837,-0.0577469,-0.321008,0.00741621,0.0
411560695,-0.0614761,-0.323959,0.00796791,0.0
411573195,-0.0682145,-0.328756,0.00897259,0.0
411584757,-0.0754199,-0.333314,0.0100584,0.0
411593596,-0.080374,-0.336425,0.0108197,0.0
411604674,-0.0879401,-0.340733,0.0119906,0.0
411612714,-0.0934871,-0.343638,0.0128563,0.0
411628729,-0.104725,-0.348835,0.0146212,0.0
411641414,-0.113519,-0.352666,0.0160247,0.0
411652663,-0.122048,-0.356235,0.0174049,0.0
411660683,-0.127455,-0.358758,0.0183061,0.0
411676921,-0.137647,-0.36339,0.0200281,0.0
411688768,-0.144552,-0.370822,0.0214652,0.0
411700707,-0.150128,-0.373874,0.0224786,0.0
411710790,-0.153035,-0.386564,0.0236927,0.0
411720732,-0.156404,-0.389301,0.0243871,0.0
411730884,-0.158114,-0.391265,0.0247788,0.0
411740691,-0.160466,-0.401899,0.0258319,0.0
411753303,-0.162496,-0.404236,0.0263118,0.0
411764719,-0.164815,-0.407442,0.0268999,0.0
411777273,-0.168288,-0.409484,0.0276062,0.0
411784853,-0.171065,-0.411702,0.0282152,0.0
411798796,-0.175765,-0.412971,0.0290822,0.0
411808694,-0.179227,-0.41925,0.030108,0.0
411816970,-0.17998,-0.420035,0.0302915,0.0
411828708,-0.17854,-0.428271,0.0306375,0.0
411840717,-0.174517,-0.429151,0.0300064,0.0
411849160,-0.171129,-0.429585,0.0294518,0.0
411860741,-0.165399,-0.44024,0.0291686,0.0
411868787,-0.161748,-0.440485,0.0285388,0.0
411880651,-0.157325,-0.450448,0.0283842,0.0
411892811,-0.152755,-0.456112,0.027904,0.0
411900902,-0.149177,-0.455982,0.0272411,0.0
411913458,-0.142583,-0.455459,0.0260044,0.0
411924754,-0.13468,-0.45828,0.0247124,0.0
411932801,-0.129095,-0.457744,0.023658,0.0
411940797,-0.12358,-0.45973,0.0227438,0.0
411952770,-0.115428,-0.458562,0.0211874,0.0
411968674,-0.105511,-0.459075,0.0193865,0.0
411979693,-0.100468,-0.458277,0.0184268,0.0
411990350,-0.0933157,-0.458166,0.0171096,0.0
412000801,-0.0888972,-0.457234,0.0162656,0.0
412010356,-0.0826411,-0.455702,0.0150694,0.0
412022409,-0.0769486,-0.453802,0.0139722,0.0
412030986,-0.0733241,-0.452333,0.0132706,0.0
412042422,-0.0682573,-0.450478,0.0123024,0.0
412054384,-0.0637601,-0.446947,0.0114014,0.0
412066352,-0.0599257,-0.445121,0.0106717,0.0
412078312,-0.0567234,-0.436321,0.00990155,0.0
412086538,-0.0546894,-0.435357,0.00952527,0.0
412098716,-0.0519903,-0.422258,0.00878258,0.0
412110316,-0.0491782,-0.420689,0.00827656,0.0
412118394,-0.0479018,-0.411,0.00793614,0.0
412130316,-0.0442293,-0.409314,0.00730294,0.0
412138384,-0.0459028,-0.403144,0.00780336,0.0
412150413,-0.0409279,-0.401224,0.00697411,0.0
412162563,-0.0482571,-0.39255,0.0089876,0.0
412171089,-0.0446207,-0.391293,0.00840399,0.0
412182459,-0.0606542,-0.380541,0.00844334,0.0
412193065,-0.0573252,-0.37957,0.00716592,0.0
412206321,-0.0781159,-0.372911,0.00480352,0.0
412218804,-0.0747224,-0.372222,0.00351482,0.0
412226827,-0.103569,-0.371448,0.00282822,0.0
412238282,-0.101138,-0.370669,0.00190626,0.0
412246324,-0.0992693,-0.369999,0.00119823,0.0
412262446,-0.125442,-0.367209,-0.000585468,0.0
412274820,-0.143516,-0.361597,-0.00204257,0.0
412288444,-0.139699,-0.3611,-0.00347182,0.0
412298999,-0.149357,-0.357094,-0.0046396,0.0
412307054,-0.147277,-0.357459,-0.00541533,0.0
412314499,-0.145394,-0.358108,-0.00612115,0.0
412334329,-0.152264,-0.35724,-0.00772005,0.0
412344605,-0.157437,-0.355395,-0.00791894,0.0
412354436,-0.157644,-0.356882,-0.00784699,0.0
412364990,-0.157371,-0.35652,-0.0076134,0.0
412374314,-0.15838,-0.357629,-0.0072404,0.0
412386308,-0.157997,-0.358705,-0.00714946,0.0
412394575,-0.158085,-0.359292,-0.00711398,0.0
412406499,-0.157228,-0.359988,-0.00743697,0.0
412418476,-0.157349,-0.361349,-0.00829592,0.0
412430374,-0.157675,-0.362593,-0.00947799,0.0
412442573,-0.153395,-0.364104,-0.0110724,0.0
412450542,-0.15142,-0.365152,-0.0124174,0.0
412462365,-0.145166,-0.366877,-0.0147488,0.0
412471383,-0.140336,-0.368349,-0.0165192,0.0
412483491,-0.133845,-0.370449,-0.01897,0.0
412492046,-0.128683,-0.371942,-0.0207663,0.0
412503960,-0.122073,-0.373827,-0.023242,0.0
412516040,-0.115366,-0.375866,-0.0257162,0.0
412524208,-0.110689,-0.377296,-0.0274615,0.0
412532059,-0.105831,-0.378703,-0.0292734,0.0
412547927,-0.0942586,-0.381534,-0.0330272,0.0
412555970,-0.0893569,-0.383042,-0.0348635,0.0
412572028,-0.0749315,-0.385904,-0.038236,0.0
412582256,-0.0712602,-0.387243,-0.0396122,0.0
412592481,-0.0543047,-0.389199,-0.0413097,0.0
412603905,-0.0503566,-0.390989,-0.0428111,0.0
412614296,-0.0272608,-0.392338,-0.0436817,0.0
412624602,-0.0246181,-0.394628,-0.0447173,0.0
412632334,-0.00296057,-0.396163,-0.0452889,0.0
412643958,-0.00114729,-0.398696,-0.046031,0.0
412656118,0.00844963,-0.401475,-0.0456869,0.0
412664099,0.00890091,-0.403345,-0.0458398,0.0
412676016,0.00793062,-0.40573,-0.046086,0.0
412686383,0.00728157,-0.407239,-0.0460082,0.0
412699911,0.00319885,-0.410242,-0.0455935,0.0
412708611,0.00133097,-0.411646,-0.0449053,0.0
412723919,-0.00121913,-0.41404,-0.0434593,0.0
412732484,-0.00316938,-0.415086,-0.0427264,0.0
412748089,-6.18605e-05,-0.417006,-0.041463,0.0
412756589,-0.00136088,-0.417789,-0.0409705,0.0
412768047,0.014719,-0.419046,-0.0376095,0.0
412779974,0.0117055,-0.420141,-0.0371222,0.0
412792101,0.033506,-0.420184,-0.030548,0.0
412800520,0.0313639,-0.421233,-0.0302231,0.0
412811990,0.0448392,-0.41929,-0.0258761,0.0
412819936,0.0432418,-0.420572,-0.0256434,0.0
412836211,0.0365146,-0.422021,-0.0260594,0.0
412848295,0.0341727,-0.424027,-0.0257179,0.0
412856426,0.00761332,-0.4286,-0.0315478,0.0
412867942,0.00582759,-0.429917,-0.0312688,0.0
412880015,-0.0334257,-0.434234,-0.0311412,0.0
412890358,-0.0354153,-0.434772,-0.0303913,0.0
412899924,-0.0658307,-0.435999,-0.0290164,0.0
412908000,-0.0682699,-0.436575,-0.028085,0.0
412923964,-0.0796041,-0.437211,-0.0266538,0.0
412931997,-0.0804563,-0.437658,-0.0263282,0.0
412947948,-0.0779708,-0.438105,-0.0263484,0.0
412960368,-0.0765574,-0.438329,-0.0268887,0.0
412968772,-0.0717142,-0.438394,-0.0275075,0.0
412981273,-0.0690542,-0.438208,-0.0285163,0.0
412989601,-0.0636677,-0.438202,-0.0293582,0.0
413002345,-0.0611897,-0.438356,-0.030305,0.0
413011983,-0.0557836,-0.43841,-0.030891,0.0
413022316,-0.0536515,-0.43825,-0.0316974,0.0
413033533,-0.0480443,-0.438581,-0.0322728,0.0
413041779,-0.0474807,-0.438709,-0.032487,0.0
413053585,-0.0447495,-0.438628,-0.0326002,0.0
413061496,-0.0448106,-0.438622,-0.0325766,0.0
413077582,-0.0483674,-0.438608,-0.0321247,0.0
413085529,-0.0490727,-0.438397,-0.0318484,0.0
413101620,-0.0578937,-0.438544,-0.0312096,0.0
413109549,-0.0587592,-0.43863,-0.0308798,0.0
413125711,-0.0700539,-0.438809,-0.030239,0.0
413137646,-0.0710954,-0.438942,-0.0298428,0.0
413149561,-0.0817462,-0.438576,-0.029747,0.0
413159939,-0.0814823,-0.438427,-0.0298419,0.0
413169474,-0.089177,-0.438167,-0.030177,0.0
413181517,-0.0871083,-0.437286,-0.0309434,0.0
413193500,-0.0893747,-0.436576,-0.0320713,0.0
413205672,-0.0874069,-0.435546,-0.0332114,0.0
413213773,-0.0848702,-0.434751,-0.0341587,0.0
413225535,-0.0810013,-0.433657,-0.0356038,0.0
413233580,-0.0761688,-0.432651,-0.0365464,0.0
413249526,-0.0700549,-0.430457,-0.0384046,0.0
413261506,-0.0662495,-0.428806,-0.0397982,0.0
413269536,-0.0632672,-0.427865,-0.0408993,0.0
413281472,-0.0612331,-0.426707,-0.0429098,0.0
413292042,-0.0568812,-0.425891,-0.0445313,0.0
413301487,-0.0558986,-0.424769,-0.0472961,0.0
413313757,-0.0472534,-0.424075,-0.0505486,0.0
413321498,-0.045024,-0.424484,-0.0530114,0.0
413333530,-0.0349178,-0.42364,-0.0568074,0.0
413345568,-0.0253781,-0.425997,-0.0606883,0.0
413356078,-0.0192492,-0.425674,-0.062998,0.0
413365554,-0.010865,-0.43025,-0.0662196,0.0
413374362,-0.0063405,-0.430045,-0.0679405,0.0
413389507,0.00147032,-0.435414,-0.0711647,0.0
413397963,0.00450784,-0.43553,-0.0723417,0.0
413413589,0.00627903,-0.439088,-0.0738918,0.0
413422005,0.00695248,-0.439852,-0.0741998,0.0
413437614,-0.0024234,-0.444927,-0.0740534,0.0
413449648,-0.00570778,-0.446502,-0.0728689,0.0
413457538,-0.0225198,-0.456346,-0.0722486,0.0
413470422,-0.0301268,-0.457618,-0.0693335,0.0
413479369,-0.0462808,-0.468557,-0.0672986,0.0
413491109,-0.0577926,-0.469245,-0.0627689,0.0
413499093,-0.0687077,-0.47592,-0.0597813,0.0
413515212,-0.0873439,-0.479653,-0.0531681,0.0
413523235,-0.0950205,-0.480011,-0.050116,0.0
413539129,-0.109018,-0.480975,-0.0456001,0.0
413551600,-0.114345,-0.481115,-0.0434752,0.0
413559284,-0.116443,-0.480845,-0.0426265,0.0
413575568,-0.116999,-0.473135,-0.0420224,0.0
413587167,-0.110004,-0.455475,-0.0421976,0.0
413597494,-0.106729,-0.454851,-0.0434541,0.0
413607184,-0.0947971,-0.440142,-0.0451697,0.0
413615184,-0.0901843,-0.439456,-0.0469165,0.0
413631150,-0.0760416,-0.434802,-0.0507021,0.0
413639352,-0.0704164,-0.434279,-0.0528332,0.0
413655272,-0.0624643,-0.436579,-0.0575297,0.0
413663195,-0.056586,-0.43616,-0.0597675,0.0
413679144,-0.0594682,-0.439594,-0.0638817,0.0
413691129,-0.0541194,-0.438798,-0.0659154,0.0
413699103,-0.0622087,-0.43866,-0.0668925,0.0
413713292,-0.0594437,-0.438388,-0.0679593,0.0
413723176,-0.0607856,-0.432103,-0.06821,0.0
413731355,-0.0603614,-0.43194,-0.0683819,0.0
413739320,-0.0605437,-0.424705,-0.067766,0.0
413751148,-0.0613972,-0.42452,-0.0674506,0.0
413767584,-0.0630889,-0.420941,-0.0660533,0.0
413775166,-0.065519,-0.420784,-0.0651213,0.0
413791584,-0.0707528,-0.420731,-0.0626627,0.0
413803266,-0.0772232,-0.420844,-0.0602111,0.0
413811137,-0.0817052,-0.421829,-0.058503,0.0
413825409,-0.0891606,-0.422324,-0.0557098,0.0
413835095,-0.0967579,-0.422614,-0.0529232,0.0
413849561,-0.101604,-0.422471,-0.0510887,0.0
413859120,-0.103554,-0.421678,-0.0503681,0.0
413870346,-0.102955,-0.421353,-0.0505923,0.0
413879141,-0.10141,-0.421066,-0.0514868,0.0
413887068,-0.0984406,-0.42116,-0.0526194,0.0
413903296,-0.0923555,-0.42217,-0.0553996,0.0
413915208,-0.0856691,-0.422997,-0.0579853,0.0
413923255,-0.0795579,-0.423503,-0.0597975,0.0
413939125,-0.0705459,-0.423773,-0.0632297,0.0
413947080,-0.0631778,-0.423627,-0.0648035,0.0
413964042,-0.0545952,-0.423349,-0.0676962,0.0
413975912,-0.0497726,-0.423219,-0.0695239,0.0
413987909,-0.0478317,-0.423619,-0.0710373,0.0
414000375,-0.0440233,-0.423471,-0.0724781,0.0
414012002,-0.0415067,-0.42703,-0.074372,0.0
414024590,-0.0367475,-0.426,-0.0761223,0.0
414032049,-0.0341915,-0.433068,-0.0780852,0.0
414043977,-0.0287015,-0.431415,-0.0800819,0.0
414056015,-0.0293161,-0.437307,-0.082589,0.0
414064141,-0.0261522,-0.436399,-0.0837256,0.0
414075948,-0.0350818,-0.438277,-0.0856614,0.0
414087905,-0.0294771,-0.437092,-0.087708,0.0
414099915,-0.0398464,-0.438014,-0.0900534,0.0
414112050,-0.0339512,-0.436836,-0.0921992,0.0
414120140,-0.0484738,-0.441149,-0.0940695,0.0
414131985,-0.0434768,-0.439595,-0.0958398,0.0
414143952,-0.0575311,-0.44641,-0.098191,0.0
414155956,-0.0536203,-0.445101,-0.0995683,0.0
414167996,-0.0611198,-0.453848,-0.10199,0.0
414178637,-0.0584132,-0.453301,-0.102968,0.0
414187982,-0.0630829,-0.462395,-0.105565,0.0
414195980,-0.0603636,-0.461908,-0.106568,0.0
414212045,-0.0674414,-0.468829,-0.109166,0.0
414220085,-0.0654772,-0.468272,-0.109871,0.0
414235965,-0.0719246,-0.469174,-0.111415,0.0
414248366,-0.0686895,-0.468164,-0.112586,0.0
414255977,-0.07301,-0.466835,-0.113571,0.0
414268511,-0.0687241,-0.465686,-0.115181,0.0
414279963,-0.0723426,-0.463958,-0.11711,0.0
414288440,-0.0673436,-0.46293,-0.118974,0.0
414299952,-0.0688135,-0.459822,-0.122426,0.0
414311989,-0.0574703,-0.457556,-0.126692,0.0
414324012,-0.0586788,-0.452064,-0.131076,0.0
414335986,-0.0457566,-0.448977,-0.13584,0.0
414344097,-0.0561363,-0.441823,-0.137885,0.0
414355988,-0.0462572,-0.438132,-0.141324,0.0
414367950,-0.0536601,-0.427039,-0.142629,0.0
414379907,-0.0491144,-0.424122,-0.144028,0.0
414392025,-0.0530508,-0.411512,-0.143355,0.0
414400100,-0.0518056,-0.409879,-0.143621,0.0
414411969,-0.0520635,-0.399444,-0.142849,0.0
414423932,-0.0498373,-0.397183,-0.143407,0.0
414432074,-0.0497244,-0.391668,-0.143069,0.0
414444133,-0.048434,-0.390078,-0.143354,0.0
414452897,-0.0479441,-0.389283,-0.14344,0.0
414459890,-0.0494215,-0.385413,-0.142938,0.0
414479905,-0.0507637,-0.382153,-0.142753,0.0
414491945,-0.0493125,-0.380832,-0.143148,0.0
414503920,-0.049281,-0.379636,-0.143501,0.0
414512217,-0.0489715,-0.379135,-0.14358,0.0
414523989,-0.0497788,-0.379255,-0.143354,0.0
414532463,-0.0510709,-0.379432,-0.142917,0.0
414547948,-0.0544274,-0.380507,-0.141735,0.0
414559893,-0.0576555,-0.38173,-0.14069,0.0
414568225,-0.0601009,-0.382838,-0.139912,0.0
414579912,-0.0633152,-0.384534,-0.138874,0.0
414590351,-0.0651578,-0.385619,-0.138317,0.0
414603920,-0.0683009,-0.387734,-0.137384,0.0
414614322,-0.0701737,-0.388797,-0.136792,0.0
414625534,-0.0732851,-0.390636,-0.135834,0.0
414634240,-0.07483,-0.391829,-0.135374,0.0
414649647,-0.0781158,-0.394031,-0.134686,0.0
414662045,-0.0786382,-0.39575,-0.134666,0.0
414673512,-0.0793705,-0.396436,-0.135494,0.0
414685584,-0.0755018,-0.396971,-0.136987,0.0
414693863,-0.0778969,-0.396835,-0.137918,0.0
414702009,-0.0746514,-0.396285,-0.13908,0.0
414717831,-0.0726951,-0.394771,-0.141901,0.0
414726110,-0.0678112,-0.394096,-0.143664,0.0
414737805,-0.0671881,-0.392156,-0.146272,0.0
414746375,-0.0622224,-0.39151,-0.148003,0.0
414761484,-0.06228,-0.387444,-0.150645,0.0
414771990,-0.0582683,-0.386743,-0.151982,0.0
414785573,-0.0609449,-0.382206,-0.154003,0.0
414798249,-0.0557404,-0.381957,-0.155834,0.0
414805728,-0.0647645,-0.378624,-0.156597,0.0
414817527,-0.0592961,-0.378164,-0.158482,0.0
414829542,-0.0681565,-0.372695,-0.159484,0.0
414837937,-0.0644677,-0.372363,-0.16081,0.0
414849717,-0.0684379,-0.365515,-0.161436,0.0
414860125,-0.065103,-0.365309,-0.162639,0.0
414873635,-0.0634857,-0.362462,-0.164398,0.0
414885986,-0.0584248,-0.363011,-0.16624,0.0
414897844,-0.0590173,-0.363236,-0.168069,0.0
414910177,-0.0535199,-0.363451,-0.170032,0.0
414917524,-0.0568822,-0.36422,-0.171411,0.0
414929956,-0.0517491,-0.364387,-0.17325,0.0
414941530,-0.0530029,-0.365201,-0.174915,0.0
414951895,-0.0507518,-0.365733,-0.175766,0.0
414961526,-0.0523082,-0.366594,-0.176755,0.0
414969503,-0.0509274,-0.367414,-0.177403,0.0
414985648,-0.0532022,-0.369668,-0.178824,0.0
414993580,-0.0511618,-0.370907,-0.179791,0.0
415009489,-0.0523907,-0.373001,-0.182245,0.0
415017513,-0.0491978,-0.373955,-0.183602,0.0
415033634,-0.0483975,-0.375868,-0.186018,0.0
415041524,-0.046576,-0.377011,-0.186899,0.0
415057804,-0.0481484,-0.379692,-0.188482,0.0
415065559,-0.0467256,-0.381086,-0.189259,0.0
415081640,-0.0518544,-0.383796,-0.190905,0.0
415090815,-0.0499283,-0.385096,-0.191862,0.0
415101531,-0.0565092,-0.38671,-0.193302,0.0
415109625,-0.0544289,-0.387665,-0.194284,0.0
415123170,-0.0591956,-0.388955,-0.195991,0.0
415131368,-0.0569518,-0.389285,-0.196949,0.0
415143190,-0.063599,-0.38971,-0.19819,0.0
415151137,-0.0615088,-0.390026,-0.199047,0.0
415163626,-0.0763705,-0.392014,-0.200878,0.0
415175165,-0.072584,-0.391732,-0.202351,0.0
415183826,-0.0698266,-0.391547,-0.203379,0.0
415199173,-0.0924619,-0.39469,-0.20666,0.0
415211214,-0.111006,-0.397176,-0.20926,0.0
415219241,-0.107066,-0.396742,-0.210713,0.0
415231857,-0.100546,-0.395805,-0.213145,0.0
415239133,-0.103841,-0.395642,-0.215047,0.0
415255595,-0.0943087,-0.394345,-0.218914,0.0
415263182,-0.0885617,-0.393675,-0.221133,0.0
415279129,-0.0786999,-0.391516,-0.225803,0.0
415287105,-0.0717987,-0.390167,-0.228373,0.0
415303255,-0.0626999,-0.385957,-0.233509,0.0
415311159,-0.0548832,-0.383905,-0.236318,0.0
415327273,-0.0469076,-0.378823,-0.241413,0.0
415339088,-0.0362015,-0.376572,-0.245309,0.0
415351176,-0.0363093,-0.375617,-0.249172,0.0
415361185,-0.0296686,-0.374277,-0.251655,0.0
415371224,-0.0300167,-0.375772,-0.256293,0.0
415379196,-0.022694,-0.374493,-0.258918,0.0
415395228,-0.0144108,-0.373962,-0.265204,0.0
415403396,-0.00684757,-0.372948,-0.267998,0.0
415419147,0.0013359,-0.370979,-0.273615,0.0
415431141,0.0118045,-0.369353,-0.277574,0.0
415439334,0.00776292,-0.368193,-0.280046,0.0
415447262,0.0145911,-0.367195,-0.282694,0.0
415463180,0.0161453,-0.364969,-0.287734,0.0
415471155,0.0227316,-0.363764,-0.290271,0.0
415483169,0.0324848,-0.362075,-0.293222,0.0
415491095,0.0299227,-0.361317,-0.296327,0.0
415507178,0.0348661,-0.357467,-0.300021,0.0
415515104,0.0420629,-0.356424,-0.300998,0.0
415531135,0.0449764,-0.347603,-0.303561,0.0
415539108,0.0486282,-0.346799,-0.303963,0.0
415555200,0.0393173,-0.339383,-0.306158,0.0
415563143,0.0395997,-0.339503,-0.306241,0.0
415575187,0.0253968,-0.338386,-0.308235,0.0
415587111,0.0274573,-0.33851,-0.309186,0.0
415603265,0.0247557,-0.337516,-0.311786,0.0
415613345,0.0293104,-0.336032,-0.313235,0.0
415623918,0.0357117,-0.333575,-0.314938,0.0
415633594,0.0414935,-0.331515,-0.315377,0.0
415644836,0.0518854,-0.328811,-0.31479,0.0
415653244,0.0557866,-0.326797,-0.314831,0.0
415664685,0.060248,-0.323966,-0.314777,0.0
415672802,0.0641174,-0.322633,-0.314023,0.0
415688765,0.0619859,-0.320381,-0.313997,0.0
415696698,0.0607042,-0.31954,-0.31358,0.0
415712808,0.0533974,-0.317845,-0.313138,0.0
415724740,0.0491707,-0.316961,-0.312199,0.0
415732926,0.046155,-0.316616,-0.311565,0.0
415746797,0.0406878,-0.316214,-0.310586,0.0
415756776,0.0374527,-0.316238,-0.308795,0.0
415764917,0.0330182,-0.315946,-0.307981,0.0
415776823,0.0290217,-0.316161,-0.305957,0.0
415788769,0.0234816,-0.316458,-0.30383,0.0
415797210,0.0204982,-0.316291,-0.302586,0.0
415808801,0.0172302,-0.315085,-0.301091,0.0
415819486,0.0163388,-0.313908,-0.300388,0.0
415832781,0.0144218,-0.311072,-0.299429,0.0
415843449,0.0141645,-0.309631,-0.29891,0.0
415856763,0.01303,-0.307119,-0.297935,0.0
415869208,0.0129867,-0.305482,-0.297056,0.0
415876939,0.0121959,-0.304316,-0.29642,0.0
415888842,0.0154534,-0.30234,-0.295626,0.0
415900696,0.0157586,-0.300394,-0.295141,0.0
415908768,0.0162933,-0.298906,-0.294866,0.0
415920707,0.0234134,-0.296174,-0.294743,0.0
415928772,0.024882,-0.294177,-0.2947,0.0
415936755,0.0293236,-0.292272,-0.294422,0.0
415956789,0.0335427,-0.288047,-0.293648,0.0
415965433,0.0358453,-0.286387,-0.293436,0.0
415976757,0.0370386,-0.283838,-0.2937,0.0
415984730,0.0391736,-0.282499,-0.293611,0.0
416000788,0.0362907,-0.282196,-0.295116,0.0
416008679,0.0354006,-0.282232,-0.294994,0.0
416024956,0.0186106,-0.286949,-0.296676,0.0
416037166,0.0134263,-0.289114,-0.295268,0.0
416044987,0.0101043,-0.290522,-0.294358,0.0
416057151,-0.0185127,-0.297546,-0.294911,0.0
416068754,-0.0487389,-0.307255,-0.297287,0.0
416077153,-0.0484935,-0.307724,-0.297616,0.0
416088691,-0.045552,-0.307377,-0.298805,0.0
416096761,-0.0649938,-0.317767,-0.303514,0.0
416110883,-0.0609575,-0.317353,-0.305163,0.0
416117618,-0.0772225,-0.328731,-0.310571,0.0
416134381,-0.0674372,-0.327744,-0.314567,0.0
416145107,-0.0819707,-0.33967,-0.320796,0.0
416154474,-0.0756781,-0.339511,-0.323477,0.0
416166376,-0.0834122,-0.348247,-0.327453,0.0
416174488,-0.0833,-0.349453,-0.327904,0.0
416186385,-0.0869725,-0.353559,-0.327912,0.0
416198416,-0.090869,-0.356932,-0.327238,0.0
416210921,-0.0940808,-0.359794,-0.326605,0.0
416222464,-0.0950373,-0.363314,-0.327177,0.0
416231175,-0.097585,-0.36461,-0.327768,0.0
416242415,-0.0945532,-0.366904,-0.329676,0.0
416252836,-0.0992053,-0.366813,-0.331238,0.0
416266493,-0.0879448,-0.367432,-0.336132,0.0
416274354,-0.0945093,-0.366184,-0.338464,0.0
416290297,-0.0818694,-0.365423,-0.343508,0.0
416298325,-0.0908722,-0.365811,-0.345639,0.0
416314709,-0.0983219,-0.366127,-0.347759,0.0
416326349,-0.100159,-0.366722,-0.346941,0.0
416334457,-0.104119,-0.367675,-0.345306,0.0
416350294,-0.130045,-0.368938,-0.33929,0.0
416360859,-0.140092,-0.370925,-0.335347,0.0
416374330,-0.174651,-0.37427,-0.325253,0.0
416386759,-0.194042,-0.37799,-0.317867,0.0
416394390,-0.21117,-0.380174,-0.313274,0.0
416406779,-0.225265,-0.382936,-0.307917,0.0
416418326,-0.239362,-0.385952,-0.304457,0.0
416427249,-0.243803,-0.387434,-0.302975,0.0
416438417,-0.25199,-0.388496,-0.30165,0.0
416450352,-0.252435,-0.390403,-0.301889,0.0
416458310,-0.252637,-0.389471,-0.302145,0.0
416466434,-0.249792,-0.390115,-0.30349,0.0
416482570,-0.239932,-0.388748,-0.306751,0.0
416494327,-0.230739,-0.38749,-0.310327,0.0
416506338,-0.220701,-0.385743,-0.314183,0.0
416514363,-0.2137,-0.384208,-0.316734,0.0
416526491,-0.203819,-0.381576,-0.320744,0.0
416534385,-0.196409,-0.379533,-0.3234,0.0
416546361,-0.189243,-0.377656,-0.327617,0.0
416558339,-0.180167,-0.37533,-0.330894,0.0
416566826,-0.183025,-0.376785,-0.333573,0.0
416578280,-0.174985,-0.375022,-0.336579,0.0
416590344,-0.169909,-0.377343,-0.342152,0.0
416598295,-0.160798,-0.375526,-0.345621,0.0
416611220,-0.143437,-0.377491,-0.354352,0.0
416619351,-0.13094,-0.374854,-0.359059,0.0
416632129,-0.108903,-0.374294,-0.368523,0.0
416640186,-0.0954986,-0.371402,-0.373553,0.0
416652052,-0.0752369,-0.372925,-0.383373,0.0
416656031,-0.0688396,-0.371342,-0.385807,0.0
416672045,-0.0457759,-0.365665,-0.394416,0.0
416683981,-0.0305605,-0.372321,-0.404487,0.0
416692763,-0.0210353,-0.369599,-0.408035,0.0
416699992,-0.0123021,-0.378319,-0.415983,0.0
416716106,0.00234993,-0.379198,-0.424158,0.0
416726575,0.0084859,-0.377639,-0.426491,0.0
416736354,0.0153558,-0.375971,-0.429246,0.0
416744006,0.0141022,-0.375802,-0.430831,0.0
416756038,0.0171972,-0.375454,-0.432264,0.0
416772493,0.00597586,-0.37552,-0.43284,0.0
416782903,0.00594944,-0.375628,-0.432926,0.0
416795933,-0.0120724,-0.375815,-0.432887,0.0
416804744,-0.0122278,-0.3761,-0.432956,0.0
416811999,-0.0298415,-0.377187,-0.433301,0.0
416828491,-0.0286226,-0.377238,-0.433931,0.0
416840141,-0.0435617,-0.37727,-0.435806,0.0
416852007,-0.0366118,-0.375535,-0.438466,0.0
416862655,-0.0477134,-0.373908,-0.440983,0.0
416873548,-0.0369541,-0.370629,-0.444959,0.0
416880272,-0.0392287,-0.368094,-0.447532,0.0
416896002,-0.0246452,-0.362514,-0.452569,0.0
416907982,-0.0147191,-0.357301,-0.456344,0.0
416918306,-0.00707829,-0.353251,-0.458689,0.0
416928358,0.00532561,-0.347137,-0.461599,0.0
416935924,0.0114131,-0.34326,-0.463042,0.0
416952075,0.0241136,-0.335659,-0.465906,0.0
416964130,0.031741,-0.330086,-0.467408,0.0
416972869,0.0361423,-0.325971,-0.468541,0.0
416980202,0.0404005,-0.32187,-0.469405,0.0
416995913,0.0438615,-0.314651,-0.469441,0.0
417012087,0.0427432,-0.308623,-0.468334,0.0
417023920,0.0413987,-0.30501,-0.466909,0.0
417032246,0.0386863,-0.3045,-0.467095,0.0
417043932,0.0384845,-0.301723,-0.466382,0.0
417055910,0.0384275,-0.298708,-0.465581,0.0
417068045,0.0358568,-0.299517,-0.465915,0.0
417080234,0.0329148,-0.302186,-0.466855,0.0
417088097,0.0311984,-0.300184,-0.465233,0.0
417100210,0.0261277,-0.307216,-0.46799,0.0
417110504,0.0250925,-0.305151,-0.466817,0.0
417121598,0.0180069,-0.310889,-0.469025,0.0
417130205,0.0169353,-0.308885,-0.467778,0.0
417137521,0.0155137,-0.307003,-0.466344,0.0
417153606,0.00539594,-0.30843,-0.465976,0.0
417167669,0.00276225,-0.305602,-0.463546,0.0
417177533,-0.00803646,-0.303961,-0.461775,0.0
417188007,-0.00957857,-0.301754,-0.460161,0.0
417197596,-0.0201614,-0.29764,-0.456841,0.0
417205588,-0.0223939,-0.295764,-0.454912,0.0
417221572,-0.0329148,-0.289237,-0.449825,0.0
417233546,-0.0362833,-0.286605,-0.447036,0.0
417241966,-0.0477756,-0.280316,-0.44301,0.0
417253963,-0.0529901,-0.278883,-0.439816,0.0
417265547,-0.0758595,-0.272123,-0.43294,0.0
417273699,-0.0817685,-0.272478,-0.430132,0.0
417281600,-0.0876353,-0.272889,-0.427354,0.0
417297819,-0.115308,-0.267103,-0.419959,0.0
417305621,-0.132256,-0.264371,-0.416959,0.0
417321494,-0.136412,-0.26318,-0.414444,0.0
417331923,-0.142482,-0.261068,-0.41282,0.0
417341586,-0.143585,-0.259816,-0.411724,0.0
417350424,-0.143779,-0.258718,-0.411216,0.0
417365559,-0.141509,-0.253276,-0.409319,0.0
417376045,-0.139885,-0.251815,-0.409484,0.0
417389672,-0.134909,-0.247457,-0.40925,0.0
417402064,-0.132032,-0.247589,-0.410554,0.0
417409727,-0.130511,-0.246427,-0.410692,0.0
417421596,-0.128604,-0.249532,-0.413105,0.0
417433589,-0.12682,-0.247675,-0.413081,0.0
417441556,-0.125589,-0.246612,-0.413219,0.0
417453545,-0.122826,-0.249943,-0.416135,0.0
417461563,-0.11956,-0.248087,-0.416822,0.0
417469648,-0.115345,-0.248343,-0.419009,0.0
417489557,-0.104427,-0.241154,-0.421037,0.0
417499668,-0.101004,-0.238958,-0.421744,0.0
417509538,-0.0973215,-0.235263,-0.421839,0.0
417517566,-0.0958082,-0.234398,-0.422217,0.0
417533561,-0.093875,-0.233303,-0.422654,0.0
417541527,-0.0930511,-0.233052,-0.422938,0.0
417557626,-0.0928093,-0.232885,-0.423711,0.0
417569914,-0.0908965,-0.232798,-0.424458,0.0
417577790,-0.0947353,-0.232991,-0.425336,0.0
417589495,-0.0914077,-0.23329,-0.426846,0.0
417601659,-0.0948286,-0.233463,-0.428636,0.0
417609623,-0.0918273,-0.23384,-0.429984,0.0
417618848,-0.088858,-0.23452,-0.431449,0.0
417635146,-0.0895036,-0.236084,-0.433926,0.0
417647104,-0.0933977,-0.235923,-0.434631,0.0
417655196,-0.0920959,-0.23688,-0.4355,0.0
417667296,-0.0910033,-0.23892,-0.436735,0.0
417675188,-0.1036,-0.238884,-0.436578,0.0
417691214,-0.114944,-0.242591,-0.438571,0.0
417699167,-0.113689,-0.244701,-0.439923,0.0
417715296,-0.116682,-0.248962,-0.443146,0.0
417727817,-0.114374,-0.252219,-0.445503,0.0
417735387,-0.115876,-0.25457,-0.447238,0.0
417743162,-0.113838,-0.256483,-0.448976,0.0
417759194,-0.111383,-0.259106,-0.453171,0.0
417769263,-0.106483,-0.259803,-0.455762,0.0
417779131,-0.103794,-0.26101,-0.459978,0.0
417787210,-0.0989356,-0.261259,-0.462348,0.0
417803172,-0.0927611,-0.263203,-0.467424,0.0
417815213,-0.0886987,-0.265285,-0.470155,0.0
417823298,-0.0879001,-0.268611,-0.471941,0.0
417835395,-0.0883303,-0.273046,-0.473599,0.0
417843156,-0.0891461,-0.278843,-0.475514,0.0
417859768,-0.0915914,-0.285393,-0.476942,0.0
417867180,-0.0929738,-0.291327,-0.478817,0.0
417883215,-0.10032,-0.297982,-0.477944,0.0
417895168,-0.1101,-0.305952,-0.476218,0.0
417903992,-0.119202,-0.310943,-0.473892,0.0
417915154,-0.133766,-0.318959,-0.469651,0.0
417927250,-0.151226,-0.327253,-0.46492,0.0
417935440,-0.162507,-0.332766,-0.461629,0.0
417947539,-0.178518,-0.34009,-0.456934,0.0
417957530,-0.189938,-0.344551,-0.453944,0.0
417967101,-0.203974,-0.350776,-0.44977,0.0
417975295,-0.21299,-0.355077,-0.447533,0.0
417991879,-0.229647,-0.361224,-0.442084,0.0
418003195,-0.244156,-0.365779,-0.439137,0.0
418011149,-0.249398,-0.366407,-0.437104,0.0
418025506,-0.272783,-0.368968,-0.435448,0.0
418039503,-0.278069,-0.368262,-0.432913,0.0
418051154,-0.31152,-0.36795,-0.432083,0.0
418062695,-0.312563,-0.366881,-0.431482,0.0
418075177,-0.344919,-0.364148,-0.431109,0.0
418087255,-0.342135,-0.361851,-0.431894,0.0
418095157,-0.364601,-0.359839,-0.432424,0.0
418111360,-0.356127,-0.355102,-0.435063,0.0
418120520,-0.372732,-0.351698,-0.437058,0.0
418132017,-0.362911,-0.346416,-0.440157,0.0
418141904,-0.380719,-0.342968,-0.443133,0.0
418152770,-0.369335,-0.336771,-0.446644,0.0
418160774,-0.38302,-0.334006,-0.449459,0.0
418176826,-0.37758,-0.326565,-0.454427,0.0
418188837,-0.3644,-0.320124,-0.458557,0.0
418197490,-0.354733,-0.315194,-0.461528,0.0
418210814,-0.344529,-0.30767,-0.466382,0.0
418221639,-0.327678,-0.298666,-0.47107,0.0
418234849,-0.320021,-0.290381,-0.47729,0.0
418244811,-0.298958,-0.2801,-0.483285,0.0
418252767,-0.304116,-0.27344,-0.48774,0.0
418265149,-0.280173,-0.261765,-0.494377,0.0
418272779,-0.278987,-0.250934,-0.497911,0.0
418288751,-0.249848,-0.227785,-0.507305,0.0
418301574,-0.216293,-0.212275,-0.516518,0.0
418311024,-0.193196,-0.201806,-0.522752,0.0
418320822,-0.176288,-0.181357,-0.529445,0.0
418333476,-0.137948,-0.163493,-0.539729,0.0
418344877,-0.113466,-0.138274,-0.54783,0.0
418357220,-0.06543,-0.114739,-0.560278,0.0
418364796,-0.0389161,-0.0940031,-0.566441,0.0
418380793,0.029228,-0.0578252,-0.583056,0.0
418388793,0.0632165,-0.0428183,-0.586368,0.0
418404799,0.127902,-0.0222867,-0.583904,0.0
418412866,0.159533,-0.0118824,-0.581982,0.0
418428752,0.222583,0.00689609,-0.576933,0.0
418440740,0.264706,0.0201156,-0.574094,0.0
418448949,0.29044,0.0280707,-0.572428,0.0
418463235,0.333935,0.0365014,-0.567771,0.0
418476796,0.389366,0.0409438,-0.563756,0.0
418485246,0.406027,0.0453735,-0.563407,0.0
418496788,0.45437,0.0391733,-0.560931,0.0
418504742,0.465585,0.0413949,-0.56102,0.0
418516724,0.47735,0.0434391,-0.562225,0.0
418528716,0.50922,0.0328989,-0.561608,0.0
418539057,0.510705,0.0322448,-0.563431,0.0
418548703,0.523559,0.0263706,-0.563872,0.0
418557393,0.523398,0.0251322,-0.565722,0.0
418572810,0.526212,0.0210957,-0.567062,0.0
418585189,0.520045,0.0176155,-0.569453,0.0
418593075,0.524462,0.0124124,-0.568041,0.0
418600848,0.517592,0.00931663,-0.569472,0.0
418616793,0.523192,-0.00349948,-0.566795,0.0
418621863,0.516887,-0.0059508,-0.567697,0.0
418638593,0.555953,-0.0318819,-0.555395,0.0
418651049,0.535919,-0.0396594,-0.557995,0.0
418662503,0.64254,-0.0769403,-0.530857,0.0
418666607,0.636092,-0.0796594,-0.531729,0.0
418686337,0.754241,-0.12637,-0.5053,0.0
418696667,0.743897,-0.130969,-0.506743,0.0
418706411,0.845141,-0.164926,-0.488683,0.0
418718352,0.834619,-0.169749,-0.490036,0.0
418726389,0.868285,-0.18111,-0.483116,0.0
418734383,0.862721,-0.183614,-0.483881,0.0
418750551,0.810578,-0.172235,-0.485607,0.0
418762445,0.801048,-0.175086,-0.485749,0.0
418770339,0.726521,-0.153764,-0.491044,0.0
418782467,0.715453,-0.15727,-0.491141,0.0
418794326,0.66159,-0.14888,-0.496974,0.0
418802461,0.652308,-0.152044,-0.49743,0.0
418814352,0.626426,-0.153873,-0.499498,0.0
418826355,0.610961,-0.15901,-0.499914,0.0
418834633,0.602754,-0.16186,-0.499137,0.0
418846462,0.588373,-0.166558,-0.499496,0.0
418858391,0.581072,-0.173932,-0.499483,0.0
418870481,0.577469,-0.183033,-0.499163,0.0
418879004,0.56771,-0.186133,-0.499259,0.0
418894407,0.556927,-0.196784,-0.50006,0.0
418902800,0.54776,-0.199499,-0.499943,0.0
418918598,0.533344,-0.20901,-0.502951,0.0
418930997,0.522841,-0.211778,-0.502719,0.0
418942506,0.512054,-0.217291,-0.505127,0.0
418950346,0.505731,-0.218495,-0.504527,0.0
418966896,0.494258,-0.221955,-0.504008,0.0
418980681,0.483715,-0.223625,-0.503134,0.0
418990734,0.476835,-0.226772,-0.501333,0.0
418998351,0.468569,-0.228362,-0.500538,0.0
419010432,0.459245,-0.233022,-0.50029,0.0
419022909,0.446341,-0.234933,-0.4996,0.0
419034896,0.43449,-0.241304,-0.501166,0.0
419042857,0.426197,-0.242815,-0.500271,0.0
419059315,0.411384,-0.249767,-0.502224,0.0
419070601,0.399863,-0.252095,-0.501077,0.0
419078344,0.392906,-0.255973,-0.502068,0.0
419094424,0.378009,-0.259362,-0.501312,0.0
419106897,0.368931,-0.261358,-0.500983,0.0
419118475,0.359226,-0.263204,-0.500275,0.0
419129533,0.352182,-0.2648,-0.500146,0.0
419139275,0.343947,-0.267277,-0.499395,0.0
419147394,0.337403,-0.269027,-0.498942,0.0
419163607,0.328288,-0.273875,-0.499099,0.0
419171270,0.32266,-0.275532,-0.498775,0.0
419187175,0.314889,-0.282062,-0.501085,0.0
419201451,0.310682,-0.282694,-0.501051,0.0
419215138,0.308784,-0.28741,-0.504044,0.0
419225467,0.309225,-0.286852,-0.504373,0.0
419235191,0.311281,-0.289352,-0.507148,0.0
419246046,0.313549,-0.288563,-0.507231,0.0
419259111,0.319872,-0.2892,-0.509311,0.0
419269750,0.322756,-0.287964,-0.509798,0.0
419283174,0.329556,-0.28693,-0.510257,0.0
419295900,0.338958,-0.288364,-0.509807,0.0
419307579,0.33956,-0.287204,-0.509732,0.0
419319148,0.338436,-0.287178,-0.509837,0.0
419327958,0.35851,-0.298498,-0.509243,0.0
419343254,0.383937,-0.315571,-0.508462,0.0
419351846,0.381453,-0.316701,-0.508787,0.0
419367175,0.394254,-0.327152,-0.507298,0.0
419379593,0.389551,-0.328661,-0.50722,0.0
419387397,0.392457,-0.330257,-0.505553,0.0
419399158,0.387784,-0.331289,-0.505165,0.0
419411185,0.384491,-0.332528,-0.503773,0.0
419419237,0.379683,-0.332968,-0.50285,0.0
419431253,0.372558,-0.335467,-0.501898,0.0
419441740,0.366523,-0.335721,-0.500658,0.0
419455325,0.356052,-0.335144,-0.496899,0.0
419467349,0.347487,-0.334937,-0.494742,0.0
419475274,0.345274,-0.333351,-0.491203,0.0
419487132,0.337213,-0.333107,-0.489096,0.0
419496046,0.332352,-0.332606,-0.487587,0.0
419509207,0.327618,-0.332719,-0.484998,0.0
419519626,0.319795,-0.331515,-0.482423,0.0
419527322,0.314496,-0.334221,-0.482632,0.0
419535256,0.308643,-0.333304,-0.480629,0.0
419547144,0.299473,-0.333854,-0.478941,0.0
419563198,0.289416,-0.330163,-0.474581,0.0
419575681,0.283966,-0.326642,-0.471506,0.0
419583989,0.281799,-0.32368,-0.469318,0.0
419591144,0.2844,-0.320459,-0.466085,0.0
419603216,0.283904,-0.315002,-0.463072,0.0
419615189,0.295461,-0.310187,-0.457797,0.0
419627610,0.299702,-0.303353,-0.455151,0.0
419635222,0.312862,-0.29996,-0.451184,0.0
419647714,0.320227,-0.292501,-0.448912,0.0
419659179,0.334312,-0.285588,-0.444894,0.0
419668320,0.338972,-0.280568,-0.44327,0.0
419679169,0.346659,-0.27402,-0.439879,0.0
419689457,0.348235,-0.269804,-0.438042,0.0
419703136,0.347104,-0.263352,-0.434191,0.0
419715531,0.341387,-0.260249,-0.431585,0.0
419723402,0.338473,-0.259455,-0.429252,0.0
419735150,0.327062,-0.25889,-0.42695,0.0
419747317,0.322903,-0.26052,-0.42251,0.0
419755192,0.314215,-0.261133,-0.421174,0.0
419767165,0.32207,-0.264214,-0.414665,0.0
419775118,0.316565,-0.263997,-0.4137,0.0
419792493,0.359423,-0.269363,-0.399335,0.0
419800714,0.357458,-0.267451,-0.398194,0.0
419813350,0.445201,-0.276959,-0.374805,0.0
419820777,0.444465,-0.274852,-0.373747,0.0
419832878,0.519397,-0.281231,-0.352958,0.0
419844848,0.517264,-0.278216,-0.351146,0.0
419853502,0.515836,-0.2765,-0.350077,0.0
419865438,0.557153,-0.278939,-0.337362,0.0
419872960,0.554521,-0.2779,-0.336373,0.0
419887072,0.593408,-0.282385,-0.324327,0.0
419896762,0.58496,-0.282507,-0.322904,0.0
419904782,0.577589,-0.283149,-0.321918,0.0
419916789,0.597515,-0.28892,-0.312695,0.0
419929409,0.588553,-0.292126,-0.309478,0.0
419940776,0.571264,-0.294893,-0.307748,0.0
419953318,0.551882,-0.297613,-0.306297,0.0
419960766,0.540206,-0.299548,-0.305086,0.0
419972834,0.522073,-0.302891,-0.303334,0.0
419984786,0.503306,-0.306459,-0.30125,0.0
419995259,0.489204,-0.308963,-0.299729,0.0
420004765,0.469819,-0.312461,-0.296676,0.0
420012867,0.455112,-0.314059,-0.294774,0.0
420028826,0.430599,-0.316083,-0.289905,0.0
420037212,0.419844,-0.316306,-0.288139,0.0
420052915,0.404308,-0.316495,-0.284527,0.0
420060786,0.398531,-0.316103,-0.28339,0.0
420077652,0.386761,-0.315169,-0.281271,0.0
420084752,0.381357,-0.314647,-0.280161,0.0
420100882,0.362833,-0.313825,-0.278368,0.0
420108764,0.354163,-0.313902,-0.276951,0.0
420120789,0.337757,-0.314762,-0.274213,0.0
420128726,0.320174,-0.315443,-0.2733,0.0
420141180,0.299053,-0.31706,-0.270039,0.0
420152812,0.275122,-0.318322,-0.267264,0.0
420160976,0.26221,-0.31875,-0.265302,0.0
420172798,0.243577,-0.318591,-0.262563,0.0
420181163,0.233596,-0.318538,-0.260564,0.0
420196738,0.215327,-0.318021,-0.257499,0.0
420208823,0.204086,-0.317344,-0.255125,0.0
420217079,0.197235,-0.316777,-0.253512,0.0
420225414,0.191165,-0.316022,-0.252328,0.0
420240757,0.181771,-0.315291,-0.249908,0.0
420249204,0.177861,-0.314286,-0.249,0.0
420260826,0.172677,-0.314645,-0.248009,0.0
420268711,0.169648,-0.313583,-0.246951,0.0
420280744,0.165426,-0.31276,-0.245814,0.0
420292763,0.161826,-0.311226,-0.244575,0.0
420302484,0.159327,-0.310225,-0.243903,0.0
420314456,0.1564,-0.307206,-0.24212,0.0
420326429,0.154279,-0.304159,-0.240704,0.0
420338405,0.152933,-0.302684,-0.239903,0.0
420346986,0.15227,-0.301634,-0.239502,0.0
420358347,0.151478,-0.300072,-0.238765,0.0
420368609,0.150983,-0.299114,-0.238252,0.0
420382434,0.149066,-0.29737,-0.23765,0.0
420390431,0.148389,-0.296461,-0.23715,0.0
420407084,0.144231,-0.294529,-0.236979,0.0
420418336,0.14291,-0.293507,-0.236374,0.0
420426380,0.132288,-0.292049,-0.238296,0.0
420438368,0.131408,-0.290881,-0.237741,0.0
420446380,0.112245,-0.288744,-0.241903,0.0
420462457,0.0957837,-0.287052,-0.244876,0.0
420475051,0.0945055,-0.285885,-0.244362,0.0
420482412,0.0937366,-0.285327,-0.244024,0.0
420494871,0.0866229,-0.285233,-0.245323,0.0
420506376,0.0853796,-0.284471,-0.244881,0.0
420516835,0.0714119,-0.282471,-0.247611,0.0
420526396,0.0704734,-0.281778,-0.247264,0.0
420536973,0.0448351,-0.278299,-0.252728,0.0
420550320,0.0430668,-0.277712,-0.252295,0.0
420560794,0.0239257,-0.27683,-0.256308,0.0
420574442,0.0184347,-0.276797,-0.255465,0.0
420586745,0.00558558,-0.277806,-0.256157,0.0
420594416,0.00115691,-0.278523,-0.254537,0.0
420606775,-0.0190894,-0.280534,-0.25197,0.0
420618319,-0.0274828,-0.282438,-0.249111,0.0
420628989,-0.0486613,-0.283774,-0.247235,0.0
420638463,-0.0567062,-0.285906,-0.24462,0.0
420647931,-0.0697911,-0.286405,-0.242843,0.0
420662457,-0.0767044,-0.288625,-0.240747,0.0
420674839,-0.0876594,-0.289223,-0.239873,0.0
420686422,-0.112334,-0.291164,-0.239383,0.0
420698755,-0.115666,-0.29258,-0.238421,0.0
420706397,-0.145443,-0.293418,-0.237277,0.0
420718778,-0.152312,-0.295541,-0.235031,0.0
420730320,-0.174834,-0.296468,-0.231666,0.0
420740630,-0.180128,-0.297849,-0.229764,0.0
420750336,-0.18409,-0.298983,-0.228289,0.0
420758335,-0.187223,-0.298838,-0.228273,0.0
420774374,-0.179984,-0.297673,-0.230372,0.0
420786798,-0.170819,-0.295681,-0.233637,0.0
420794536,-0.16233,-0.293688,-0.236457,0.0
420803183,-0.155038,-0.291595,-0.239461,0.0
420819965,-0.135849,-0.28592,-0.246893,0.0
420832096,-0.118859,-0.281795,-0.252322,0.0
420840230,-0.110032,-0.27899,-0.255963,0.0
420852422,-0.0929289,-0.274612,-0.26139,0.0
420859900,-0.0821124,-0.271826,-0.264873,0.0
420876365,-0.068154,-0.266921,-0.270558,0.0
420888034,-0.0960815,-0.263817,-0.273729,0.0
420896495,-0.0904754,-0.261927,-0.275398,0.0
420908003,-0.0842577,-0.259764,-0.277178,0.0
420916002,-0.166778,-0.258536,-0.277873,0.0
420931978,-0.162368,-0.256122,-0.278836,0.0
420944194,-0.238119,-0.253553,-0.279799,0.0
420952146,-0.234077,-0.251196,-0.28062,0.0
420964695,-0.269688,-0.246664,-0.282029,0.0
420976024,-0.288652,-0.241579,-0.283451,0.0
420988481,-0.280399,-0.235659,-0.284858,0.0
421000003,-0.296399,-0.229276,-0.286554,0.0
421010436,-0.289534,-0.224851,-0.287868,0.0
421019982,-0.297698,-0.218947,-0.289287,0.0
421028852,-0.293167,-0.215294,-0.289884,0.0
421044195,-0.290532,-0.208582,-0.290817,0.0
421056361,-0.284248,-0.203711,-0.291683,0.0
421064381,-0.279197,-0.199034,-0.292202,0.0
421076321,-0.269654,-0.194454,-0.294409,0.0
421087893,-0.258167,-0.188226,-0.296397,0.0
421100463,-0.247699,-0.184398,-0.299232,0.0
421112003,-0.234496,-0.181668,-0.303079,0.0
421120706,-0.225101,-0.178886,-0.305881,0.0
421132035,-0.207738,-0.176905,-0.311425,0.0
421140878,-0.196116,-0.173867,-0.314908,0.0
421152059,-0.176209,-0.170051,-0.321011,0.0
421172024,-0.142129,-0.16119,-0.33139,0.0
421184128,-0.121182,-0.156893,-0.338281,0.0
421195958,-0.100389,-0.150011,-0.344098,0.0
421204418,-0.0872397,-0.147215,-0.348448,0.0
421215959,-0.0687783,-0.143673,-0.354578,0.0
421227948,-0.0509201,-0.141961,-0.361175,0.0
421240001,-0.033946,-0.142327,-0.368265,0.0
421252151,-0.0189952,-0.139675,-0.373588,0.0
421260163,-0.0103214,-0.138124,-0.377005,0.0
421272654,0.00227627,-0.136176,-0.381721,0.0
421283989,0.0132212,-0.1339,-0.384614,0.0
421295936,0.0260779,-0.133605,-0.386304,0.0
421304899,0.0359599,-0.133263,-0.387606,0.0
421317557,0.0492196,-0.130759,-0.388781,0.0
421325587,0.057847,-0.130594,-0.389812,0.0
421341551,0.0701697,-0.127691,-0.391549,0.0
421349614,0.0728026,-0.128268,-0.393888,0.0
421366109,0.0831348,-0.128252,-0.395454,0.0
421377520,0.0881419,-0.130586,-0.398264,0.0
421387954,0.0922663,-0.13084,-0.399111,0.0
421398007,0.0987478,-0.132366,-0.400883,0.0
421409589,0.105653,-0.133632,-0.402631,0.0
421418360,0.110914,-0.134649,-0.403727,0.0
421425521,0.11557,-0.136046,-0.40529,0.0
421442127,0.125318,-0.13938,-0.408566,0.0
421453570,0.132972,-0.142128,-0.411337,0.0
421465591,0.141729,-0.145364,-0.414159,0.0
421474116,0.146692,-0.14763,-0.416097,0.0
421485550,0.154647,-0.151586,-0.418673,0.0
421493985,0.158212,-0.154206,-0.420813,0.0
421509656,0.166199,-0.159239,-0.424277,0.0
421517538,0.169942,-0.161297,-0.426157,0.0
421533667,0.176013,-0.164866,-0.429575,0.0
421545570,0.176038,-0.16773,-0.432417,0.0
421553818,0.175347,-0.170344,-0.43398,0.0
421566289,0.169593,-0.174578,-0.436354,0.0
421573655,0.164782,-0.178027,-0.437412,0.0
421590006,0.152318,-0.185499,-0.439208,0.0
421601583,0.139485,-0.191075,-0.440322,0.0
421610437,0.135786,-0.195655,-0.439198,0.0
421621967,0.122157,-0.201222,-0.440099,0.0
421629526,0.12186,-0.205931,-0.438637,0.0
421645509,0.107273,-0.212542,-0.439821,0.0
421653562,0.110875,-0.216525,-0.438156,0.0
421669644,0.11408,-0.22139,-0.435222,0.0
421681557,0.108445,-0.224046,-0.435894,0.0
421689550,0.105286,-0.225105,-0.436207,0.0
421705517,0.117045,-0.226827,-0.430635,0.0
421717659,0.136123,-0.231512,-0.425627,0.0
421726093,0.134787,-0.231949,-0.425828,0.0
421737599,0.157722,-0.238248,-0.420773,0.0
421746463,0.156289,-0.238913,-0.420838,0.0
421761504,0.17842,-0.244653,-0.414635,0.0
421770043,0.174933,-0.245877,-0.414598,0.0
421781566,0.199371,-0.250956,-0.407084,0.0
421794237,0.195561,-0.251995,-0.407128,0.0
421801530,0.221031,-0.255285,-0.399982,0.0
421819117,0.216526,-0.253758,-0.398745,0.0
421826394,0.230173,-0.254506,-0.393712,0.0
421839671,0.224801,-0.25244,-0.392105,0.0
421847398,0.226028,-0.251881,-0.389742,0.0
421863621,0.220125,-0.248925,-0.387997,0.0
421875168,0.215829,-0.246327,-0.386742,0.0
421885665,0.213183,-0.244963,-0.385667,0.0
421895130,0.205444,-0.242653,-0.385046,0.0
421903194,0.200748,-0.241536,-0.384179,0.0
421919547,0.181223,-0.239221,-0.383508,0.0
421931223,0.170522,-0.238289,-0.381842,0.0
421939204,0.155461,-0.236577,-0.38274,0.0
421951585,0.143514,-0.235773,-0.38096,0.0
421959169,0.132549,-0.235196,-0.38005,0.0
421975272,0.114846,-0.234091,-0.377713,0.0
421983161,0.108551,-0.233367,-0.375743,0.0
421999233,0.0964231,-0.23073,-0.373211,0.0
422007147,0.0913674,-0.22929,-0.371838,0.0
422023233,0.0845957,-0.226081,-0.370342,0.0
422031109,0.0823,-0.223977,-0.369132,0.0
422043395,0.0802687,-0.222336,-0.368719,0.0
422059257,0.0787691,-0.217605,-0.367443,0.0
422071171,0.0815697,-0.215319,-0.365902,0.0
422079256,0.0813488,-0.213492,-0.36512,0.0
422091103,0.0913149,-0.210366,-0.360623,0.0
422099099,0.0897086,-0.208958,-0.360228,0.0
422113239,0.0998693,-0.207203,-0.355282,0.0
422123154,0.0961911,-0.20559,-0.354472,0.0
422132074,0.0997242,-0.204923,-0.352309,0.0
422143329,0.0962212,-0.203443,-0.35122,0.0
422151080,0.0941334,-0.202554,-0.350865,0.0
422167148,0.0923209,-0.201666,-0.350625,0.0
422179133,0.0937628,-0.201551,-0.350428,0.0
422187389,0.094365,-0.200796,-0.350205,0.0
422199130,0.098753,-0.19938,-0.349187,0.0
422211141,0.100199,-0.198005,-0.349107,0.0
422219554,0.102538,-0.19614,-0.348208,0.0
422227185,0.102922,-0.195352,-0.348242,0.0
422239195,0.102378,-0.194881,-0.348278,0.0
422255138,0.100036,-0.194275,-0.348002,0.0
422263409,0.0980855,-0.195169,-0.348523,0.0
422279095,0.0939755,-0.195257,-0.348243,0.0
422287265,0.0915477,-0.194934,-0.348051,0.0
422303241,0.0866398,-0.194277,-0.347293,0.0
422315139,0.0824536,-0.19482,-0.347118,0.0
422324166,0.0789513,-0.19499,-0.346836,0.0
422336876,0.0732296,-0.195808,-0.346517,0.0
422345284,0.0694078,-0.19638,-0.346334,0.0
422357412,0.0633299,-0.197597,-0.346098,0.0
422368919,0.0570668,-0.198794,-0.34573,0.0
422381314,0.050881,-0.20114,-0.345918,0.0
422392909,0.0448828,-0.202562,-0.345729,0.0
422400988,0.0415271,-0.204413,-0.34606,0.0
422408781,0.0386338,-0.205072,-0.345942,0.0
422424792,0.0336093,-0.205838,-0.345511,0.0
422433298,0.0311626,-0.206548,-0.345368,0.0
422445035,0.0274898,-0.206547,-0.34474,0.0
422453638,0.0253113,-0.207285,-0.344723,0.0
422464808,0.0218925,-0.207889,-0.34437,0.0
422477510,0.0179082,-0.208939,-0.344111,0.0
422488711,0.0135177,-0.209894,-0.343753,0.0
422501120,0.00834479,-0.21102,-0.342784,0.0
422508734,0.00436876,-0.21216,-0.341334,0.0
422521180,-0.00169505,-0.214113,-0.339265,0.0
422528746,-0.00506598,-0.215227,-0.33819,0.0
422544839,-0.00949361,-0.216454,-0.336534,0.0
422556757,-0.0114656,-0.216652,-0.335757,0.0
422565541,-0.0130575,-0.216706,-0.335041,0.0
422580705,-0.0174262,-0.217446,-0.333376,0.0
422591211,-0.0199943,-0.218204,-0.332497,0.0
422600818,-0.0219437,-0.219492,-0.331372,0.0
422612841,-0.0250321,-0.220589,-0.330423,0.0
422620737,-0.0226889,-0.221861,-0.330227,0.0
