timestamp,time_utc_usec,lat,lon,delta_lat_lon[0],delta_lat_lon[1],alt,delta_alt,vel_n,vel_e,vel_d,yaw,eph,epv,terrain_alt,pressure_alt,lat_lon_reset_counter,alt_reset_counter,terrain_alt_valid,dead_reckoning
327015190,1492463069399994,45.2206008922,-93.1453396551,5.39341726835e-09,-1.30528974296e-08,277.362,-0.0,-0.0779695,-0.0055951,0.0110656,-0.836432,0.5023,0.245813,0.0,203.675,1,0,0,0
327230863,1492463069399994,45.220600914,-93.1453395758,5.39341726835e-09,-1.30528974296e-08,277.352,-0.0,-0.0745231,-0.0105835,0.0230216,-0.840492,0.49632,0.244996,0.0,203.589,1,0,0,0
327330773,1492463070399994,45.2206009584,-93.1453394896,5.39341016292e-09,-1.30528974296e-08,277.347,-0.0,-0.0721366,-0.00851512,0.0197952,-0.843161,0.48504,0.245154,0.0,203.844,1,0,0,0
327432318,1492463070399994,45.220601013,-93.145339351,5.39341726835e-09,-1.30528832187e-08,277.338,-0.0,-0.0719827,-0.00374548,0.0156194,-0.845111,0.498251,0.245327,0.0,203.76,1,0,0,0
327536287,1492463070399994,45.2206010927,-93.1453392289,5.3673545608e-09,-1.30529116404e-08,277.331,-0.0,-0.0702041,-0.00369503,0.00718798,-0.845569,0.485918,0.244797,0.0,203.76,1,0,0,0
327637440,1492463070399994,45.2206011612,-93.1453391334,5.3673545608e-09,-1.30528974296e-08,277.327,-0.0,-0.0667631,-0.00669389,0.00812743,-0.845522,0.500529,0.24552,0.0,203.42,1,0,0,0
327736228,1492463070399994,45.2206011164,-93.1453390537,5.39341016292e-09,-1.30528974296e-08,277.325,-0.0,-0.0743041,-0.00882811,0.0153924,-0.847207,0.489081,0.245432,0.0,203.589,1,0,0,0
327838609,1492463070399994,45.2206010514,-93.1453390008,5.3673545608e-09,-1.30529116404e-08,277.324,-0.0,-0.0749046,-0.00600736,0.0169719,-0.847625,0.502017,0.245374,0.0,203.76,1,0,0,0
327941964,1492463070399994,45.2206010201,-93.1453389661,5.39341016292e-09,-1.30528974296e-08,277.323,-0.0,-0.0724882,-0.00945323,0.0183809,-0.844327,0.488375,0.246233,0.0,203.76,1,0,0,0
328042799,1492463070399994,45.2206009814,-93.1453389582,5.3673545608e-09,-1.30528832187e-08,277.323,-0.0,-0.0780498,-0.0184629,0.0197694,-0.842134,0.502937,0.246864,0.0,203.844,1,0,0,0
328142230,1492463070399994,45.2206009382,-93.1453389465,5.36736166623e-09,-1.30529116404e-08,277.322,-0.0,-0.0858175,-0.0237757,0.0205903,-0.843497,0.489542,0.246176,0.0,203.42,1,0,0,0
328245852,1492463070399994,45.2206008854,-93.145338939,5.39341016292e-09,-1.30528832187e-08,277.32,-0.0,-0.0880645,-0.0276581,0.0196285,-0.845916,0.503629,0.246589,0.0,203.844,1,0,0,0
328347469,1492463071399995,45.2206008376,-93.1453389325,5.39341016292e-09,-1.30529116404e-08,277.318,-0.0,-0.0915853,-0.0355822,0.0160231,-0.847907,0.490201,0.245817,0.0,203.675,1,0,0,0
328448344,1492463071399995,45.2206007759,-93.1453389483,5.36734745538e-09,-1.30528832187e-08,277.312,-0.0,-0.101614,-0.0383349,0.014885,-0.848953,0.503208,0.245767,0.0,203.589,1,0,0,0
328548824,1492463071399995,45.2206007869,-93.1453388862,5.39341016292e-09,-1.30529116404e-08,277.306,-0.0,-0.101423,-0.0363399,0.0137467,-0.848121,0.492824,0.246246,0.0,203.42,1,0,0,0
328649842,1492463071399995,45.2206007686,-93.1453388509,5.39341016292e-09,-1.30528974296e-08,277.303,-0.0,-0.102063,-0.0408551,0.0164176,-0.845624,0.481538,0.246153,0.0,203.844,1,0,0,0
328754720,1492463071399995,45.2206007499,-93.145338766,5.39341726835e-09,-1.30529116404e-08,277.3,-0.0,-0.0939827,-0.0500162,0.0189999,-0.842498,0.494767,0.246373,0.0,203.844,1,0,0,0
328853832,1492463071399995,45.2206007126,-93.1453387328,5.36736166623e-09,-1.30529116404e-08,277.294,-0.0,-0.0929816,-0.0380596,0.0304775,-0.840117,0.507673,0.24618,0.0,203.929,1,0,0,0
328954176,1492463071399995,45.2206007429,-93.1453387593,5.39342437378e-09,-1.30528974296e-08,277.288,-0.0,-0.0915058,-0.036677,0.0349608,-0.838955,0.494409,0.24563,0.0,203.335,1,0,0,0
329055663,1492463071399995,45.2206007672,-93.1453387924,5.39341016292e-09,-1.30529116404e-08,277.287,-0.0,-0.0865081,-0.0501343,0.0302173,-0.838325,0.482535,0.245314,0.0,203.675,1,0,0,0
329159499,1492463071399995,45.2206008123,-93.1453387048,5.39341726835e-09,-1.30528974296e-08,277.292,-0.0,-0.0788358,-0.0486496,-0.000885709,-0.836992,0.496777,0.245932,0.0,204.014,1,0,0,0
329259489,1492463071399995,45.2206008345,-93.1453386797,5.36736166623e-09,-1.30529116404e-08,277.298,-0.0,-0.0351729,-0.0527651,-0.0001683,-0.827592,0.508407,0.245167,0.0,203.844,1,0,0,0
329360172,1492463072399995,45.2206008893,-93.1453386476,5.39341726835e-09,-1.30529116404e-08,277.302,-0.0,-0.00421541,-0.0692027,0.047181,-0.813945,0.495902,0.244929,0.0,204.014,1,0,0,0
329463543,1492463072399995,45.220600938,-93.145338668,5.3673545608e-09,-1.30528974296e-08,277.301,-0.0,0.00207912,-0.0741486,0.0805006,-0.80477,0.509188,0.244852,0.0,204.099,1,0,0,0
329565141,1492463072399995,45.2206010504,-93.1453386103,5.36736877166e-09,-1.30529116404e-08,277.294,-0.0,-0.0196045,-0.0792569,0.140248,-0.802962,0.496881,0.244754,0.0,203.589,1,0,0,0
329665095,1492463072399995,45.2206011195,-93.1453386013,5.39341016292e-09,-1.30529116404e-08,277.286,-0.0,-0.0227909,-0.0894504,0.1333,-0.805207,0.484183,0.244202,0.0,203.675,1,0,0,0
329769072,1492463072399995,45.2206011218,-93.1453384722,5.39341726835e-09,-1.30528974296e-08,277.277,-0.0,-0.00750436,-0.0646746,0.110346,-0.796906,0.498697,0.244898,0.0,203.929,1,0,0,0
329869003,1492463072399995,45.2206011086,-93.1453383739,5.39341016292e-09,-1.30528974296e-08,277.267,-0.0,-0.0492248,-0.0105887,0.0891364,-0.779853,0.485818,0.244348,0.0,203.76,1,0,0,0
329971185,1492463072399995,45.2206010382,-93.1453382494,5.39341726835e-09,-1.30528974296e-08,277.26,-0.0,-0.0999718,-0.0305636,0.037535,-0.763044,0.500744,0.245191,0.0,203.504,1,0,0,0
330071193,1492463072399995,45.2206009563,-93.1453381654,5.3673545608e-09,-1.30528974296e-08,277.259,-0.0,-0.0698726,-0.0377631,0.0187381,-0.758985,0.487708,0.244646,0.0,203.589,1,0,0,0
330174670,1492463072399995,45.2206009084,-93.1453380124,5.3673545608e-09,-1.30528974296e-08,277.262,-0.0,-0.0734593,-0.000376087,0.0164174,-0.752422,0.500018,0.244366,0.0,203.929,1,0,0,0
330276332,1492463073399995,45.2206008567,-93.1453378856,5.39341016292e-09,-1.30528974296e-08,277.261,-0.0,-0.0805931,-0.0137305,0.0211863,-0.752992,0.486513,0.243696,0.0,203.589,1,0,0,0
330374695,1492463073399995,45.2206008944,-93.1453376727,5.39341726835e-09,-1.30528974296e-08,277.258,-0.0,-0.071413,-0.00764227,0.0168103,-0.766005,0.499307,0.245479,0.0,203.76,1,0,0,0
330476621,1492463073399995,45.220600911,-93.1453375517,5.36736166623e-09,-1.30528974296e-08,277.257,-0.0,-0.0516779,-0.0295372,0.0197885,-0.781911,0.511596,0.244957,0.0,203.675,1,0,0,0
330580312,1492463073399995,45.2206010248,-93.1453373357,5.39341726835e-09,-1.30528974296e-08,277.253,-0.0,-0.0416122,-0.0176294,0.0401936,-0.780777,0.500301,0.245352,0.0,203.675,1,0,0,0
330680989,1492463073399995,45.2206010841,-93.1453371832,5.39341016292e-09,-1.30529116404e-08,277.248,-0.0,-0.0469833,-0.0179609,0.0479613,-0.766874,0.488387,0.24353,0.0,203.675,1,0,0,0
330780260,1492463073399995,45.2206010946,-93.1453370401,5.36734745538e-09,-1.30528974296e-08,277.245,-0.0,-0.0513845,-0.0192785,0.0459154,-0.749264,0.50072,0.245087,0.0,203.504,1,0,0,0
330885546,1492463073399995,45.2206010969,-93.1453369196,5.39341016292e-09,-1.30529116404e-08,277.243,-0.0,-0.0629067,-0.0249126,0.0303368,-0.740834,0.488388,0.245014,0.0,203.76,1,0,0,0
330985910,1492463073399995,45.220601085,-93.1453368499,5.39341726835e-09,-1.30528974296e-08,277.242,-0.0,-0.0743402,-0.0287321,0.0141999,-0.742532,0.502356,0.245413,0.0,203.844,1,0,0,0
331085892,1492463073399995,45.2206010663,-93.1453368063,5.36734745538e-09,-1.30529116404e-08,277.242,-0.0,-0.0759525,-0.0286815,0.0149206,-0.746485,0.490263,0.243742,0.0,203.844,1,0,0,0
331189885,1492463073399995,45.2206010639,-93.1453367896,5.3673545608e-09,-1.30528974296e-08,277.243,-0.0,-0.0697935,-0.0345887,0.0226127,-0.747035,0.503438,0.245621,0.0,203.76,1,0,0,0
331292259,1492463074399995,45.2206010333,-93.1453368116,5.36736166623e-09,-1.30528832187e-08,277.244,-0.0,-0.0652746,-0.0447969,0.025722,-0.745003,0.490363,0.243496,0.0,204.014,1,0,0,0
331392307,1492463074399995,45.220600959,-93.1453368727,5.3673545608e-09,-1.30529116404e-08,277.241,-0.0,-0.0641449,-0.0458195,0.0308046,-0.744579,0.502213,0.244832,0.0,203.504,1,0,0,0
331492321,1492463074399995,45.2206009094,-93.1453369514,5.3934030575e-09,-1.30528974296e-08,277.238,-0.0,-0.0585655,-0.0518561,0.0324019,-0.74525,0.490093,0.244864,0.0,203.504,1,0,0,0
331592249,1492463074399995,45.2206008793,-93.1453370423,5.39341726835e-09,-1.30529116404e-08,277.237,-0.0,-0.0655038,-0.0523831,0.0284647,-0.744882,0.503704,0.245111,0.0,203.589,1,0,0,0
331694357,1492463074399995,45.2206008367,-93.1453370674,5.39341016292e-09,-1.30528974296e-08,277.237,-0.0,-0.0586341,-0.0546132,0.0278498,-0.745608,0.48974,0.244356,0.0,203.76,1,0,0,0
331797841,1492463074399995,45.2206007851,-93.1453370367,5.39341016292e-09,-1.30529116404e-08,277.237,-0.0,-0.0613547,-0.0520689,0.0252492,-0.743785,0.502667,0.244324,0.0,203.589,1,0,0,0
331897852,1492463074399995,45.2206007488,-93.1453369997,5.39342437378e-09,-1.30528974296e-08,277.24,-0.0,-0.0673039,-0.0550741,0.0236959,-0.741095,0.490665,0.244348,0.0,203.335,1,0,0,0
332002516,1492463074399995,45.2206007157,-93.1453369846,5.39341016292e-09,-1.30529116404e-08,277.246,-0.0,-0.0680786,-0.0651326,0.0231948,-0.740551,0.505297,0.24498,0.0,203.844,1,0,0,0
332103596,1492463074399995,45.2206006913,-93.1453369985,5.39341016292e-09,-1.30528974296e-08,277.244,-0.0,-0.0546309,-0.0835798,0.11004,-0.740504,0.49029,0.243781,0.0,203.844,1,0,0,0
332204156,1492463074399995,45.2206006906,-93.1453370272,5.39341726835e-09,-1.30529116404e-08,277.237,-0.0,-0.0403761,-0.108501,0.129033,-0.740951,0.504888,0.244426,0.0,203.504,1,0,0,0
332303703,1492463075399996,45.2206007224,-93.1453370564,5.39341016292e-09,-1.30528832187e-08,277.229,-0.0,-0.0319912,-0.115832,0.128922,-0.745549,0.490902,0.243702,0.0,203.166,1,0,0,0
332407552,1492463075399996,45.220600781,-93.145337069,5.39341726835e-09,-1.30528974296e-08,277.218,-0.0,-0.0223784,-0.116161,0.107526,-0.752008,0.505169,0.244215,0.0,202.231,1,0,0,0
332507454,1492463075399996,45.2206008466,-93.1453370639,5.3673545608e-09,-1.30529116404e-08,277.208,-0.0,-0.0117231,-0.11549,0.100399,-0.758018,0.491184,0.245325,0.0,202.062,1,0,0,0
332609092,1492463075399996,45.2206009248,-93.1453370587,5.39341016292e-09,-1.30528974296e-08,277.19,-0.0,0.00462558,-0.12905,0.112038,-0.765177,0.505239,0.245763,0.0,201.807,1,0,0,0
332709046,1492463075399996,45.2206009832,-93.1453370461,5.36736166623e-09,-1.30528974296e-08,277.157,-0.0,0.0205517,-0.122159,0.12543,-0.771886,0.49189,0.245257,0.0,201.468,1,0,0,0
332813891,1492463075399996,45.2206010363,-93.145337008,5.39341016292e-09,-1.30528974296e-08,277.101,-0.0,0.0275299,-0.0859928,0.117049,-0.769206,0.506769,0.246023,0.0,202.147,1,0,0,0
332913072,1492463075399996,45.2206010764,-93.1453369029,5.39341016292e-09,-1.30528832187e-08,277.036,-0.0,0.0151972,-0.0537867,0.112652,-0.759444,0.49322,0.245504,0.0,202.316,1,0,0,0
333015442,1492463075399996,45.2206011212,-93.1453367832,5.39343147921e-09,-1.30529116404e-08,276.961,-0.0,0.0560011,-0.060339,0.132804,-0.748257,0.506825,0.245712,0.0,202.486,1,0,0,0
333118669,1492463075399996,45.2206012126,-93.1453367009,5.3934030575e-09,-1.30529116404e-08,276.872,-0.0,0.0813355,-0.0926942,0.159902,-0.73421,0.495323,0.244268,0.0,203.08,1,0,0,0
333218772,1492463075399996,45.2206013142,-93.1453366895,5.39341726835e-09,-1.30528974296e-08,276.802,-0.0,0.0867013,-0.100529,0.164847,-0.718019,0.507456,0.245666,0.0,202.995,1,0,0,0
333319138,1492463076399996,45.2206014169,-93.1453366374,5.39341016292e-09,-1.30528974296e-08,276.73,-0.0,0.0493244,-0.100237,0.184969,-0.7001,0.494203,0.245191,0.0,203.335,1,0,0,0
333423447,1492463076399996,45.2206014938,-93.1453366243,5.3934030575e-09,-1.30529116404e-08,276.678,-0.0,0.0297209,-0.0908773,0.148946,-0.682728,0.508398,0.245613,0.0,202.995,1,0,0,0
333524357,1492463076399996,45.2206015497,-93.1453365528,5.39341726835e-09,-1.30528832187e-08,276.643,-0.0,-0.0153772,-0.0673438,0.122321,-0.66711,0.494848,0.245082,0.0,203.844,1,0,0,0
333624976,1492463076399996,45.2206015898,-93.1453364913,5.39342437378e-09,-1.30529116404e-08,276.619,-0.0,-0.011538,-0.0990479,0.193865,-0.656074,0.508513,0.24528,0.0,203.675,1,0,0,0
333725067,1492463076399996,45.2206016797,-93.1453364726,5.3673545608e-09,-1.30528974296e-08,276.598,-0.0,0.0399891,-0.129855,0.222685,-0.658085,0.494532,0.246474,0.0,203.844,1,0,0,0
333828958,1492463076399996,45.220601811,-93.1453364893,5.36736877166e-09,-1.30528974296e-08,276.583,-0.0,0.0722482,-0.15185,0.217773,-0.669343,0.509298,0.245236,0.0,203.504,1,0,0,0
333929897,1492463076399996,45.2206019839,-93.1453365691,5.39342437378e-09,-1.30528974296e-08,276.574,-0.0,0.0813744,-0.117192,0.192147,-0.674888,0.495159,0.246321,0.0,203.76,1,0,0,0
334030599,1492463076399996,45.2206021357,-93.1453366035,5.39338884664e-09,-1.30529116404e-08,276.574,-0.0,0.070761,-0.0345812,0.192047,-0.671722,0.51164,0.245772,0.0,203.166,1,0,0,0
334129880,1492463076399996,45.2206022426,-93.1453366245,5.39341726835e-09,-1.30528974296e-08,276.572,-0.0,0.114168,0.0205047,0.206134,-0.666299,0.495732,0.246228,0.0,203.589,1,0,0,0
334233885,1492463076399996,45.2206023882,-93.1453366215,5.39341016292e-09,-1.30529116404e-08,276.576,-0.0,0.15746,0.0341375,0.209678,-0.660332,0.510117,0.246693,0.0,203.844,1,0,0,0
334334710,1492463077399996,45.2206025712,-93.1453365571,5.39341016292e-09,-1.30528832187e-08,276.582,-0.0,0.203825,0.0564327,0.20599,-0.655676,0.496795,0.246388,0.0,203.929,1,0,0,0
334435717,1492463077399996,45.220602802,-93.1453364664,5.36736166623e-09,-1.30528832187e-08,276.589,-0.0,0.264806,0.0703973,0.197671,-0.651014,0.509422,0.246114,0.0,203.76,1,0,0,0
334540008,1492463077399996,45.220603073,-93.1453363361,5.39342437378e-09,-1.30528832187e-08,276.603,-0.0,0.302341,0.131637,0.184674,-0.647701,0.497484,0.246265,0.0,203.42,1,0,0,0
334639489,1492463077399996,45.2206033583,-93.1453361381,5.39342437378e-09,-1.30528974296e-08,276.616,-0.0,0.337805,0.184769,0.108583,-0.638731,0.509249,0.245633,0.0,203.589,1,0,0,0
334739696,1492463077399996,45.2206037027,-93.1453358245,5.36736166623e-09,-1.30528974296e-08,276.64,-0.0,0.332626,0.171424,0.0542628,-0.623114,0.496681,0.245549,0.0,203.25,1,0,0,0
334841411,1492463077399996,45.2206040118,-93.145335529,5.39342437378e-09,-1.30529116404e-08,276.662,-0.0,0.27829,0.172065,0.0693981,-0.613621,0.510429,0.245747,0.0,203.844,1,0,0,0
334945708,1492463077399996,45.220604291,-93.1453351236,5.3673545608e-09,-1.30529116404e-08,276.686,-0.0,0.291414,0.196025,0.126071,-0.603579,0.498541,0.24591,0.0,204.099,1,0,0,0
335045110,1492463077399996,45.2206045213,-93.1453347857,5.39341726835e-09,-1.30528974296e-08,276.7,-0.0,0.206669,0.179288,0.145497,-0.59202,0.510714,0.245403,0.0,203.589,1,0,0,0
335145035,1492463077399996,45.2206047126,-93.1453344394,5.39341726835e-09,-1.30528832187e-08,276.721,-0.0,0.243273,0.1511,0.106882,-0.580279,0.498017,0.245182,0.0,203.76,1,0,0,0
335249620,1492463077399996,45.2206049383,-93.1453341149,5.39341726835e-09,-1.30528832187e-08,276.75,-0.0,0.25839,0.141465,0.0396413,-0.567139,0.512971,0.245825,0.0,204.014,1,0,0,0
335350863,1492463078399996,45.2206051792,-93.1453338441,5.39341016292e-09,-1.30528974296e-08,276.786,-0.0,0.277045,0.105386,-0.0491463,-0.54632,0.499313,0.245292,0.0,203.76,1,0,0,0
335450639,1492463078399996,45.2206054111,-93.1453336422,5.39341016292e-09,-1.30529116404e-08,276.826,-0.0,0.25331,0.0708613,-0.0557689,-0.518428,0.513754,0.245723,0.0,203.76,1,0,0,0
335554644,1492463078399996,45.2206056587,-93.1453334411,5.36736166623e-09,-1.30528974296e-08,276.866,-0.0,0.255153,-0.000395346,-0.0221623,-0.501471,0.499269,0.244831,0.0,204.014,1,0,0,0
335656193,1492463078399996,45.2206059033,-93.1453334138,5.36736166623e-09,-1.30528974296e-08,276.914,-0.0,0.275517,-0.132153,-0.269788,-0.495033,0.487671,0.244765,0.0,203.844,1,0,0,0
335756268,1492463078399996,45.2206061494,-93.1453336086,5.39341726835e-09,-1.30529116404e-08,276.987,-0.0,0.237491,-0.16828,-0.385463,-0.501648,0.502018,0.245414,0.0,203.844,1,0,0,0
335856285,1492463078399996,45.2206063819,-93.1453338493,5.39341726835e-09,-1.30529116404e-08,277.024,-0.0,0.29764,-0.233448,0.266177,-0.514699,0.514303,0.244907,0.0,204.099,1,0,0,0
335960291,1492463078399996,45.2206067188,-93.1453342898,5.36736877166e-09,-1.30528974296e-08,277.023,-0.0,0.475924,-0.408204,0.336916,-0.521029,0.50155,0.244616,0.0,204.014,1,0,0,0
336060245,1492463078399996,45.2206070471,-93.1453348206,5.3673545608e-09,-1.30528974296e-08,277.032,-0.0,0.301067,-0.385143,0.0158648,-0.52716,0.516359,0.245124,0.0,203.76,1,0,0,0
336161621,1492463078399996,45.220607185,-93.1453353262,5.36736166623e-09,-1.30528974296e-08,277.084,-0.0,0.205524,-0.325364,-0.426573,-0.540275,0.502077,0.244361,0.0,203.675,1,0,0,0
336262205,1492463078399996,45.2206073336,-93.1453357575,5.39341016292e-09,-1.30528974296e-08,277.137,-0.0,0.248848,-0.290337,0.0708771,-0.559269,0.516517,0.244764,0.0,203.929,1,0,0,0
336366403,1492463079399997,45.2206073787,-93.1453360511,5.39341016292e-09,-1.30528974296e-08,277.121,-0.0,0.288801,-0.353032,0.339447,-0.577833,0.505667,0.244803,0.0,204.014,1,0,0,0
336465899,1492463079399997,45.2206075199,-93.1453363738,5.39341016292e-09,-1.30528974296e-08,277.121,-0.0,0.235146,-0.251109,0.083861,-0.585695,0.492565,0.245605,0.0,203.675,1,0,0,0
336566377,1492463079399997,45.2206075633,-93.1453364562,5.36736877166e-09,-1.30528974296e-08,277.14,-0.0,0.126994,-0.158121,-0.0437355,-0.587266,0.507651,0.244641,0.0,203.76,1,0,0,0
336669464,1492463079399997,45.2206076213,-93.145336455,5.39341726835e-09,-1.30529116404e-08,277.174,-0.0,0.194454,-0.0435155,-0.304672,-0.576146,0.496491,0.244441,0.0,204.014,1,0,0,0
336771472,1492463079399997,45.2206078238,-93.1453362158,5.36736166623e-09,-1.30529116404e-08,277.218,-0.0,0.276396,0.0469942,-0.0317319,-0.555693,0.509048,0.244177,0.0,204.184,1,0,0,0
336871489,1492463079399997,45.2206080465,-93.145335997,5.39341016292e-09,-1.30529116404e-08,277.204,-0.0,0.276222,0.0737012,0.474579,-0.531444,0.497104,0.243949,0.0,203.929,1,0,0,0
336975421,1492463079399997,45.2206085729,-93.1453358668,5.3934030575e-09,-1.30528832187e-08,277.2,-0.0,0.462409,0.0403514,0.0540218,-0.502656,0.509834,0.245566,0.0,204.269,1,0,0,0
337075585,1492463079399997,45.2206090242,-93.1453357533,5.39341726835e-09,-1.30528974296e-08,277.224,-0.0,0.349917,0.0336014,-0.0776158,-0.47896,0.499177,0.245579,0.0,203.675,1,0,0,0
337177026,1492463079399997,45.2206092538,-93.1453355682,5.36736166623e-09,-1.30529116404e-08,277.253,-0.0,0.289761,0.00284894,-0.0997164,-0.459206,0.511738,0.24531,0.0,204.014,1,0,0,0
337277238,1492463080399997,45.2206094876,-93.1453354804,5.36736166623e-09,-1.30529116404e-08,277.28,-0.0,0.296749,-0.0433641,-0.0362097,-0.442129,0.500399,0.245443,0.0,204.269,1,0,0,0
337381082,1492463080399997,45.2206097522,-93.1453354709,5.39339595207e-09,-1.30529116404e-08,277.302,-0.0,0.286171,-0.087899,-0.0244669,-0.428704,0.512705,0.245026,0.0,204.269,1,0,0,0
337481174,1492463080399997,45.2206100041,-93.1453355496,5.36736877166e-09,-1.30529116404e-08,277.327,-0.0,0.24659,-0.141855,-0.0231181,-0.423124,0.502218,0.245395,0.0,204.099,1,0,0,0
337582774,1492463080399997,45.2206102371,-93.1453357344,5.39339595207e-09,-1.30528974296e-08,277.351,-0.0,0.178824,-0.188102,0.0119907,-0.426506,0.516557,0.245817,0.0,204.099,1,0,0,0
337682741,1492463080399997,45.220610397,-93.1453359318,5.39341016292e-09,-1.30528974296e-08,277.371,-0.0,0.104294,-0.226073,0.0255086,-0.435249,0.50328,0.245056,0.0,203.929,1,0,0,0
337786742,1492463080399997,45.2206105006,-93.1453360686,5.39341016292e-09,-1.30529116404e-08,277.397,-0.0,0.0600382,-0.213505,-0.0700934,-0.442677,0.517818,0.245557,0.0,204.184,1,0,0,0
337886667,1492463080399997,45.2206105822,-93.1453362431,5.3934030575e-09,-1.30528974296e-08,277.423,-0.0,0.024804,-0.198959,-0.0755434,-0.446769,0.505389,0.244674,0.0,203.844,1,0,0,0
337990637,1492463080399997,45.220610655,-93.1453363799,5.39342437378e-09,-1.30528974296e-08,277.445,-0.0,-0.00949485,-0.12849,-0.0357112,-0.44805,0.519793,0.245091,0.0,204.099,1,0,0,0
338088215,1492463080399997,45.2206106852,-93.1453364591,5.3934030575e-09,-1.30528974296e-08,277.459,-0.0,-0.017667,-0.072701,-0.0239999,-0.450366,0.506719,0.246023,0.0,203.929,1,0,0,0
338192422,1492463080399997,45.2206107183,-93.1453364535,5.36736166623e-09,-1.30529116404e-08,277.474,-0.0,-0.0223649,0.0297606,-0.0379177,-0.453139,0.521165,0.246436,0.0,204.354,1,0,0,0
338292301,1492463081399997,45.2206107191,-93.1453363411,5.39341726835e-09,-1.30529116404e-08,277.486,-0.0,-0.0621979,0.132306,-0.0504791,-0.454368,0.507713,0.245731,0.0,204.014,1,0,0,0
338498572,1492463081399997,45.220610471,-93.1453358648,5.39342437378e-09,-1.30528974296e-08,277.504,-0.0,-0.173586,0.228486,0.00223891,-0.446999,0.512282,0.244755,0.0,204.354,1,0,0,0
338597806,1492463081399997,45.2206102957,-93.1453355485,5.39342437378e-09,-1.30529116404e-08,277.506,-0.0,-0.163438,0.235531,-0.00420006,-0.438707,0.525154,0.246336,0.0,204.099,1,0,0,0
338698652,1492463081399997,45.2206101261,-93.1453352061,5.36734745538e-09,-1.30529116404e-08,277.507,-0.0,-0.159109,0.184786,-0.000456662,-0.428975,0.513349,0.246356,0.0,204.014,1,0,0,0
338802455,1492463081399997,45.2206099546,-93.1453349061,5.3934030575e-09,-1.30528974296e-08,277.509,-0.0,-0.175143,0.126589,0.00870201,-0.418415,0.528477,0.246997,0.0,203.76,1,0,0,0
338902561,1492463081399997,45.2206098677,-93.1453347267,5.39342437378e-09,-1.30528974296e-08,277.517,-0.0,-0.0904398,0.107659,-0.139583,-0.40972,0.514427,0.246213,0.0,203.76,1,0,0,0
339004340,1492463081399997,45.2206098551,-93.145334667,5.39341726835e-09,-1.30529116404e-08,277.53,-0.0,-0.106559,0.046014,-0.0404123,-0.399551,0.52838,0.246391,0.0,203.929,1,0,0,0
339103936,1492463081399997,45.2206097846,-93.1453345681,5.3934030575e-09,-1.30482789018e-08,277.536,-0.0,-0.0990015,0.0587977,-0.0234858,-0.394098,0.515093,0.245832,0.0,203.929,1,0,0,0
339207467,1492463081399997,45.2206097107,-93.1453344193,5.39339595207e-09,-1.30528832187e-08,277.544,-0.0,-0.0741257,0.0662027,-0.0399246,-0.390562,0.527551,0.247294,0.0,204.014,1,0,0,0
339307473,1492463082399997,45.2206096639,-93.1453343452,5.3673545608e-09,-1.30528974296e-08,277.555,-0.0,-0.0501696,0.0402422,-0.0357846,-0.388253,0.516844,0.24564,0.0,203.589,1,0,0,0
339409050,1492463082399997,45.2206096421,-93.1453343446,5.36736166623e-09,-1.30529116404e-08,277.566,-0.0,-0.0306915,0.0290488,-0.0269142,-0.390095,0.529672,0.247235,0.0,204.184,1,0,0,0
339513051,1492463082399997,45.2206096442,-93.1453342896,5.39341016292e-09,-1.30528974296e-08,277.577,-0.0,-0.0044187,0.0378898,-0.0224506,-0.395561,0.517936,0.245496,0.0,204.523,1,0,0,0
339613650,1492463082399997,45.2206096507,-93.1453342207,5.39342437378e-09,-1.30482789018e-08,277.586,-0.0,-0.0125989,0.0234779,-0.0472776,-0.400428,0.533264,0.246208,0.0,204.014,1,0,0,0
339713158,1492463082399997,45.2206096545,-93.1453341618,5.3673545608e-09,-1.30528974296e-08,277.596,-0.0,0.000218769,0.0236028,-0.0538292,-0.403943,0.518105,0.246825,0.0,204.184,1,0,0,0
339817098,1492463082399997,45.2206096626,-93.1453341016,5.3934030575e-09,-1.30529116404e-08,277.608,-0.0,-0.00446361,0.024575,-0.0507144,-0.408142,0.53371,0.24582,0.0,204.014,1,0,0,0
339918636,1492463082399997,45.2206096322,-93.1453341253,5.39341016292e-09,-1.30528974296e-08,277.618,-0.0,0.0119928,0.0290903,-0.0518892,-0.410908,0.520175,0.247136,0.0,204.014,1,0,0,0
340018705,1492463082399997,45.2206096146,-93.1453341664,5.39341726835e-09,-1.30529116404e-08,277.626,-0.0,0.0348736,0.0314214,-0.0395371,-0.411271,0.533537,0.247075,0.0,203.929,1,0,0,0
340119490,1492463082399997,45.2206096187,-93.145334171,5.39341726835e-09,-1.30528974296e-08,277.63,-0.0,0.0530858,0.0350202,-0.0238529,-0.410792,0.520625,0.246841,0.0,204.269,1,0,0,0
340221106,1492463082399997,45.2206096347,-93.1453341556,5.3934030575e-09,-1.30528974296e-08,277.632,-0.0,0.0499468,0.0334771,-0.0194838,-0.410903,0.535666,0.247483,0.0,203.76,1,0,0,0
340325655,1492463083399997,45.2206096118,-93.1453341712,5.39341726835e-09,-1.30528974296e-08,277.637,-0.0,0.0316071,0.0194589,-0.0516047,-0.408067,0.521682,0.246727,0.0,204.354,1,0,0,0
340425165,1492463083399997,45.2206095782,-93.1453342062,5.39342437378e-09,-1.30529116404e-08,277.648,-0.0,0.0355238,-0.00882976,-0.0986434,-0.399123,0.534662,0.246519,0.0,204.184,1,0,0,0
340525161,1492463083399997,45.2206095481,-93.1453343765,5.39339595207e-09,-1.30529116404e-08,277.661,-0.0,0.101098,-0.0742002,-0.111439,-0.387256,0.522667,0.246652,0.0,204.014,1,0,0,0
340626722,1492463083399997,45.2206095842,-93.1453346483,5.3673545608e-09,-1.30528974296e-08,277.674,-0.0,0.165446,-0.15215,-0.0548332,-0.37744,0.535427,0.246353,0.0,203.504,1,0,0,0
340730642,1492463083399997,45.2206097158,-93.1453349877,5.36736166623e-09,-1.30529116404e-08,277.678,-0.0,0.289556,-0.242061,-0.00635388,-0.380968,0.522356,0.246005,0.0,203.335,1,0,0,0
340831246,1492463083399997,45.2206099578,-93.1453354523,5.3934030575e-09,-1.30529116404e-08,277.671,-0.0,0.384727,-0.385728,0.0461378,-0.393623,0.536994,0.246491,0.0,203.08,1,0,0,0
340930658,1492463083399997,45.2206102998,-93.1453361351,5.39341016292e-09,-1.30528974296e-08,277.662,-0.0,0.420367,-0.514807,-0.00317694,-0.413423,0.521567,0.245238,0.0,203.335,1,0,0,0
341035397,1492463083399997,45.2206106352,-93.1453369922,5.3934030575e-09,-1.30528974296e-08,277.653,-0.0,0.358703,-0.602508,-0.108127,-0.431147,0.537565,0.24632,0.0,203.25,1,0,0,0
341136296,1492463083399997,45.2206109889,-93.1453378747,5.36736877166e-09,-1.30529116404e-08,277.65,-0.0,0.347359,-0.669113,-0.238047,-0.431322,0.521995,0.245045,0.0,203.335,1,0,0,0
341236313,1492463083399997,45.2206113959,-93.1453387506,5.39341016292e-09,-1.30529116404e-08,277.654,-0.0,0.486815,-0.58695,-0.274993,-0.415066,0.536286,0.245433,0.0,202.657,1,0,0,0
341340282,1492463084399998,45.2206119508,-93.1453394802,5.39342437378e-09,-1.30528974296e-08,277.638,-0.0,0.645442,-0.710611,0.136465,-0.395638,0.522362,0.244735,0.0,202.911,1,0,0,0
341440298,1492463084399998,45.220612602,-93.145340434,5.39341726835e-09,-1.30528974296e-08,277.576,-0.0,0.767091,-0.912824,0.423809,-0.362535,0.537251,0.245344,0.0,202.571,1,0,0,0
341541887,1492463084399998,45.2206133984,-93.1453416652,5.39343147921e-09,-1.30529116404e-08,277.502,-0.0,1.03391,-1.14833,0.237166,-0.325545,0.524096,0.245023,0.0,203.675,1,0,0,0
341642490,1492463084399998,45.2206144689,-93.1453432286,5.3934030575e-09,-1.30529116404e-08,277.449,-0.0,1.41174,-1.4668,-0.106639,-0.315302,0.539495,0.245884,0.0,203.675,1,0,0,0
341746694,1492463084399998,45.2206161641,-93.1453455582,5.39341016292e-09,-1.30529116404e-08,277.441,-0.0,2.17395,-1.99978,-0.754999,-0.351239,0.527677,0.2461,0.0,203.25,1,0,0,0
341845868,1492463084399998,45.2206188783,-93.1453489858,5.3934030575e-09,-1.30482931127e-08,277.546,-0.0,4.25345,-3.39851,-2.18983,-0.420567,0.539321,0.245351,0.0,203.25,1,0,0,0
341948065,1492463084399998,45.220623379,-93.1453540279,5.3934030575e-09,-1.30482789018e-08,277.762,-0.0,4.91889,-3.82415,-2.60473,-0.457158,0.526269,0.245032,0.0,202.826,1,0,0,0
342047854,1492463084399998,45.2206279923,-93.1453590657,5.3934030575e-09,-1.30482789018e-08,278.011,-0.0,5.04658,-3.88566,-3.08304,-0.49696,0.538628,0.24453,0.0,201.468,1,0,0,0
342152619,1492463084399998,45.2206327606,-93.145364457,5.39341016292e-09,-1.3050609482e-08,278.323,-0.0,5.049,-3.88312,-3.58199,-0.558247,0.526993,0.244376,0.0,202.062,1,0,0,0
342251484,1492463084399998,45.2206372914,-93.1453695671,5.36734745538e-09,-1.3050609482e-08,278.656,-0.0,4.92341,-3.84189,-4.0757,-0.634064,0.541238,0.246328,0.0,202.571,1,0,0,0
342352239,1492463085399998,45.2206415584,-93.145374773,5.39342437378e-09,-1.3050609482e-08,279.013,-0.0,4.76683,-3.80884,-4.43517,-0.710928,0.530443,0.244785,0.0,202.911,1,0,0,0
342453094,1492463085399998,45.2206458374,-93.1453799709,5.36736166623e-09,-1.30494441919e-08,279.391,-0.0,4.72578,-3.8721,-4.5588,-0.786423,0.544864,0.246675,0.0,204.269,1,0,0,0
342557656,1492463085399998,45.2206500386,-93.1453856325,5.39341016292e-09,-1.30494441919e-08,279.764,-0.0,4.74682,-4.06956,-4.51017,-0.84616,0.532754,0.246727,0.0,203.76,1,0,0,0
342657097,1492463085399998,45.2206542388,-93.1453912491,5.39341016292e-09,-1.30500268369e-08,280.105,-0.0,4.94676,-4.39909,-4.16257,-0.456353,0.549534,0.245707,0.0,204.523,1,0,0,0
342761096,1492463085399998,45.2206585857,-93.145397678,5.39339595207e-09,-1.30500410478e-08,280.417,-0.0,5.4314,-4.78167,-3.51197,-0.371197,0.534748,0.246883,0.0,205.797,1,0,0,0
342865639,1492463085399998,45.2206634429,-93.1454043421,5.39339595207e-09,-1.30494584027e-08,280.654,-0.0,5.94552,-5.06899,-2.96956,-0.281138,0.524179,0.246402,0.0,204.778,1,0,0,0
342966802,1492463085399998,45.220668831,-93.1454118421,5.39341016292e-09,-1.30494584027e-08,280.863,-0.0,6.34927,-5.35826,-2.72156,-0.208598,0.537903,0.246473,0.0,206.137,1,0,0,0
343066636,1492463085399998,45.2206743656,-93.1454191981,5.39341726835e-09,-1.30483073235e-08,281.076,-0.0,6.51933,-5.63862,-2.92979,-0.18298,0.529045,0.246925,0.0,206.392,1,0,0,0
343172866,1492463085399998,45.2206799249,-93.1454274962,5.39338884664e-09,-1.30506236928e-08,281.352,-0.0,6.42648,-5.94277,-3.39973,-0.217208,0.543446,0.247104,0.0,205.712,1,0,0,0
343274662,1492463086399998,45.2206854123,-93.1454359781,5.3934030575e-09,-1.30483073235e-08,281.689,-0.0,6.16115,-6.11695,-3.97598,-0.287345,0.559253,0.247225,0.0,205.372,1,0,0,0
343375959,1492463086399998,45.2206897733,-93.1454446624,5.3934030575e-09,-1.30529400622e-08,282.072,-0.0,5.71452,-6.23643,-4.55804,-0.381823,0.548646,0.247813,0.0,206.392,1,0,0,0
343476293,1492463086399998,45.2206938182,-93.1454532065,5.39339595207e-09,-1.30529258513e-08,282.499,-0.0,5.3193,-6.29353,-5.02094,-0.464766,0.536557,0.247658,0.0,206.476,1,0,0,0
343579551,1492463086399998,45.2206976732,-93.1454620641,5.39339595207e-09,-1.30529258513e-08,282.972,-0.0,5.13466,-6.36017,-5.18665,-0.50414,0.551952,0.24774,0.0,207.75,1,0,0,0
343679476,1492463086399998,45.2207014105,-93.1454706257,5.39338884664e-09,-1.30529258513e-08,283.428,-0.0,5.17628,-6.49267,-5.08475,-0.508092,0.537397,0.246817,0.0,207.92,1,0,0,0
343780071,1492463086399998,45.2207049531,-93.1454792941,5.39339595207e-09,-1.30483073235e-08,283.857,-0.0,5.28552,-6.63688,-4.96001,-0.490246,0.554433,0.247562,0.0,208.344,1,0,0,0
343883560,1492463086399998,45.2207091079,-93.1454884533,5.39339595207e-09,-1.30483215344e-08,284.296,-0.0,5.56344,-6.82767,-4.61564,-0.468754,0.542202,0.247673,0.0,209.704,1,0,0,0
343984306,1492463086399998,45.2207133821,-93.1454972389,5.39339595207e-09,-1.30483073235e-08,284.687,-0.0,5.92215,-6.99828,-4.15067,-0.442116,0.55754,0.247774,0.0,211.232,1,0,0,0
344084311,1492463086399998,45.220718102,-93.1455061803,5.39339595207e-09,-1.30483215344e-08,285.038,-0.0,6.25132,-7.12838,-3.8186,-0.412435,0.543789,0.249184,0.0,210.553,1,0,0,0
344188274,1492463086399998,45.2207231534,-93.1455153837,5.3934030575e-09,-1.30575728008e-08,285.4,-0.0,6.50014,-7.17421,-3.76232,-0.384097,0.560739,0.2499,0.0,210.893,1,0,0,0
344288718,1492463087399998,45.2207283585,-93.1455241993,5.3934030575e-09,-1.30483215344e-08,285.757,-0.0,6.7693,-7.20425,-3.65614,-0.363295,0.548911,0.249537,0.0,211.572,1,0,0,0
344388378,1492463087399998,45.2207338388,-93.1455328441,5.39339595207e-09,-1.30575728008e-08,286.102,-0.0,7.07495,-7.19329,-3.46637,-0.345385,0.567179,0.250509,0.0,212.846,1,0,0,0
344494441,1492463087399998,45.2207399534,-93.1455417926,5.39338884664e-09,-1.30483215344e-08,286.434,-0.0,7.37208,-7.17273,-3.28999,-0.333535,0.55542,0.250656,0.0,212.168,1,0,0,0
344593040,1492463087399998,45.220746084,-93.1455503825,5.36732613909e-09,-1.30575728008e-08,286.737,-0.0,7.65495,-7.13737,-3.09324,-0.319719,0.571501,0.250652,0.0,213.782,1,0,0,0
344693035,1492463087399998,45.2207524607,-93.1455588907,5.39339595207e-09,-1.30575870116e-08,287.034,-0.0,7.88562,-7.09122,-3.02508,-0.306732,0.560453,0.251252,0.0,213.611,1,0,0,0
344797729,1492463087399998,45.220759211,-93.1455678629,5.39338884664e-09,-1.30390844788e-08,287.338,-0.0,8.10962,-7.0713,-2.97229,-0.293191,0.579181,0.252115,0.0,212.762,1,0,0,0
344897120,1492463087399998,45.2207659611,-93.1455765784,5.39338174121e-09,-1.30575870116e-08,287.635,-0.0,8.32942,-7.05602,-2.96047,-0.27243,0.564347,0.251878,0.0,213.187,1,0,0,0
345001092,1492463087399998,45.2207731786,-93.1455856814,5.39338884664e-09,-1.30576012225e-08,287.959,-0.0,8.50914,-6.9689,-3.24348,-0.251933,0.582932,0.252715,0.0,214.631,1,0,0,0
345101110,1492463087399998,45.2207802618,-93.1455945396,5.36734034995e-09,-1.30575870116e-08,288.295,-0.0,8.6795,-6.8665,-3.48132,-0.242684,0.56636,0.253945,0.0,214.886,1,0,0,0
345203367,1492463087399998,45.2207876349,-93.1456035218,5.39337463579e-09,-1.30576012225e-08,288.637,-0.0,8.83698,-6.79842,-3.4041,-0.242739,0.586306,0.253326,0.0,215.566,1,0,0,0
345302724,1492463088399999,45.2207951132,-93.145612409,5.36732613909e-09,-1.30575870116e-08,288.971,-0.0,8.88098,-6.74895,-3.36832,-0.242673,0.569307,0.254554,0.0,215.651,1,0,0,0
345406665,1492463088399999,45.2208028213,-93.1456216154,5.39336753036e-09,-1.30576012225e-08,289.314,-0.0,8.85636,-6.68212,-3.37758,-0.240214,0.588036,0.25561,0.0,215.651,1,0,0,0
345507340,1492463088399999,45.2208102994,-93.1456306761,5.39338174121e-09,-1.30576012225e-08,289.655,-0.0,8.806,-6.66067,-3.41899,-0.233598,0.575332,0.256015,0.0,216.161,1,0,0,0
345607215,1492463088399999,45.2208178094,-93.14563995,5.41944444876e-09,-1.30576154334e-08,290.011,-0.0,8.76693,-6.65746,-3.41691,-0.227945,0.592014,0.256218,0.0,217.011,1,0,0,0
345708824,1492463088399999,45.2208254597,-93.1456494787,5.36732613909e-09,-1.30576012225e-08,290.375,-0.0,8.7107,-6.67493,-3.46338,-0.224531,0.579628,0.256686,0.0,216.926,1,0,0,0
345812840,1492463088399999,45.2208332328,-93.1456594647,5.36730482281e-09,-1.30391271114e-08,290.768,-0.0,8.57832,-6.69097,-3.76475,-0.224517,0.598636,0.257785,0.0,218.116,1,0,0,0
345912345,1492463088399999,45.2208406047,-93.1456688782,5.41942313248e-09,-1.30576154334e-08,291.198,-0.0,8.38277,-6.6583,-4.20603,-0.227553,0.581631,0.256622,0.0,217.775,1,0,0,0
346016949,1492463088399999,45.2208481325,-93.1456785883,5.36731192824e-09,-1.30576154334e-08,291.678,-0.0,8.22088,-6.61165,-4.41319,-0.239374,0.601248,0.258018,0.0,219.05,1,0,0,0
346117143,1492463088399999,45.2208553133,-93.1456879325,5.36732613909e-09,-1.30576154334e-08,292.165,-0.0,8.10802,-6.5958,-4.40364,-0.248125,0.58544,0.257821,0.0,218.541,1,0,0,0
346217090,1492463088399999,45.2208624044,-93.1456970755,5.41943023791e-09,-1.30576296442e-08,292.644,-0.0,8.02805,-6.58894,-4.32163,-0.245446,0.605845,0.259569,0.0,218.541,1,0,0,0
346317100,1492463089399999,45.2208695487,-93.145705884,5.36730482281e-09,-1.30576296442e-08,293.107,-0.0,7.98233,-6.55107,-4.19681,-0.23351,0.589408,0.259139,0.0,219.986,1,0,0,0
346421051,1492463089399999,45.2208770092,-93.1457147709,5.36731903367e-09,-1.30576154334e-08,293.566,-0.0,7.92919,-6.51639,-4.11333,-0.218193,0.606154,0.259524,0.0,220.241,1,0,0,0
346521098,1492463089399999,45.2208842643,-93.1457229617,5.36731903367e-09,-1.30206530002e-08,293.992,-0.0,7.87921,-6.45789,-4.06413,-0.199044,0.590642,0.259382,0.0,220.667,1,0,0,0
346625539,1492463089399999,45.2208917963,-93.1457312908,5.36730482281e-09,-1.30576296442e-08,294.434,-0.0,7.81129,-6.39298,-3.9972,-0.179497,0.612183,0.261836,0.0,220.921,1,0,0,0
346726592,1492463089399999,45.2208991914,-93.1457391364,5.36730482281e-09,-1.30576296442e-08,294.87,-0.0,7.66514,-6.29999,-4.13487,-0.162555,0.596743,0.261715,0.0,221.602,1,0,0,0
346827337,1492463089399999,45.2209063402,-93.1457467452,5.41941602705e-09,-1.30576438551e-08,295.307,-0.0,7.55418,-6.19771,-4.16206,-0.14772,0.614687,0.262649,0.0,221.602,1,0,0,0
346926710,1492463089399999,45.2209135816,-93.1457538746,5.36731903367e-09,-1.30576438551e-08,295.737,-0.0,7.48739,-6.06459,-4.0664,-0.137337,0.59711,0.262103,0.0,222.282,1,0,0,0
347031147,1492463089399999,45.220921088,-93.1457610621,5.41941602705e-09,-1.30576296442e-08,296.168,-0.0,7.41708,-5.9279,-3.92141,-0.124074,0.615844,0.263486,0.0,222.452,1,0,0,0
347130642,1492463089399999,45.220928505,-93.1457672832,5.36731192824e-09,-1.30576438551e-08,296.581,-0.0,7.20256,-5.6528,-4.20673,-0.10078,0.60067,0.26387,0.0,222.367,1,0,0,0
347232371,1492463089399999,45.2209355199,-93.1457735656,5.36730482281e-09,-1.30576438551e-08,297.04,-0.0,6.93374,-5.28152,-4.53055,-0.0767612,0.614703,0.26325,0.0,223.472,1,0,0,0
347333123,1492463090399999,45.2209425822,-93.1457787483,5.36731903367e-09,-1.30576580659e-08,297.505,-0.0,6.80269,-4.92062,-4.53396,-0.0596987,0.600945,0.264018,0.0,223.727,1,0,0,0
347436298,1492463090399999,45.2209495326,-93.1457840677,5.41942313248e-09,-1.30576580659e-08,297.977,-0.0,6.67717,-4.56867,-4.45016,-0.0396557,0.616437,0.266438,0.0,224.238,1,0,0,0
347536953,1492463090399999,45.2209566393,-93.1457877349,5.41941602705e-09,-1.30576580659e-08,298.422,-0.0,6.5809,-4.16851,-4.39211,-0.0140408,0.603513,0.265301,0.0,223.899,1,0,0,0
347640255,1492463090399999,45.2209635152,-93.1457916807,5.41942313248e-09,-1.30576438551e-08,298.881,-0.0,6.45516,-3.77974,-4.35416,0.0189375,0.619554,0.265656,0.0,224.748,1,0,0,0
347738722,1492463090399999,45.2209705915,-93.1457942793,5.41942313248e-09,-1.30576438551e-08,299.305,-0.0,6.44072,-3.44807,-4.20625,0.0560834,0.604301,0.265826,0.0,225.089,1,0,0,0
347841937,1492463090399999,45.220977859,-93.1457970282,5.41943023791e-09,-1.30576722768e-08,299.732,-0.0,6.42966,-3.12243,-3.9997,0.106599,0.621623,0.266817,0.0,226.025,1,0,0,0
347942463,1492463090399999,45.2209860307,-93.1457985786,5.41941602705e-09,-1.30576580659e-08,300.123,-0.0,6.50593,-2.74247,-3.77841,0.158588,0.607229,0.26737,0.0,226.705,1,0,0,0
348045925,1492463090399999,45.2209934965,-93.1458006623,5.41940892163e-09,-1.30576580659e-08,300.509,-0.0,6.47137,-2.3578,-3.63781,0.205809,0.623127,0.27009,0.0,226.96,1,0,0,0
348148086,1492463090399999,45.2210021231,-93.1458012182,5.41941602705e-09,-1.30576580659e-08,300.883,-0.0,6.52855,-1.93626,-3.4837,0.240381,0.608011,0.268203,0.0,227.642,1,0,0,0
348247450,1492463090399999,45.2210098391,-93.1458019183,5.41941602705e-09,-1.30206672111e-08,301.249,-0.0,6.46742,-1.53273,-3.46406,0.269218,0.625811,0.269436,0.0,227.896,1,0,0,0
348348126,1492463091399999,45.22101871,-93.1458012538,5.41942313248e-09,-1.30576722768e-08,301.626,-0.0,6.4706,-1.08304,-3.46287,0.293485,0.606573,0.270991,0.0,227.811,1,0,0,0
348451538,1492463091399999,45.2210269961,-93.1458007309,5.41942313248e-09,-1.30576580659e-08,302.01,-0.0,6.44826,-0.695254,-3.37928,0.321795,0.623329,0.271861,0.0,227.726,1,0,0,0
348552242,1492463091399999,45.2210346343,-93.1457999464,5.4194018162e-09,-1.30206814219e-08,302.356,-0.0,6.46881,-0.346601,-3.11689,0.355334,0.619727,0.272994,0.0,228.747,1,0,0,0
348654481,1492463091399999,45.221042058,-93.1457989771,5.41940892163e-09,-1.30576722768e-08,302.675,-0.0,6.45714,0.0247276,-2.87283,0.390299,0.61697,0.272253,0.0,228.491,1,0,0,0
348753073,1492463091399999,45.2210489279,-93.145797799,5.41940892163e-09,-1.30576580659e-08,302.963,-0.0,6.31612,0.396376,-2.8382,0.420892,0.632914,0.27462,0.0,228.663,1,0,0,0
348857151,1492463091399999,45.2210558307,-93.1457962163,5.41942313248e-09,-1.30206814219e-08,303.257,-0.0,6.2238,0.7259,-2.69024,0.46122,0.628743,0.27582,0.0,229.769,1,0,0,0
348957028,1492463091399999,45.2210625387,-93.1457941787,5.41942313248e-09,-1.30576722768e-08,303.514,-0.0,6.15299,1.06399,-2.4981,0.513353,0.650159,0.277632,0.0,229.513,1,0,0,0
349059192,1492463091399999,45.2210688386,-93.1457919773,5.41942313248e-09,-1.30576722768e-08,303.738,-0.0,6.07635,1.42486,-2.21725,0.566596,0.643531,0.277927,0.0,230.194,1,0,0,0
349162865,1492463091399999,45.221075555,-93.1457889888,5.41942313248e-09,-1.30206956328e-08,303.952,-0.0,5.96314,1.82934,-2.00274,0.615416,0.662006,0.277932,0.0,230.874,1,0,0,0
349263590,1492463092400000,45.2210817204,-93.1457857405,5.41941602705e-09,-1.30576722768e-08,304.142,-0.0,5.80247,2.22033,-1.92158,0.654804,0.657098,0.279168,0.0,230.364,1,0,0,0
349362865,1492463092400000,45.2210880819,-93.1457817299,5.41940892163e-09,-1.30576722768e-08,304.334,-0.0,5.60663,2.6375,-1.95495,0.692085,0.679306,0.280273,0.0,230.364,1,0,0,0
349466722,1492463092400000,45.2210943198,-93.1457771684,5.41941602705e-09,-1.30576864876e-08,304.542,-0.0,5.39645,3.04593,-1.9603,0.73109,0.670389,0.280017,0.0,230.449,1,0,0,0
349568160,1492463092400000,45.2211007531,-93.1457718171,5.41940892163e-09,-1.30576864876e-08,304.733,-0.0,5.20544,3.42732,-1.97887,0.766483,0.695023,0.281659,0.0,230.279,1,0,0,0
349667425,1492463092400000,45.221106407,-93.1457664888,5.41941602705e-09,-1.30576722768e-08,304.92,-0.0,5.05503,3.70748,-1.88846,0.806509,0.68504,0.284136,0.0,230.79,1,0,0,0
349771533,1492463092400000,45.2211131318,-93.145759876,5.41943023791e-09,-1.30206956328e-08,305.094,-0.0,4.95587,4.01838,-1.6988,0.867148,0.708182,0.284757,0.0,230.874,1,0,0,0
349871438,1492463092400000,45.2211188285,-93.1457535791,5.4194018162e-09,-1.30577006985e-08,305.24,-0.0,4.77555,4.33182,-1.56323,0.94257,0.697183,0.284304,0.0,230.619,1,0,0,0
349972484,1492463092400000,45.2211255372,-93.1457459676,5.41941602705e-09,-1.30576722768e-08,305.378,-0.0,4.50932,4.74403,-1.61847,1.01838,0.722884,0.285546,0.0,231.045,1,0,0,0
350075597,1492463092400000,45.2211311766,-93.1457381949,5.41942313248e-09,-1.30576722768e-08,305.541,-0.0,4.10609,5.17373,-1.84821,1.08618,0.709639,0.287573,0.0,231.13,1,0,0,0
350176378,1492463092400000,45.22113778,-93.1457290349,5.41941602705e-09,-1.30576722768e-08,305.724,-0.0,3.70111,5.60414,-2.25554,1.13998,0.737991,0.286457,0.0,230.79,1,0,0,0
350277748,1492463093400000,45.2211434889,-93.1457196915,5.41942313248e-09,-1.30576722768e-08,305.947,-0.0,3.26547,5.98972,-2.63398,1.18179,0.729877,0.288036,0.0,232.322,1,0,0,0
350377079,1492463093400000,45.2211490339,-93.1457097862,5.41942313248e-09,-1.30577006985e-08,306.204,-0.0,2.87189,6.34514,-2.86489,1.21481,0.751534,0.287019,0.0,231.386,1,0,0,0
350481078,1492463093400000,45.2211543008,-93.1456990702,5.41942313248e-09,-1.30576864876e-08,306.479,-0.0,2.48643,6.68279,-2.93898,1.24605,0.739345,0.290149,0.0,232.832,1,0,0,0
350581118,1492463093400000,45.2211599836,-93.145687636,5.41943023791e-09,-1.30576864876e-08,306.76,-0.0,2.09793,7.00793,-3.03265,1.27193,0.764855,0.290213,0.0,232.237,1,0,0,0
350682732,1492463093400000,45.2211650823,-93.1456757108,5.41943023791e-09,-1.30577006985e-08,307.063,-0.0,1.54231,7.27581,-3.42673,1.29082,0.752501,0.290617,0.0,231.13,1,0,0,0
350786685,1492463093400000,45.2211703449,-93.1456627737,5.41943023791e-09,-1.30576864876e-08,307.413,-0.0,1.12999,7.52338,-3.59268,1.31665,0.781091,0.291416,0.0,233.343,1,0,0,0
350886651,1492463093400000,45.2211752557,-93.1456497345,5.41942313248e-09,-1.30576864876e-08,307.741,-0.0,0.806293,7.76861,-3.55062,1.35551,0.769737,0.289573,0.0,233.173,1,0,0,0
350987131,1492463093400000,45.2211805249,-93.1456358072,5.41943023791e-09,-1.30577006985e-08,308.032,-0.0,0.733514,8.00951,-3.17059,1.40121,0.799403,0.29038,0.0,234.109,1,0,0,0
351087309,1492463093400000,45.2211857372,-93.145621494,5.41943023791e-09,-1.30576864876e-08,308.283,-0.0,0.710101,8.27485,-2.66218,1.46445,0.785615,0.291029,0.0,233.599,1,0,0,0
351192344,1492463093400000,45.2211906635,-93.1456063316,5.41943023791e-09,-1.30576722768e-08,308.513,-0.0,0.432531,8.53549,-2.38325,1.54136,0.811302,0.293349,0.0,233.599,1,0,0,0
351292443,1492463094400000,45.2211953933,-93.145591214,5.41944444876e-09,-1.30576864876e-08,308.726,-0.0,-0.0538978,8.7576,-2.32853,1.61476,0.793301,0.293053,0.0,234.194,1,0,0,0
351392623,1492463094400000,45.221199359,-93.145575966,5.41945155419e-09,-1.30576722768e-08,308.943,-0.0,-0.694984,8.94028,-2.30611,1.67994,0.819205,0.292264,0.0,234.025,1,0,0,0
351496290,1492463094400000,45.2212023495,-93.1455602539,5.41943023791e-09,-1.30576864876e-08,309.152,-0.0,-1.33139,9.10433,-2.11335,1.73319,0.797031,0.291057,0.0,233.854,1,0,0,0
351598643,1492463094400000,45.221206927,-93.145542467,5.41944444876e-09,-1.30576722768e-08,309.325,-0.0,-1.784,9.31902,-1.79789,1.77575,0.82969,0.292337,0.0,234.536,1,0,0,0
351697867,1492463094400000,45.221210748,-93.1455247116,5.41945155419e-09,-1.30484210104e-08,309.47,-0.0,-2.41263,9.45979,-1.62953,1.82153,0.813787,0.293298,0.0,234.364,1,0,0,0
351797872,1492463094400000,45.2212135824,-93.1455070214,5.41943734333e-09,-1.30484494321e-08,309.598,-0.0,-3.12437,9.50402,-1.54093,1.86647,0.84269,0.293161,0.0,234.536,1,0,0,0
351901947,1492463094400000,45.2212165622,-93.145487535,5.41945155419e-09,-1.30484494321e-08,309.725,-0.0,-3.93183,9.49508,-1.53949,1.91691,0.823529,0.293371,0.0,234.025,1,0,0,0
352001914,1492463094400000,45.2212175964,-93.1454698509,5.41945155419e-09,-1.3053053749e-08,309.838,-0.0,-4.64738,9.42843,-1.42528,1.96289,0.852196,0.293052,0.0,233.854,1,0,0,0
352103473,1492463094400000,45.2212179335,-93.14545184,5.41945865962e-09,-1.3053053749e-08,309.93,-0.0,-5.29779,9.34704,-1.26451,2.01246,0.828783,0.292105,0.0,234.279,1,0,0,0
352208066,1492463094400000,45.2212180381,-93.145432798,5.41946576504e-09,-1.30484352212e-08,309.996,-0.0,-5.97829,9.234,-1.12045,2.06816,0.861452,0.292969,0.0,234.109,1,0,0,0
352307478,1492463095400000,45.2212167934,-93.1454152911,5.41945155419e-09,-1.30507231688e-08,310.05,-0.0,-6.62689,9.07943,-0.950655,2.12348,0.835692,0.291389,0.0,234.109,1,0,0,0
352408059,1492463095400000,45.2212154694,-93.1453970462,5.41945865962e-09,-1.30501547346e-08,310.077,-0.0,-7.33198,8.86166,-0.902528,2.1791,0.868579,0.292257,0.0,233.854,1,0,0,0
352508748,1492463095400000,45.2212136968,-93.1453782291,5.41947287047e-09,-1.30495863004e-08,310.098,-0.0,-7.99597,8.6365,-0.84241,2.23679,0.845812,0.291638,0.0,234.109,1,0,0,0
352613078,1492463095400000,45.2212105708,-93.1453595322,5.41946576504e-09,-1.30484210104e-08,310.102,-0.0,-8.64795,8.36163,-0.74616,2.29593,0.879062,0.292489,0.0,233.599,1,0,0,0
352713611,1492463095400000,45.2212083047,-93.145339455,5.41945865962e-09,-1.3053053749e-08,310.085,-0.0,-9.22584,8.14129,-0.6855,2.35248,0.856516,0.292306,0.0,233.769,1,0,0,0
352813790,1492463095400000,45.2212037856,-93.1453220458,5.41947287047e-09,-1.30530395381e-08,310.062,-0.0,-9.90728,7.72826,-0.70555,2.40974,0.889502,0.293032,0.0,233.684,1,0,0,0
352917052,1492463095400000,45.2211988694,-93.1453033087,5.4194799759e-09,-1.30484067995e-08,310.046,-0.0,-10.5942,7.25976,-0.781916,2.46608,0.861372,0.291728,0.0,233.429,1,0,0,0
353018749,1492463095400000,45.2211931202,-93.1452856984,5.4194799759e-09,-1.30484067995e-08,310.017,-0.0,-11.174,6.81095,-0.825761,2.51785,0.896672,0.293129,0.0,233.343,1,0,0,0
353118658,1492463095400000,45.2211873641,-93.1452676113,5.4194799759e-09,-1.30484067995e-08,310.01,-0.0,-11.6695,6.40365,-0.872492,2.56878,0.869096,0.292297,0.0,232.662,1,0,0,0
353222811,1492463095400000,45.2211795545,-93.1452516013,5.41948708133e-09,-1.30484067995e-08,309.994,-0.0,-12.1665,5.86154,-0.993332,2.62048,0.899908,0.292364,0.0,233.002,1,0,0,0
353322870,1492463096400000,45.2211722394,-93.1452348596,5.41948708133e-09,-1.30576438551e-08,309.994,-0.0,-12.5663,5.42136,-1.1283,2.66827,0.873724,0.295272,0.0,233.087,1,0,0,0
353422911,1492463096400000,45.2211638084,-93.1452197756,5.47159828557e-09,-1.30576438551e-08,309.987,-0.0,-12.9221,4.94625,-1.23808,2.71871,0.905909,0.295768,0.0,232.918,1,0,0,0
353524811,1492463096400000,45.2211536821,-93.1452072315,5.41948708133e-09,-1.30576438551e-08,309.95,-0.0,-13.2493,4.4173,-1.28309,2.7683,0.942102,0.297161,0.0,233.343,1,0,0,0
353628777,1492463096400000,45.221141799,-93.1451979573,5.4194799759e-09,-1.30576438551e-08,309.926,-0.0,-13.5751,3.74418,-1.38365,2.81389,0.976807,0.297787,0.0,232.662,1,0,0,0
353728346,1492463096400000,45.2211294425,-93.1451912003,5.41948708133e-09,-1.30576296442e-08,309.906,-0.0,-13.8765,2.95813,-1.69592,2.85469,1.01176,0.298158,0.0,232.577,1,0,0,0
353828324,1492463096400000,45.2211163938,-93.1451864263,5.41948708133e-09,-1.30576296442e-08,309.908,-0.0,-14.1089,2.23755,-1.8839,2.8964,1.0518,0.299719,0.0,232.322,1,0,0,0
353933768,1492463096400000,45.2211020295,-93.1451832667,5.47159828557e-09,-1.30391271114e-08,309.904,-0.0,-14.3119,1.4464,-2.07461,2.94479,1.09322,0.301356,0.0,231.981,1,0,0,0
354034407,1492463096400000,45.2210876246,-93.1451819887,5.41950129218e-09,-1.30391271114e-08,309.894,-0.0,-14.4768,0.630771,-2.26727,2.99674,1.13439,0.302625,0.0,233.002,1,0,0,0
354133896,1492463096400000,45.2210732573,-93.1451821583,5.41949418675e-09,-1.30576154334e-08,309.935,-0.0,-14.5873,-0.182929,-2.44723,3.04344,1.17167,0.302535,0.0,232.492,1,0,0,0
354234752,1492463096400000,45.2210582828,-93.1451838512,5.41949418675e-09,-1.30576154334e-08,309.933,-0.0,-14.6663,-0.982205,-2.55034,3.08704,1.21401,0.303528,0.0,232.152,1,0,0,0
354337857,1492463097400001,45.2210430355,-93.1451866447,5.41948708133e-09,-1.30391129005e-08,310.004,-0.0,-14.694,-1.75933,-2.60289,3.1285,1.25189,0.306484,0.0,233.087,1,0,0,0
354438720,1492463097400001,45.2210278716,-93.1451906099,5.4194799759e-09,-1.30576154334e-08,310.03,-0.0,-14.7045,-2.42386,-2.55716,-3.11955,1.29561,0.307294,0.0,232.492,1,0,0,0
354539146,1492463097400001,45.2210126846,-93.14519555,5.41948708133e-09,-1.30576154334e-08,310.038,-0.0,-14.7015,-2.9903,-2.39579,-3.08466,1.34216,0.308551,0.0,232.662,1,0,0,0
354642720,1492463097400001,45.2209969318,-93.1452015959,5.41948708133e-09,-1.30390986897e-08,310.049,-0.0,-14.6414,-3.72691,-2.56827,-3.04761,1.38822,0.309428,0.0,232.152,1,0,0,0
354742780,1492463097400001,45.2209815133,-93.1452086952,5.41948708133e-09,-1.30390986897e-08,310.048,-0.0,-14.5741,-4.39141,-2.69985,-3.01341,1.4426,0.312033,0.0,233.514,1,0,0,0
354843236,1492463097400001,45.2209663385,-93.1452165565,5.41948708133e-09,-1.30576012225e-08,310.083,-0.0,-14.4869,-5.02266,-2.74849,-2.97808,1.49209,0.313143,0.0,233.599,1,0,0,0
354946697,1492463097400001,45.2209506703,-93.1452256095,5.36736166623e-09,-1.30576012225e-08,310.13,-0.0,-14.3767,-5.65713,-2.79439,-2.94415,1.53642,0.312748,0.0,233.599,1,0,0,0
355047499,1492463097400001,45.2209356263,-93.1452352192,5.41945865962e-09,-1.30575870116e-08,310.188,-0.0,-14.2495,-6.18681,-2.75076,-2.91075,1.5877,0.313701,0.0,233.684,1,0,0,0
355147902,1492463097400001,45.2209205566,-93.1452456841,5.41948708133e-09,-1.30576012225e-08,310.212,-0.0,-14.1551,-6.6368,-2.57297,-2.87177,1.64201,0.31513,0.0,233.429,1,0,0,0
355251475,1492463097400001,45.2209053367,-93.1452569283,5.4194799759e-09,-1.30483357452e-08,310.262,-0.0,-14.0347,-7.10884,-2.42531,-2.82914,1.69116,0.315077,0.0,234.194,1,0,0,0
355351460,1492463098400001,45.2208907176,-93.1452685187,5.4194799759e-09,-1.30483499561e-08,310.285,-0.0,-13.9234,-7.54293,-2.20326,-2.79347,1.74273,0.315373,0.0,233.599,1,0,0,0
355455462,1492463098400001,45.2208757404,-93.1452811037,5.4194799759e-09,-1.30483357452e-08,310.299,-0.0,-13.8316,-7.95162,-1.90013,-2.76996,1.79375,0.319086,0.0,234.62,1,0,0,0
355555470,1492463098400001,45.2208613189,-93.1452939037,5.41948708133e-09,-1.30483499561e-08,310.268,-0.0,-13.7871,-8.31557,-1.48527,-2.75684,1.84884,0.319679,0.0,235.046,1,0,0,0
355655690,1492463098400001,45.2208469434,-93.1453072541,5.36736166623e-09,-1.30575870116e-08,310.198,-0.0,-13.7573,-8.6632,-1.11801,-2.75134,1.90228,0.319684,0.0,234.45,1,0,0,0
355757282,1492463098400001,45.2208323426,-93.1453214412,5.41946576504e-09,-1.3052954273e-08,310.09,-0.0,-13.7021,-9.04602,-0.874338,-2.74132,1.96201,0.316989,0.0,234.961,1,0,0,0
355861103,1492463098400001,45.2208181745,-93.1453357236,5.4194799759e-09,-1.3052954273e-08,310.046,-0.0,-13.5907,-9.46572,-0.84683,-2.73167,2.0084,0.318955,0.0,234.45,1,0,0,0
356672326,1492463099400001,45.2207098861,-93.1454652092,5.36734034995e-09,-1.30529400622e-08,308.957,-0.0,-13.404,-11.685,1.47876,-2.57832,2.48395,0.318409,0.0,234.279,1,0,0,0
356772322,1492463099400001,45.2206971551,-93.1454821028,5.36734034995e-09,-1.30483073235e-08,308.74,-0.0,-13.3541,-12.0172,1.58692,-2.57984,2.54058,0.31706,0.0,234.45,1,0,0,0
356876722,1492463099400001,45.2206841063,-93.1454998404,5.39339595207e-09,-1.30483215344e-08,308.514,-0.0,-13.3089,-12.3246,1.60721,-2.58982,2.59857,0.315828,0.0,234.109,1,0,0,0
356976924,1492463099400001,45.2206716308,-93.1455173215,5.39338174121e-09,-1.30483215344e-08,308.305,-0.0,-13.2567,-12.6239,1.48735,-2.59182,2.65615,0.314416,0.0,233.258,1,0,0,0
357076484,1492463099400001,45.2206593261,-93.1455349576,5.39339595207e-09,-1.30575585899e-08,308.115,-0.0,-13.1818,-12.8907,1.48378,-2.59141,2.7132,0.316464,0.0,233.087,1,0,0,0
357178804,1492463099400001,45.220646818,-93.1455536156,5.36734034995e-09,-1.3039070268e-08,307.907,-0.0,-13.0848,-13.1307,1.42285,-2.58079,2.78352,0.313276,0.0,232.832,1,0,0,0
357281914,1492463100400001,45.2206342462,-93.1455728805,5.39338174121e-09,-1.30575585899e-08,307.726,-0.0,-12.9136,-13.3902,1.0125,-2.55967,2.84174,0.315238,0.0,233.087,1,0,0,0
357382495,1492463100400001,45.220622191,-93.1455924992,5.36732613909e-09,-1.30575585899e-08,307.573,-0.0,-12.7146,-13.6386,0.500872,-2.5351,2.91083,0.315223,0.0,231.64,1,0,0,0
357482771,1492463100400001,45.2206104207,-93.1456123294,5.39338174121e-09,-1.30575585899e-08,307.476,-0.0,-12.4724,-13.8619,-0.0126718,-2.50991,2.98044,0.311518,0.0,232.918,1,0,0,0
357583481,1492463100400001,45.2205986972,-93.1456330995,5.36733324452e-09,-1.30575728008e-08,307.418,-0.0,-12.1834,-14.0674,-0.525421,-2.48613,3.04059,0.313495,0.0,232.577,1,0,0,0
357688082,1492463100400001,45.2205869658,-93.1456552857,5.39337463579e-09,-1.30390560571e-08,307.394,-0.0,-11.8451,-14.2601,-1.0973,-2.46652,3.11079,0.313293,0.0,233.087,1,0,0,0
357787449,1492463100400001,45.2205761396,-93.1456762051,5.38035038744e-09,-1.30390560571e-08,307.444,-0.0,-11.4995,-14.3922,-1.56448,-2.44924,3.16743,0.311002,0.0,232.662,1,0,0,0
357892077,1492463100400001,45.2205652507,-93.1456985752,5.38034328201e-09,-1.30575585899e-08,307.539,-0.0,-11.0649,-14.5377,-2.12798,-2.4288,3.23998,0.310967,0.0,233.173,1,0,0,0
357992222,1492463100400001,45.2205552591,-93.1457200679,5.39337463579e-09,-1.30575443791e-08,307.686,-0.0,-10.6606,-14.6799,-2.43943,-2.41221,3.31499,0.311235,0.0,233.343,1,0,0,0
358093603,1492463100400001,45.2205455454,-93.1457419348,5.39337463579e-09,-1.30575585899e-08,307.866,-0.0,-10.2541,-14.814,-2.6632,-2.39937,3.37883,0.309844,0.0,233.769,1,0,0,0
358193698,1492463100400001,45.2205364365,-93.1457638016,5.39336753036e-09,-1.30575585899e-08,308.068,-0.0,-9.8057,-14.929,-2.9853,-2.38975,3.45194,0.309753,0.0,233.684,1,0,0,0
358297600,1492463101400002,45.2205274647,-93.1457860604,5.38033617659e-09,-1.30205677351e-08,308.33,-0.0,-9.35403,-14.9991,-3.26005,-2.38171,3.52063,0.309012,0.0,234.62,1,0,0,0
358397112,1492463101400002,45.2205193039,-93.1458072957,5.40639177871e-09,-1.30575443791e-08,308.62,-0.0,-8.89805,-15.0397,-3.54514,-2.37141,3.58241,0.307329,0.0,234.536,1,0,0,0
358497711,1492463101400002,45.2205115775,-93.1458282099,5.40638467328e-09,-1.30575585899e-08,308.948,-0.0,-8.44235,-15.0786,-3.77163,-2.35899,3.65333,0.30689,0.0,235.216,1,0,0,0
358598838,1492463101400002,45.2205042062,-93.1458494001,5.3933533195e-09,-1.30575585899e-08,309.306,-0.0,-7.97481,-15.1051,-3.97992,-2.34912,3.71846,0.305716,0.0,235.131,1,0,0,0
358703446,1492463101400002,45.2204972058,-93.1458712451,5.3933533195e-09,-1.30575585899e-08,309.699,-0.0,-7.46197,-15.1081,-4.27744,-2.33746,3.79574,0.306155,0.0,235.557,1,0,0,0
358802877,1492463101400002,45.2204909222,-93.1458919233,5.40637756785e-09,-1.30575443791e-08,310.11,-0.0,-6.99514,-15.0828,-4.50247,-2.32566,3.86526,0.305603,0.0,236.323,1,0,0,0
358906617,1492463101400002,45.2204848668,-93.1459132459,5.39333200322e-09,-1.30575585899e-08,310.567,-0.0,-6.51577,-15.0188,-4.73594,-2.31267,3.93039,0.307766,0.0,236.153,1,0,0,0
359004000,1492463101400002,45.2204797132,-93.1459331334,5.3933533195e-09,-1.30575585899e-08,311.01,-0.0,-6.06537,-14.9505,-4.92734,-2.29797,3.99569,0.306744,0.0,237.771,1,0,0,0
359108953,1492463101400002,45.2204745513,-93.1459543267,5.39985478554e-09,-1.30575585899e-08,311.513,-0.0,-5.60693,-14.8761,-5.06605,-2.28465,4.07028,0.307024,0.0,237.941,1,0,0,0
359208290,1492463101400002,45.2204700477,-93.1459744246,5.39334621408e-09,-1.30575585899e-08,312.005,-0.0,-5.2177,-14.8083,-5.11789,-2.27661,4.13542,0.306123,0.0,237.6,1,0,0,0
359313200,1492463102400002,45.2204656812,-93.1459949921,5.39333910865e-09,-1.30575443791e-08,312.529,-0.0,-4.83205,-14.7048,-5.2463,-2.27369,4.20779,0.306222,0.0,239.133,1,0,0,0
359412501,1492463102400002,45.2204618234,-93.1460145946,5.39984768011e-09,-1.30575585899e-08,313.043,-0.0,-4.55889,-14.6289,-5.20084,-2.26475,4.27247,0.305404,0.0,240.497,1,0,0,0
359513975,1492463102400002,45.2204582421,-93.1460345117,5.39333200322e-09,-1.30945494448e-08,313.556,-0.0,-4.23753,-14.5447,-5.25811,-2.24842,4.34639,0.305887,0.0,239.56,1,0,0,0
359614551,1492463102400002,45.2204550007,-93.146053872,5.3933248978e-09,-1.30945494448e-08,314.077,-0.0,-3.93504,-14.5047,-5.23804,-2.22898,4.42011,0.306412,0.0,241.008,1,0,0,0
359717874,1492463102400002,45.2204516714,-93.1460735747,5.39333910865e-09,-1.30205677351e-08,314.608,-0.0,-3.70452,-14.5146,-5.04149,-2.21115,4.49177,0.306745,0.0,240.923,1,0,0,0
359818572,1492463102400002,45.2204488611,-93.1460926899,5.39984057468e-09,-1.3020581946e-08,315.114,-0.0,-3.33619,-14.5161,-5.20983,-2.18622,4.56493,0.307312,0.0,241.348,1,0,0,0
359918311,1492463102400002,45.2204461069,-93.146111261,5.39331779237e-09,-1.30945494448e-08,315.653,-0.0,-2.93917,-14.589,-5.32039,-2.16665,4.62829,0.306683,0.0,242.115,1,0,0,0
360023685,1492463102400002,45.2204436853,-93.1461310824,5.39983346926e-09,-1.3020581946e-08,316.207,-0.0,-2.70514,-14.7251,-5.07266,-2.17087,4.69767,0.306867,0.0,242.882,1,0,0,0
360123179,1492463102400002,45.2204415044,-93.1461501222,5.39984057468e-09,-1.3020581946e-08,316.7,-0.0,-2.57884,-14.8545,-4.74881,-2.17499,4.75592,0.308625,0.0,243.564,1,0,0,0
360222781,1492463102400002,45.2204391738,-93.1461690506,5.39331779237e-09,-1.3020581946e-08,317.159,-0.0,-2.6154,-15.0416,-4.1088,-2.17219,4.82344,0.305787,0.0,244.161,1,0,0,0
360326895,1492463103400002,45.2201449717,-93.1450292035,-0.000285209569235,0.00115027707065,317.627,-0.0,-12.3887,-5.14896,-4.25156,-2.16191,2.67152,0.286799,0.0,244.842,2,0,0,0
360426749,1492463103400002,45.2201302953,-93.1450305796,-0.000285209574969,0.00115027678062,318.084,-0.0,-12.366,-5.30286,-3.87109,-2.14161,2.70823,0.286145,0.0,245.098,2,0,0,0
360530756,1492463103400002,45.2201122263,-93.1450291627,-0.000285209568013,0.00115027640796,318.553,-0.0,-12.3026,-5.50169,-3.53706,-2.11496,1.83913,0.281513,0.0,245.609,2,0,0,0
360628347,1492463103400002,45.2200968715,-93.1450302089,-0.000285209562826,0.00115027606556,318.956,-0.0,-12.2137,-5.7128,-3.25002,-2.09661,1.86096,0.280481,0.0,245.354,2,0,0,0
360733074,1492463103400002,45.2200814341,-93.1450335481,-0.000285209537033,0.00115027580699,319.353,-0.0,-12.1344,-5.94698,-2.9344,-2.086,1.46887,0.278026,0.0,246.292,2,0,0,0
360832266,1492463103400002,45.2200682188,-93.1450388535,-0.000285209467492,0.00115027552926,319.687,-0.0,-12.0429,-6.17524,-2.69515,-2.07954,1.48415,0.276774,0.0,246.888,2,0,0,0
360936359,1492463103400002,45.2200549447,-93.1450453557,-0.000285209416887,0.00115027533032,320.019,-0.0,-11.9129,-6.40561,-2.67072,-2.0739,1.26292,0.274518,0.0,246.547,2,0,0,0
361036262,1492463103400002,45.2200427742,-93.1450523768,-0.000285209336653,0.00115027511931,320.344,-0.0,-11.7896,-6.61748,-2.71798,-2.0715,1.27675,0.274134,0.0,246.292,2,0,0,0
361137856,1492463103400002,45.2200305573,-93.1450602118,-0.000285209254741,0.00115027483747,320.672,-0.0,-11.7004,-6.82145,-2.71135,-2.06831,1.1284,0.272241,0.0,246.803,2,0,0,0
361238575,1492463103400002,45.2200188022,-93.1450683926,-0.000285209172624,0.00115027467768,320.978,-0.0,-11.6444,-7.01673,-2.56442,-2.06227,1.1415,0.272742,0.0,247.485,2,0,0,0
361341877,1492463104400002,45.2200066764,-93.1450772999,-0.000285209089746,0.00115027451405,321.288,-0.0,-11.5236,-7.20906,-2.66014,-2.04491,1.03169,0.270568,0.0,247.655,2,0,0,0
361443287,1492463104400002,45.2199951443,-93.1450861832,-0.00028520900058,0.00115027439927,321.589,-0.0,-11.4274,-7.39917,-2.59498,-2.02597,0.950029,0.269583,0.0,247.399,2,0,0,0
