timestamp,ref_timestamp,ref_lat,ref_lon,surface_bottom_timestamp,x,y,z,delta_xy[0],delta_xy[1],delta_z,vx,vy,vz,delta_vxy[0],delta_vxy[1],delta_vz,ax,ay,az,yaw,ref_alt,dist_bottom,dist_bottom_rate,eph,epv,estimator_type,xy_valid,z_valid,v_xy_valid,v_z_valid,xy_reset_counter,z_reset_counter,vxy_reset_counter,vz_reset_counter,xy_global,z_global,dist_bottom_valid
327015095,13251241,45.2203776,-93.1453969,327015177,24.829,4.48361,-1.44106,0.000599753,-0.00102212,0.0,-0.0779695,-0.0055951,0.0110656,-0.0598797,-0.00528227,0.271893,0.0,0.0,0.0,-0.836432,275.921,0.107414,-0.0110656,0.5023,0.245813,0,1,1,1,1,1,0,1,1,1,1,0
327230731,13251241,45.2203776,-93.1453969,327230849,24.8314,4.48982,-1.431,0.000599753,-0.00102212,0.0,-0.0745231,-0.0105835,0.0230216,-0.0598797,-0.00528227,0.271893,0.0,0.0,0.0,-0.840492,275.921,0.110127,-0.0230216,0.49632,0.244996,0,1,1,1,1,1,0,1,1,1,1,0
327330674,13251241,45.2203776,-93.1453969,327330759,24.8363,4.49658,-1.42672,0.000599753,-0.00102212,0.0,-0.0721366,-0.00851512,0.0197952,-0.0598797,-0.00528227,0.271893,0.0,0.0,0.0,-0.843161,275.921,0.0990167,-0.0197952,0.48504,0.245154,0,1,1,1,1,1,0,1,1,1,1,0
327432152,13251241,45.2203776,-93.1453969,327432304,24.8424,4.50743,-1.41692,0.000599753,-0.00102212,0.0,-0.0719827,-0.00374548,0.0156194,-0.0598797,-0.00528227,0.271893,0.0,0.0,0.0,-0.845111,275.921,0.114332,-0.0156194,0.498251,0.245327,0,1,1,1,1,1,0,1,1,1,1,0
327536192,13251241,45.2203776,-93.1453969,327536274,24.8513,4.51699,-1.41063,0.000599753,-0.00102212,0.0,-0.0702041,-0.00369503,0.00718798,-0.0598797,-0.00528227,0.271893,0.0,0.0,0.0,-0.845569,275.921,0.107456,-0.00718798,0.485918,0.244797,0,1,1,1,1,1,0,1,1,1,1,0
327637296,13251241,45.2203776,-93.1453969,327637418,24.8589,4.52447,-1.40611,0.000599753,-0.00102212,0.0,-0.0667631,-0.00669389,0.00812743,-0.0598797,-0.00528227,0.271893,0.0,0.0,0.0,-0.845522,275.921,0.104623,-0.00812743,0.500529,0.24552,0,1,1,1,1,1,0,1,1,1,1,0
327736133,13251241,45.2203776,-93.1453969,327736215,24.8539,4.53071,-1.40454,0.000599753,-0.00102212,0.0,-0.0743041,-0.00882811,0.0153924,-0.0598797,-0.00528227,0.271893,0.0,0.0,0.0,-0.847207,275.921,0.0992814,-0.0153924,0.489081,0.245432,0,1,1,1,1,1,0,1,1,1,1,0
327838443,13251241,45.2203776,-93.1453969,327838596,24.8467,4.53486,-1.40319,0.000599753,-0.00102212,0.0,-0.0749046,-0.00600736,0.0169719,-0.0598797,-0.00528227,0.271893,0.0,0.0,0.0,-0.847625,275.921,0.0952358,-0.0169719,0.502017,0.245374,0,1,1,1,1,1,0,1,1,1,1,0
327941857,13251241,45.2203776,-93.1453969,327941951,24.8432,4.53757,-1.40217,0.000599753,-0.00102212,0.0,-0.0724882,-0.00945323,0.0183809,-0.0598797,-0.00528227,0.271893,0.0,0.0,0.0,-0.844327,275.921,0.0940859,-0.0183809,0.488375,0.246233,0,1,1,1,1,1,0,1,1,1,1,0
328042704,13251241,45.2203776,-93.1453969,328042786,24.8389,4.5382,-1.40209,0.000599753,-0.00102212,0.0,-0.0780498,-0.0184629,0.0197694,-0.0598797,-0.00528227,0.271893,0.0,0.0,0.0,-0.842134,275.921,0.0921851,-0.0197694,0.502937,0.246864,0,1,1,1,1,1,0,1,1,1,1,0
328142095,13251241,45.2203776,-93.1453969,328142216,24.8341,4.53911,-1.40136,0.000599753,-0.00102212,0.0,-0.0858175,-0.0237757,0.0205903,-0.0598797,-0.00528227,0.271893,0.0,0.0,0.0,-0.843497,275.921,0.0950557,-0.0205903,0.489542,0.246176,0,1,1,1,1,1,0,1,1,1,1,0
328245754,13251241,45.2203776,-93.1453969,328245839,24.8282,4.5397,-1.39916,0.000599753,-0.00102212,0.0,-0.0880645,-0.0276581,0.0196285,-0.0598797,-0.00528227,0.271893,0.0,0.0,0.0,-0.845916,275.921,0.0988555,-0.0196285,0.503629,0.246589,0,1,1,1,1,1,0,1,1,1,1,0
328347366,13251241,45.2203776,-93.1453969,328347451,24.8229,4.54021,-1.39704,0.000599753,-0.00102212,0.0,-0.0915853,-0.0355822,0.0160231,-0.0598797,-0.00528227,0.271893,0.0,0.0,0.0,-0.847907,275.921,0.0980337,-0.0160231,0.490201,0.245817,0,1,1,1,1,1,0,1,1,1,1,0
328448248,13251241,45.2203776,-93.1453969,328448330,24.816,4.53897,-1.39154,0.000599753,-0.00102212,0.0,-0.101614,-0.0383349,0.014885,-0.0598797,-0.00528227,0.271893,0.0,0.0,0.0,-0.848953,275.921,0.10853,-0.014885,0.503208,0.245767,0,1,1,1,1,1,0,1,1,1,1,0
328548729,13251241,45.2203776,-93.1453969,328548811,24.8173,4.54384,-1.38565,0.000599753,-0.00102212,0.0,-0.101423,-0.0363399,0.0137467,-0.0598797,-0.00528227,0.271893,0.0,0.0,0.0,-0.848121,275.921,0.105878,-0.0137467,0.492824,0.246246,0,1,1,1,1,1,0,1,1,1,1,0
328649747,13251241,45.2203776,-93.1453969,328649828,24.8152,4.5466,-1.38193,0.000599753,-0.00102212,0.0,-0.102063,-0.0408551,0.0164176,-0.0598797,-0.00528227,0.271893,0.0,0.0,0.0,-0.845624,275.921,0.099491,-0.0164176,0.481538,0.246153,0,1,1,1,1,1,0,1,1,1,1,0
328754625,13251241,45.2203776,-93.1453969,328754707,24.8131,4.55325,-1.37879,0.000599753,-0.00102212,0.0,-0.0939827,-0.0500162,0.0189999,-0.0598797,-0.00528227,0.271893,0.0,0.0,0.0,-0.842498,275.921,0.0983593,-0.0189999,0.494767,0.246373,0,1,1,1,1,1,0,1,1,1,1,0
328853737,13251241,45.2203776,-93.1453969,328853819,24.809,4.55585,-1.37314,0.000599753,-0.00102212,0.0,-0.0929816,-0.0380596,0.0304775,-0.0598797,-0.00528227,0.271893,0.0,0.0,0.0,-0.840117,275.921,0.100596,-0.0304775,0.507673,0.24618,0,1,1,1,1,1,0,1,1,1,1,0
328954042,13251241,45.2203776,-93.1453969,328954123,24.8124,4.55378,-1.36685,0.000599753,-0.00102212,0.0,-0.0915058,-0.036677,0.0349608,-0.0598797,-0.00528227,0.271893,0.0,0.0,0.0,-0.838955,275.921,0.096072,-0.0349608,0.494409,0.24563,0,1,1,1,1,1,0,1,1,1,1,0
329055563,13251241,45.2203776,-93.1453969,329055650,24.8151,4.55118,-1.36607,0.000599753,-0.00102212,0.0,-0.0865081,-0.0501343,0.0302173,-0.0598797,-0.00528227,0.271893,0.0,0.0,0.0,-0.838325,275.921,0.0822309,-0.0302173,0.482535,0.245314,0,1,1,1,1,1,0,1,1,1,1,0
329159358,13251241,45.2203776,-93.1453969,329159485,24.8201,4.55804,-1.37127,0.000599753,-0.00102212,0.0,-0.0788358,-0.0486496,-0.000885709,-0.0598797,-0.00528227,0.271893,0.0,0.0,0.0,-0.836992,275.921,0.0815098,0.000885709,0.496777,0.245932,0,1,1,1,1,1,0,1,1,1,1,0
329259394,13251241,45.2203776,-93.1453969,329259476,24.8225,4.56001,-1.37735,0.000599753,-0.00102212,0.0,-0.0351729,-0.0527651,-0.0001683,-0.0598797,-0.00528227,0.271893,0.0,0.0,0.0,-0.827592,275.921,0.0842776,0.0001683,0.508407,0.245167,0,1,1,1,1,1,0,1,1,1,1,0
329360035,13251241,45.2203776,-93.1453969,329360158,24.8286,4.56252,-1.38176,0.000599753,-0.00102212,0.0,-0.00421541,-0.0692027,0.047181,-0.0598797,-0.00528227,0.271893,0.0,0.0,0.0,-0.813945,275.921,0.0865296,-0.047181,0.495902,0.244929,0,1,1,1,1,1,0,1,1,1,1,0
329463444,13251241,45.2203776,-93.1453969,329463526,24.8341,4.56092,-1.38035,0.000599753,-0.00102212,0.0,0.00207912,-0.0741486,0.0805006,-0.0598797,-0.00528227,0.271893,0.0,0.0,0.0,-0.80477,275.921,0.0756446,-0.0805006,0.509188,0.244852,0,1,1,1,1,1,0,1,1,1,1,0
329565046,13251241,45.2203776,-93.1453969,329565128,24.8466,4.56545,-1.37359,0.000599753,-0.00102212,0.0,-0.0196045,-0.0792569,0.140248,-0.0598797,-0.00528227,0.271893,0.0,0.0,0.0,-0.802962,275.921,0.0741876,-0.140248,0.496881,0.244754,0,1,1,1,1,1,0,1,1,1,1,0
329664992,13251241,45.2203776,-93.1453969,329665082,24.8542,4.56615,-1.36487,0.000599753,-0.00102212,0.0,-0.0227909,-0.0894504,0.1333,-0.0598797,-0.00528227,0.271893,0.0,0.0,0.0,-0.805207,275.921,0.0682253,-0.1333,0.484183,0.244202,0,1,1,1,1,1,0,1,1,1,1,0
329768961,13251241,45.2203776,-93.1453969,329769058,24.8545,4.57626,-1.35604,0.000599753,-0.00102212,0.0,-0.00750436,-0.0646746,0.110346,-0.0598797,-0.00528227,0.271893,0.0,0.0,0.0,-0.796906,275.921,0.0693799,-0.110346,0.498697,0.244898,0,1,1,1,1,1,0,1,1,1,1,0
329868904,13251241,45.2203776,-93.1453969,329868989,24.853,4.58396,-1.34582,0.000599753,-0.00102212,0.0,-0.0492248,-0.0105887,0.0891364,-0.0598797,-0.00528227,0.271893,0.0,0.0,0.0,-0.779853,275.921,0.0802569,-0.0891364,0.485818,0.244348,0,1,1,1,1,1,0,1,1,1,1,0
329971044,13251241,45.2203776,-93.1453969,329971172,24.8452,4.59371,-1.33974,0.000599753,-0.00102212,0.0,-0.0999718,-0.0305636,0.037535,-0.0598797,-0.00528227,0.271893,0.0,0.0,0.0,-0.763044,275.921,0.0773104,-0.037535,0.500744,0.245191,0,1,1,1,1,1,0,1,1,1,1,0
330071092,13251241,45.2203776,-93.1453969,330071179,24.8361,4.60029,-1.33849,0.000599753,-0.00102212,0.0,-0.0698726,-0.0377631,0.0187381,-0.0598797,-0.00528227,0.271893,0.0,0.0,0.0,-0.758985,275.921,0.0854025,-0.0187381,0.487708,0.244646,0,1,1,1,1,1,0,1,1,1,1,0
330174575,13251241,45.2203776,-93.1453969,330174657,24.8308,4.61227,-1.34139,0.000599753,-0.00102212,0.0,-0.0734593,-0.000376087,0.0164174,-0.0598797,-0.00528227,0.271893,0.0,0.0,0.0,-0.752422,275.921,0.0891873,-0.0164174,0.500018,0.244366,0,1,1,1,1,1,0,1,1,1,1,0
330276237,13251241,45.2203776,-93.1453969,330276319,24.825,4.6222,-1.34068,0.000599753,-0.00102212,0.0,-0.0805931,-0.0137305,0.0211863,-0.0598797,-0.00528227,0.271893,0.0,0.0,0.0,-0.752992,275.921,0.0990723,-0.0211863,0.486513,0.243696,0,1,1,1,1,1,0,1,1,1,1,0
330374570,13251241,45.2203776,-93.1453969,330374681,24.8292,4.63888,-1.33725,0.000599753,-0.00102212,0.0,-0.071413,-0.00764227,0.0168103,-0.0598797,-0.00528227,0.271893,0.0,0.0,0.0,-0.766005,275.921,0.10013,-0.0168103,0.499307,0.245479,0,1,1,1,1,1,0,1,1,1,1,0
330476467,13251241,45.2203776,-93.1453969,330476607,24.8311,4.64836,-1.33659,0.000599753,-0.00102212,0.0,-0.0516779,-0.0295372,0.0197885,-0.0598797,-0.00528227,0.271893,0.0,0.0,0.0,-0.781911,275.921,0.0969545,-0.0197885,0.511596,0.244957,0,1,1,1,1,1,0,1,1,1,1,0
330580218,13251241,45.2203776,-93.1453969,330580299,24.8437,4.66528,-1.3321,0.000599753,-0.00102212,0.0,-0.0416122,-0.0176294,0.0401936,-0.0598797,-0.00528227,0.271893,0.0,0.0,0.0,-0.780777,275.921,0.103047,-0.0401936,0.500301,0.245352,0,1,1,1,1,1,0,1,1,1,1,0
330680851,13251241,45.2203776,-93.1453969,330680972,24.8503,4.67722,-1.32742,0.000599753,-0.00102212,0.0,-0.0469833,-0.0179609,0.0479613,-0.0598797,-0.00528227,0.271893,0.0,0.0,0.0,-0.766874,275.921,0.091477,-0.0479613,0.488387,0.24353,0,1,1,1,1,1,0,1,1,1,1,0
330780166,13251241,45.2203776,-93.1453969,330780247,24.8515,4.68843,-1.32414,0.000599753,-0.00102212,0.0,-0.0513845,-0.0192785,0.0459154,-0.0598797,-0.00528227,0.271893,0.0,0.0,0.0,-0.749264,275.921,0.0864215,-0.0459154,0.50072,0.245087,0,1,1,1,1,1,0,1,1,1,1,0
330885451,13251241,45.2203776,-93.1453969,330885533,24.8517,4.69787,-1.32245,0.000599753,-0.00102212,0.0,-0.0629067,-0.0249126,0.0303368,-0.0598797,-0.00528227,0.271893,0.0,0.0,0.0,-0.740834,275.921,0.0887783,-0.0303368,0.488388,0.245014,0,1,1,1,1,1,0,1,1,1,1,0
330985815,13251241,45.2203776,-93.1453969,330985897,24.8504,4.70333,-1.32138,0.000599753,-0.00102212,0.0,-0.0743402,-0.0287321,0.0141999,-0.0598797,-0.00528227,0.271893,0.0,0.0,0.0,-0.742532,275.921,0.0934067,-0.0141999,0.502356,0.245413,0,1,1,1,1,1,0,1,1,1,1,0
331085797,13251241,45.2203776,-93.1453969,331085879,24.8483,4.70674,-1.32167,0.000599753,-0.00102212,0.0,-0.0759525,-0.0286815,0.0149206,-0.0598797,-0.00528227,0.271893,0.0,0.0,0.0,-0.746485,275.921,0.0955318,-0.0149206,0.490263,0.243742,0,1,1,1,1,1,0,1,1,1,1,0
331189790,13251241,45.2203776,-93.1453969,331189872,24.8481,4.70805,-1.32205,0.000599753,-0.00102212,0.0,-0.0697935,-0.0345887,0.0226127,-0.0598797,-0.00528227,0.271893,0.0,0.0,0.0,-0.747035,275.921,0.0909294,-0.0226127,0.503438,0.245621,0,1,1,1,1,1,0,1,1,1,1,0
331292164,13251241,45.2203776,-93.1453969,331292245,24.8447,4.70632,-1.32293,0.000599753,-0.00102212,0.0,-0.0652746,-0.0447969,0.025722,-0.0598797,-0.00528227,0.271893,0.0,0.0,0.0,-0.745003,275.921,0.0967121,-0.025722,0.490363,0.243496,0,1,1,1,1,1,0,1,1,1,1,0
331392173,13251241,45.2203776,-93.1453969,331392261,24.8364,4.70154,-1.32022,0.000599753,-0.00102212,0.0,-0.0641449,-0.0458195,0.0308046,-0.0598797,-0.00528227,0.271893,0.0,0.0,0.0,-0.744579,275.921,0.0983479,-0.0308046,0.502213,0.244832,0,1,1,1,1,1,0,1,1,1,1,0
331492165,13251241,45.2203776,-93.1453969,331492307,24.8309,4.69537,-1.31689,0.000599753,-0.00102212,0.0,-0.0585655,-0.0518561,0.0324019,-0.0598797,-0.00528227,0.271893,0.0,0.0,0.0,-0.74525,275.921,0.0972089,-0.0324019,0.490093,0.244864,0,1,1,1,1,1,0,1,1,1,1,0
331592154,13251241,45.2203776,-93.1453969,331592235,24.8275,4.68825,-1.31586,0.000599753,-0.00102212,0.0,-0.0655038,-0.0523831,0.0284647,-0.0598797,-0.00528227,0.271893,0.0,0.0,0.0,-0.744882,275.921,0.0901847,-0.0284647,0.503704,0.245111,0,1,1,1,1,1,0,1,1,1,1,0
331694262,13251241,45.2203776,-93.1453969,331694343,24.8228,4.68629,-1.31587,0.000599753,-0.00102212,0.0,-0.0586341,-0.0546132,0.0278498,-0.0598797,-0.00528227,0.271893,0.0,0.0,0.0,-0.745608,275.921,0.0865685,-0.0278498,0.48974,0.244356,0,1,1,1,1,1,0,1,1,1,1,0
331797734,13251241,45.2203776,-93.1453969,331797827,24.8171,4.68869,-1.31608,0.000599753,-0.00102212,0.0,-0.0613547,-0.0520689,0.0252492,-0.0598797,-0.00528227,0.271893,0.0,0.0,0.0,-0.743785,275.921,0.0903955,-0.0252492,0.502667,0.244324,0,1,1,1,1,1,0,1,1,1,1,0
331897729,13251241,45.2203776,-93.1453969,331897811,24.813,4.6916,-1.31931,0.000599753,-0.00102212,0.0,-0.0673039,-0.0550741,0.0236959,-0.0598797,-0.00528227,0.271893,0.0,0.0,0.0,-0.741095,275.921,0.0834502,-0.0236959,0.490665,0.244348,0,1,1,1,1,1,0,1,1,1,1,0
332002421,13251241,45.2203776,-93.1453969,332002503,24.8093,4.69277,-1.32489,0.000599753,-0.00102212,0.0,-0.0680786,-0.0651326,0.0231948,-0.0598797,-0.00528227,0.271893,0.0,0.0,0.0,-0.740551,275.921,0.0844424,-0.0231948,0.505297,0.24498,0,1,1,1,1,1,0,1,1,1,1,0
332103455,13251241,45.2203776,-93.1453969,332103583,24.8066,4.69169,-1.32354,0.000599753,-0.00102212,0.0,-0.0546309,-0.0835798,0.11004,-0.0598797,-0.00528227,0.271893,0.0,0.0,0.0,-0.740504,275.921,0.0814587,-0.11004,0.49029,0.243781,0,1,1,1,1,1,0,1,1,1,1,0
332204057,13251241,45.2203776,-93.1453969,332204143,24.8065,4.68944,-1.31601,0.000599753,-0.00102212,0.0,-0.0403761,-0.108501,0.129033,-0.0598797,-0.00528227,0.271893,0.0,0.0,0.0,-0.740951,275.921,0.0749761,-0.129033,0.504888,0.244426,0,1,1,1,1,1,0,1,1,1,1,0
332303604,13251241,45.2203776,-93.1453969,332303689,24.8101,4.68715,-1.30803,0.000599753,-0.00102212,0.0,-0.0319912,-0.115832,0.128922,-0.0598797,-0.00528227,0.271893,0.0,0.0,0.0,-0.745549,275.921,0.0680614,-0.128922,0.490902,0.243702,0,1,1,1,1,1,0,1,1,1,1,0
332407454,13251241,45.2203776,-93.1453969,332407535,24.8166,4.68616,-1.29773,0.000599753,-0.00102212,0.0,-0.0223784,-0.116161,0.107526,-0.0598797,-0.00528227,0.271893,0.0,0.0,0.0,-0.752008,275.921,0.0718269,-0.107526,0.505169,0.244215,0,1,1,1,1,1,0,1,1,1,1,0
332507355,13251241,45.2203776,-93.1453969,332507440,24.8239,4.68656,-1.2869,0.000599753,-0.00102212,0.0,-0.0117231,-0.11549,0.100399,-0.0598797,-0.00528227,0.271893,0.0,0.0,0.0,-0.758018,275.921,0.0814127,-0.100399,0.491184,0.245325,0,1,1,1,1,1,0,1,1,1,1,0
332608958,13251241,45.2203776,-93.1453969,332609078,24.8326,4.68697,-1.26879,0.000599753,-0.00102212,0.0,0.00462558,-0.12905,0.112038,-0.0598797,-0.00528227,0.271893,0.0,0.0,0.0,-0.765177,275.921,0.105393,-0.112038,0.505239,0.245763,0,1,1,1,1,1,0,1,1,1,1,0
332708940,13251241,45.2203776,-93.1453969,332709032,24.8391,4.68796,-1.23628,0.000599753,-0.00102212,0.0,0.0205517,-0.122159,0.12543,-0.0598797,-0.00528227,0.271893,0.0,0.0,0.0,-0.771886,275.921,0.134268,-0.12543,0.49189,0.245257,0,1,1,1,1,1,0,1,1,1,1,0
332813792,13251241,45.2203776,-93.1453969,332813877,24.845,4.69094,-1.18038,0.000599753,-0.00102212,0.0,0.0275299,-0.0859928,0.117049,-0.0598797,-0.00528227,0.271893,0.0,0.0,0.0,-0.769206,275.921,0.169957,-0.117049,0.506769,0.246023,0,1,1,1,1,1,0,1,1,1,1,0
332912964,13251241,45.2203776,-93.1453969,332913058,24.8494,4.69917,-1.11503,0.000599753,-0.00102212,0.0,0.0151972,-0.0537867,0.112652,-0.0598797,-0.00528227,0.271893,0.0,0.0,0.0,-0.759444,275.921,0.191213,-0.112652,0.49322,0.245504,0,1,1,1,1,1,0,1,1,1,1,0
333015347,13251241,45.2203776,-93.1453969,333015428,24.8544,4.70855,-1.04062,0.000599753,-0.00102212,0.0,0.0560011,-0.060339,0.132804,-0.0598797,-0.00528227,0.271893,0.0,0.0,0.0,-0.748257,275.921,0.20858,-0.132804,0.506825,0.245712,0,1,1,1,1,1,0,1,1,1,1,0
333118574,13251241,45.2203776,-93.1453969,333118655,24.8646,4.71499,-0.95133,0.000599753,-0.00102212,0.0,0.0813355,-0.0926942,0.159902,-0.0598797,-0.00528227,0.271893,0.0,0.0,0.0,-0.73421,275.921,0.198752,-0.159902,0.495323,0.244268,0,1,1,1,1,1,0,1,1,1,1,0
333218635,13251241,45.2203776,-93.1453969,333218759,24.8759,4.71589,-0.881547,0.000599753,-0.00102212,0.0,0.0867013,-0.100529,0.164847,-0.0598797,-0.00528227,0.271893,0.0,0.0,0.0,-0.718019,275.921,0.1664,-0.164847,0.507456,0.245666,0,1,1,1,1,1,0,1,1,1,1,0
333319003,13251241,45.2203776,-93.1453969,333319124,24.8873,4.71997,-0.809676,0.000599753,-0.00102212,0.0,0.0493244,-0.100237,0.184969,-0.0598797,-0.00528227,0.271893,0.0,0.0,0.0,-0.7001,275.921,0.134863,-0.184969,0.494203,0.245191,0,1,1,1,1,1,0,1,1,1,1,0
333423316,13251241,45.2203776,-93.1453969,333423434,24.8959,4.72099,-0.756993,0.000599753,-0.00102212,0.0,0.0297209,-0.0908773,0.148946,-0.0598797,-0.00528227,0.271893,0.0,0.0,0.0,-0.682728,275.921,0.101822,-0.148946,0.508398,0.245613,0,1,1,1,1,1,0,1,1,1,1,0
333524181,13251241,45.2203776,-93.1453969,333524343,24.9021,4.72659,-0.722497,0.000599753,-0.00102212,0.0,-0.0153772,-0.0673438,0.122321,-0.0598797,-0.00528227,0.271893,0.0,0.0,0.0,-0.66711,275.921,0.0715452,-0.122321,0.494848,0.245082,0,1,1,1,1,1,0,1,1,1,1,0
333624874,13251241,45.2203776,-93.1453969,333624962,24.9065,4.73141,-0.698049,0.000599753,-0.00102212,0.0,-0.011538,-0.0990479,0.193865,-0.0598797,-0.00528227,0.271893,0.0,0.0,0.0,-0.656074,275.921,0.0547113,-0.193865,0.508513,0.24528,0,1,1,1,1,1,0,1,1,1,1,0
333724960,13251241,45.2203776,-93.1453969,333725053,24.9165,4.73287,-0.677005,0.000599753,-0.00102212,0.0,0.0399891,-0.129855,0.222685,-0.0598797,-0.00528227,0.271893,0.0,0.0,0.0,-0.658085,275.921,0.0224926,-0.222685,0.494532,0.246474,0,1,1,1,1,1,0,1,1,1,1,0
333828855,13251241,45.2203776,-93.1453969,333828945,24.9311,4.73157,-0.66203,0.000599753,-0.00102212,0.0,0.0722482,-0.15185,0.217773,-0.0598797,-0.00528227,0.271893,0.0,0.0,0.0,-0.669343,275.921,0.0052107,-0.217773,0.509298,0.245236,0,1,1,1,1,1,0,1,1,1,1,0
333929793,13251241,45.2203776,-93.1453969,333929880,24.9504,4.72532,-0.653421,0.000599753,-0.00102212,0.0,0.0813744,-0.117192,0.192147,-0.0598797,-0.00528227,0.271893,0.0,0.0,0.0,-0.674888,275.921,-0.00418872,-0.192147,0.495159,0.246321,0,1,1,1,1,1,0,1,1,1,1,0
334030493,13251241,45.2203776,-93.1453969,334030581,24.9672,4.72262,-0.652999,0.000599753,-0.00102212,0.0,0.070761,-0.0345812,0.192047,-0.0598797,-0.00528227,0.271893,0.0,0.0,0.0,-0.671722,275.921,-0.000349283,-0.192047,0.51164,0.245772,0,1,1,1,1,1,0,1,1,1,1,0
334129756,13251241,45.2203776,-93.1453969,334129866,24.9791,4.72098,-0.651632,0.000599753,-0.00102212,0.0,0.114168,0.0205047,0.206134,-0.0598797,-0.00528227,0.271893,0.0,0.0,0.0,-0.666299,275.921,-0.010293,-0.206134,0.495732,0.246228,0,1,1,1,1,1,0,1,1,1,1,0
334233790,13251241,45.2203776,-93.1453969,334233872,24.9953,4.72121,-0.65535,0.000599753,-0.00102212,0.0,0.15746,0.0341375,0.209678,-0.0598797,-0.00528227,0.271893,0.0,0.0,0.0,-0.660332,275.921,-0.0141976,-0.209678,0.510117,0.246693,0,1,1,1,1,1,0,1,1,1,1,0
334334612,13251241,45.2203776,-93.1453969,334334697,25.0157,4.72626,-0.660755,0.000599753,-0.00102212,0.0,0.203825,0.0564327,0.20599,-0.0598797,-0.00528227,0.271893,0.0,0.0,0.0,-0.655676,275.921,-0.0212982,-0.20599,0.496795,0.246388,0,1,1,1,1,1,0,1,1,1,1,0
334435580,13251241,45.2203776,-93.1453969,334435661,25.0413,4.73336,-0.667785,0.000599753,-0.00102212,0.0,0.264806,0.0703973,0.197671,-0.0598797,-0.00528227,0.271893,0.0,0.0,0.0,-0.651014,275.921,-0.0181101,-0.197671,0.509422,0.246114,0,1,1,1,1,1,0,1,1,1,1,0
334539913,13251241,45.2203776,-93.1453969,334539995,25.0714,4.74357,-0.681874,0.000599753,-0.00102212,0.0,0.302341,0.131637,0.184674,-0.0598797,-0.00528227,0.271893,0.0,0.0,0.0,-0.647701,275.921,-0.0213387,-0.184674,0.497484,0.246265,0,1,1,1,1,1,0,1,1,1,1,0
334639351,13251241,45.2203776,-93.1453969,334639475,25.1032,4.75907,-0.695611,0.000599753,-0.00102212,0.0,0.337805,0.184769,0.108583,-0.0598797,-0.00528227,0.271893,0.0,0.0,0.0,-0.638731,275.921,-0.0149103,-0.108583,0.509249,0.245633,0,1,1,1,1,1,0,1,1,1,1,0
334739601,13251241,45.2203776,-93.1453969,334739683,25.1415,4.78364,-0.718791,0.000599753,-0.00102212,0.0,0.332626,0.171424,0.0542628,-0.0598797,-0.00528227,0.271893,0.0,0.0,0.0,-0.623114,275.921,0.000566185,-0.0542628,0.496681,0.245549,0,1,1,1,1,1,0,1,1,1,1,0
334841224,13251241,45.2203776,-93.1453969,334841397,25.1758,4.80678,-0.741439,0.000599753,-0.00102212,0.0,0.27829,0.172065,0.0693981,-0.0598797,-0.00528227,0.271893,0.0,0.0,0.0,-0.613621,275.921,0.0246534,-0.0693981,0.510429,0.245747,0,1,1,1,1,1,0,1,1,1,1,0
334945583,13251241,45.2203776,-93.1453969,334945694,25.2069,4.83854,-0.765315,0.000599753,-0.00102212,0.0,0.291414,0.196025,0.126071,-0.0598797,-0.00528227,0.271893,0.0,0.0,0.0,-0.603579,275.921,0.0208229,-0.126071,0.498541,0.24591,0,1,1,1,1,1,0,1,1,1,1,0
335044969,13251241,45.2203776,-93.1453969,335045097,25.2325,4.865,-0.77973,0.000599753,-0.00102212,0.0,0.206669,0.179288,0.145497,-0.0598797,-0.00528227,0.271893,0.0,0.0,0.0,-0.59202,275.921,0.00210166,-0.145497,0.510714,0.245403,0,1,1,1,1,1,0,1,1,1,1,0
335144922,13251241,45.2203776,-93.1453969,335145013,25.2538,4.89212,-0.800171,0.000599753,-0.00102212,0.0,0.243273,0.1511,0.106882,-0.0598797,-0.00528227,0.271893,0.0,0.0,0.0,-0.580279,275.921,0.0106972,-0.106882,0.498017,0.245182,0,1,1,1,1,1,0,1,1,1,1,0
335249495,13251241,45.2203776,-93.1453969,335249607,25.2789,4.91754,-0.829277,0.000599753,-0.00102212,0.0,0.25839,0.141465,0.0396413,-0.0598797,-0.00528227,0.271893,0.0,0.0,0.0,-0.567139,275.921,0.0172735,-0.0396413,0.512971,0.245825,0,1,1,1,1,1,0,1,1,1,1,0
335350767,13251241,45.2203776,-93.1453969,335350849,25.3057,4.93875,-0.86512,0.000599753,-0.00102212,0.0,0.277045,0.105386,-0.0491463,-0.0598797,-0.00528227,0.271893,0.0,0.0,0.0,-0.54632,275.921,0.0271716,0.0491463,0.499313,0.245292,0,1,1,1,1,1,0,1,1,1,1,0
335450543,13251241,45.2203776,-93.1453969,335450625,25.3314,4.95456,-0.905188,0.000599753,-0.00102212,0.0,0.25331,0.0708613,-0.0557689,-0.0598797,-0.00528227,0.271893,0.0,0.0,0.0,-0.518428,275.921,0.0457057,0.0557689,0.513754,0.245723,0,1,1,1,1,1,0,1,1,1,1,0
335554548,13251241,45.2203776,-93.1453969,335554630,25.359,4.97032,-0.945164,0.000599753,-0.00102212,0.0,0.255153,-0.000395346,-0.0221623,-0.0598797,-0.00528227,0.271893,0.0,0.0,0.0,-0.501471,275.921,0.0478734,0.0221623,0.499269,0.244831,0,1,1,1,1,1,0,1,1,1,1,0
335656098,13251241,45.2203776,-93.1453969,335656179,25.3862,4.97246,-0.993318,0.000599753,-0.00102212,0.0,0.275517,-0.132153,-0.269788,-0.0598797,-0.00528227,0.271893,0.0,0.0,0.0,-0.495033,275.921,0.0665162,0.269788,0.487671,0.244765,0,1,1,1,1,1,0,1,1,1,1,0
335756173,13251241,45.2203776,-93.1453969,335756255,25.4135,4.9572,-1.06606,0.000599753,-0.00102212,0.0,0.237491,-0.16828,-0.385463,-0.0598797,-0.00528227,0.271893,0.0,0.0,0.0,-0.501648,275.921,0.103412,0.385463,0.502018,0.245414,0,1,1,1,1,1,0,1,1,1,1,0
335856185,13251241,45.2203776,-93.1453969,335856271,25.4394,4.93834,-1.1033,0.000599753,-0.00102212,0.0,0.29764,-0.233448,0.266177,-0.0598797,-0.00528227,0.271893,0.0,0.0,0.0,-0.514699,275.921,0.113509,-0.266177,0.514303,0.244907,0,1,1,1,1,1,0,1,1,1,1,0
335960157,13251241,45.2203776,-93.1453969,335960278,25.4768,4.90384,-1.10242,0.000599753,-0.00102212,0.0,0.475924,-0.408204,0.336916,-0.0598797,-0.00528227,0.271893,0.0,0.0,0.0,-0.521029,275.921,0.0395788,-0.336916,0.50155,0.244616,0,1,1,1,1,1,0,1,1,1,1,0
336060149,13251241,45.2203776,-93.1453969,336060231,25.5134,4.86227,-1.11118,0.000599753,-0.00102212,0.0,0.301067,-0.385143,0.0158648,-0.0598797,-0.00528227,0.271893,0.0,0.0,0.0,-0.52716,275.921,0.0126112,-0.0158648,0.516359,0.245124,0,1,1,1,1,1,0,1,1,1,1,0
336161525,13251241,45.2203776,-93.1453969,336161607,25.5287,4.82267,-1.16277,0.000599753,-0.00102212,0.0,0.205524,-0.325364,-0.426573,-0.0598797,-0.00528227,0.271893,0.0,0.0,0.0,-0.540275,275.921,0.0667303,0.426573,0.502077,0.244361,0,1,1,1,1,1,0,1,1,1,1,0
336262047,13251241,45.2203776,-93.1453969,336262192,25.5452,4.78889,-1.21621,0.000599753,-0.00102212,0.0,0.248848,-0.290337,0.0708771,-0.0598797,-0.00528227,0.271893,0.0,0.0,0.0,-0.559269,275.921,0.130072,-0.0708771,0.516517,0.244764,0,1,1,1,1,1,0,1,1,1,1,0
336366269,13251241,45.2203776,-93.1453969,336366390,25.5502,4.76589,-1.19995,0.000599753,-0.00102212,0.0,0.288801,-0.353032,0.339447,-0.0598797,-0.00528227,0.271893,0.0,0.0,0.0,-0.577833,275.921,0.0769708,-0.339447,0.505667,0.244803,0,1,1,1,1,1,0,1,1,1,1,0
336465803,13251241,45.2203776,-93.1453969,336465885,25.5659,4.74062,-1.20023,0.000599753,-0.00102212,0.0,0.235146,-0.251109,0.083861,-0.0598797,-0.00528227,0.271893,0.0,0.0,0.0,-0.585695,275.921,0.0331739,-0.083861,0.492565,0.245605,0,1,1,1,1,1,0,1,1,1,1,0
336566282,13251241,45.2203776,-93.1453969,336566364,25.5708,4.73416,-1.21935,0.000599753,-0.00102212,0.0,0.126994,-0.158121,-0.0437355,-0.0598797,-0.00528227,0.271893,0.0,0.0,0.0,-0.587266,275.921,0.0680135,0.0437355,0.507651,0.244641,0,1,1,1,1,1,0,1,1,1,1,0
336669368,13251241,45.2203776,-93.1453969,336669450,25.5772,4.73425,-1.25324,0.000599753,-0.00102212,0.0,0.194454,-0.0435155,-0.304672,-0.0598797,-0.00528227,0.271893,0.0,0.0,0.0,-0.576146,275.921,0.115439,0.304672,0.496491,0.244441,0,1,1,1,1,1,0,1,1,1,1,0
336771377,13251241,45.2203776,-93.1453969,336771459,25.5997,4.75299,-1.29764,0.000599753,-0.00102212,0.0,0.276396,0.0469942,-0.0317319,-0.0598797,-0.00528227,0.271893,0.0,0.0,0.0,-0.555693,275.921,0.143149,0.0317319,0.509048,0.244177,0,1,1,1,1,1,0,1,1,1,1,0
336871389,13251241,45.2203776,-93.1453969,336871475,25.6245,4.77013,-1.28296,0.000599753,-0.00102212,0.0,0.276222,0.0737012,0.474579,-0.0598797,-0.00528227,0.271893,0.0,0.0,0.0,-0.531444,275.921,0.104401,-0.474579,0.497104,0.243949,0,1,1,1,1,1,0,1,1,1,1,0
336975325,13251241,45.2203776,-93.1453969,336975407,25.683,4.78032,-1.27948,0.000599753,-0.00102212,0.0,0.462409,0.0403514,0.0540218,-0.0598797,-0.00528227,0.271893,0.0,0.0,0.0,-0.502656,275.921,0.0365266,-0.0540218,0.509834,0.245566,0,1,1,1,1,1,0,1,1,1,1,0
337075490,13251241,45.2203776,-93.1453969,337075571,25.7332,4.78921,-1.30284,0.000599753,-0.00102212,0.0,0.349917,0.0336014,-0.0776158,-0.0598797,-0.00528227,0.271893,0.0,0.0,0.0,-0.47896,275.921,0.0644374,0.0776158,0.499177,0.245579,0,1,1,1,1,1,0,1,1,1,1,0
337176927,13251241,45.2203776,-93.1453969,337177013,25.7587,4.80371,-1.33191,0.000599753,-0.00102212,0.0,0.289761,0.00284894,-0.0997164,-0.0598797,-0.00528227,0.271893,0.0,0.0,0.0,-0.459206,275.921,0.101324,0.0997164,0.511738,0.24531,0,1,1,1,1,1,0,1,1,1,1,0
337277143,13251241,45.2203776,-93.1453969,337277224,25.7847,4.81059,-1.3593,0.000599753,-0.00102212,0.0,0.296749,-0.0433641,-0.0362097,-0.0598797,-0.00528227,0.271893,0.0,0.0,0.0,-0.442129,275.921,0.118616,0.0362097,0.500399,0.245443,0,1,1,1,1,1,0,1,1,1,1,0
337380974,13251241,45.2203776,-93.1453969,337381064,25.8141,4.81134,-1.38089,0.000599753,-0.00102212,0.0,0.286171,-0.087899,-0.0244669,-0.0598797,-0.00528227,0.271893,0.0,0.0,0.0,-0.428704,275.921,0.113832,0.0244669,0.512705,0.245026,0,1,1,1,1,1,0,1,1,1,1,0
337481079,13251241,45.2203776,-93.1453969,337481161,25.8422,4.80517,-1.40596,0.000599753,-0.00102212,0.0,0.24659,-0.141855,-0.0231181,-0.0598797,-0.00528227,0.271893,0.0,0.0,0.0,-0.423124,275.921,0.0938482,0.0231181,0.502218,0.245395,0,1,1,1,1,1,0,1,1,1,1,0
337582678,13251241,45.2203776,-93.1453969,337582760,25.8681,4.7907,-1.43005,0.000599753,-0.00102212,0.0,0.178824,-0.188102,0.0119907,-0.0598797,-0.00528227,0.271893,0.0,0.0,0.0,-0.426506,275.921,0.0930152,-0.0119907,0.516557,0.245817,0,1,1,1,1,1,0,1,1,1,1,0
337682606,13251241,45.2203776,-93.1453969,337682727,25.8859,4.77523,-1.45001,0.000599753,-0.00102212,0.0,0.104294,-0.226073,0.0255086,-0.0598797,-0.00528227,0.271893,0.0,0.0,0.0,-0.435249,275.921,0.0835257,-0.0255086,0.50328,0.245056,0,1,1,1,1,1,0,1,1,1,1,0
337786646,13251241,45.2203776,-93.1453969,337786728,25.8974,4.76452,-1.47634,0.000599753,-0.00102212,0.0,0.0600382,-0.213505,-0.0700934,-0.0598797,-0.00528227,0.271893,0.0,0.0,0.0,-0.442677,275.921,0.0933887,0.0700934,0.517818,0.245557,0,1,1,1,1,1,0,1,1,1,1,0
337886558,13251241,45.2203776,-93.1453969,337886653,25.9064,4.75085,-1.50181,0.000599753,-0.00102212,0.0,0.024804,-0.198959,-0.0755434,-0.0598797,-0.00528227,0.271893,0.0,0.0,0.0,-0.446769,275.921,0.110218,0.0755434,0.505389,0.244674,0,1,1,1,1,1,0,1,1,1,1,0
337990538,13251241,45.2203776,-93.1453969,337990623,25.9145,4.74014,-1.52419,0.000599753,-0.00102212,0.0,-0.00949485,-0.12849,-0.0357112,-0.0598797,-0.00528227,0.271893,0.0,0.0,0.0,-0.44805,275.921,0.127503,0.0357112,0.519793,0.245091,0,1,1,1,1,1,0,1,1,1,1,0
338088120,13251241,45.2203776,-93.1453969,338088202,25.9179,4.73394,-1.53871,0.000599753,-0.00102212,0.0,-0.017667,-0.072701,-0.0239999,-0.0598797,-0.00528227,0.271893,0.0,0.0,0.0,-0.450366,275.921,0.115311,0.0239999,0.506719,0.246023,0,1,1,1,1,1,0,1,1,1,1,0
338192323,13251241,45.2203776,-93.1453969,338192405,25.9216,4.73437,-1.55351,0.000599753,-0.00102212,0.0,-0.0223649,0.0297606,-0.0379177,-0.0598797,-0.00528227,0.271893,0.0,0.0,0.0,-0.453139,275.921,0.128421,0.0379177,0.521165,0.246436,0,1,1,1,1,1,0,1,1,1,1,0
338292173,13251241,45.2203776,-93.1453969,338292255,25.9217,4.74317,-1.56562,0.000599753,-0.00102212,0.0,-0.0621979,0.132306,-0.0504791,-0.0598797,-0.00528227,0.271893,0.0,0.0,0.0,-0.454368,275.921,0.134221,0.0504791,0.507713,0.245731,0,1,1,1,1,1,0,1,1,1,1,0
338498438,13251241,45.2203776,-93.1453969,338498559,25.8941,4.78048,-1.58293,0.000599753,-0.00102212,0.0,-0.173586,0.228486,0.00223891,-0.0598797,-0.00528227,0.271893,0.0,0.0,0.0,-0.446999,275.921,0.137327,-0.00223891,0.512282,0.244755,0,1,1,1,1,1,0,1,1,1,1,0
338597711,13251241,45.2203776,-93.1453969,338597793,25.8746,4.80526,-1.58558,0.000599753,-0.00102212,0.0,-0.163438,0.235531,-0.00420006,-0.0598797,-0.00528227,0.271893,0.0,0.0,0.0,-0.438707,275.921,0.135313,0.00420006,0.525154,0.246336,0,1,1,1,1,1,0,1,1,1,1,0
338698552,13251241,45.2203776,-93.1453969,338698638,25.8557,4.83207,-1.58654,0.000599753,-0.00102212,0.0,-0.159109,0.184786,-0.000456662,-0.0598797,-0.00528227,0.271893,0.0,0.0,0.0,-0.428975,275.921,0.132177,0.000456662,0.513349,0.246356,0,1,1,1,1,1,0,1,1,1,1,0
338802322,13251241,45.2203776,-93.1453969,338802441,25.8367,4.85557,-1.58851,0.000599753,-0.00102212,0.0,-0.175143,0.126589,0.00870201,-0.0598797,-0.00528227,0.271893,0.0,0.0,0.0,-0.418415,275.921,0.133278,-0.00870201,0.528477,0.246997,0,1,1,1,1,1,0,1,1,1,1,0
338902439,13251241,45.2203776,-93.1453969,338902547,25.827,4.86962,-1.59669,0.000599753,-0.00102212,0.0,-0.0904398,0.107659,-0.139583,-0.0598797,-0.00528227,0.271893,0.0,0.0,0.0,-0.40972,275.921,0.138512,0.139583,0.514427,0.246213,0,1,1,1,1,1,0,1,1,1,1,0
339004209,13251241,45.2203776,-93.1453969,339004326,25.8256,4.87429,-1.60897,0.000599753,-0.00102212,0.0,-0.106559,0.046014,-0.0404123,-0.0598797,-0.00528227,0.271893,0.0,0.0,0.0,-0.399551,275.921,0.143121,0.0404123,0.52838,0.246391,0,1,1,1,1,1,0,1,1,1,1,0
339103847,13251241,45.2203776,-93.1453969,339103922,25.8178,4.88205,-1.61496,0.000599753,-0.00102212,0.0,-0.0990015,0.0587977,-0.0234858,-0.0598797,-0.00528227,0.271893,0.0,0.0,0.0,-0.394098,275.921,0.135165,0.0234858,0.515093,0.245832,0,1,1,1,1,1,0,1,1,1,1,0
339207378,13251241,45.2203776,-93.1453969,339207453,25.8095,4.8937,-1.62319,0.000599753,-0.00102212,0.0,-0.0741257,0.0662027,-0.0399246,-0.0598797,-0.00528227,0.271893,0.0,0.0,0.0,-0.390562,275.921,0.1266,0.0399246,0.527551,0.247294,0,1,1,1,1,1,0,1,1,1,1,0
339307385,13251241,45.2203776,-93.1453969,339307460,25.8043,4.8995,-1.63464,0.000599753,-0.00102212,0.0,-0.0501696,0.0402422,-0.0357846,-0.0598797,-0.00528227,0.271893,0.0,0.0,0.0,-0.388253,275.921,0.122767,0.0357846,0.516844,0.24564,0,1,1,1,1,1,0,1,1,1,1,0
339408947,13251241,45.2203776,-93.1453969,339409037,25.8019,4.89955,-1.64527,0.000599753,-0.00102212,0.0,-0.0306915,0.0290488,-0.0269142,-0.0598797,-0.00528227,0.271893,0.0,0.0,0.0,-0.390095,275.921,0.121056,0.0269142,0.529672,0.247235,0,1,1,1,1,1,0,1,1,1,1,0
339512949,13251241,45.2203776,-93.1453969,339513038,25.8021,4.90386,-1.65656,0.000599753,-0.00102212,0.0,-0.0044187,0.0378898,-0.0224506,-0.0598797,-0.00528227,0.271893,0.0,0.0,0.0,-0.395561,275.921,0.117192,0.0224506,0.517936,0.245496,0,1,1,1,1,1,0,1,1,1,1,0
339613545,13251241,45.2203776,-93.1453969,339613637,25.8029,4.90925,-1.66563,0.000599753,-0.00102212,0.0,-0.0125989,0.0234779,-0.0472776,-0.0598797,-0.00528227,0.271893,0.0,0.0,0.0,-0.400428,275.921,0.12219,0.0472776,0.533264,0.246208,0,1,1,1,1,1,0,1,1,1,1,0
339713069,13251241,45.2203776,-93.1453969,339713145,25.8033,4.91387,-1.67535,0.000599753,-0.00102212,0.0,0.000218769,0.0236028,-0.0538292,-0.0598797,-0.00528227,0.271893,0.0,0.0,0.0,-0.403943,275.921,0.129715,0.0538292,0.518105,0.246825,0,1,1,1,1,1,0,1,1,1,1,0
339816991,13251241,45.2203776,-93.1453969,339817084,25.8042,4.91858,-1.68725,0.000599753,-0.00102212,0.0,-0.00446361,0.024575,-0.0507144,-0.0598797,-0.00528227,0.271893,0.0,0.0,0.0,-0.408142,275.921,0.126987,0.0507144,0.53371,0.24582,0,1,1,1,1,1,0,1,1,1,1,0
339918548,13251241,45.2203776,-93.1453969,339918623,25.8008,4.91673,-1.69703,0.000599753,-0.00102212,0.0,0.0119928,0.0290903,-0.0518892,-0.0598797,-0.00528227,0.271893,0.0,0.0,0.0,-0.410908,275.921,0.129644,0.0518892,0.520175,0.247136,0,1,1,1,1,1,0,1,1,1,1,0
340018583,13251241,45.2203776,-93.1453969,340018692,25.7988,4.9135,-1.70517,0.000599753,-0.00102212,0.0,0.0348736,0.0314214,-0.0395371,-0.0598797,-0.00528227,0.271893,0.0,0.0,0.0,-0.411271,275.921,0.131171,0.0395371,0.533537,0.247075,0,1,1,1,1,1,0,1,1,1,1,0
340119373,13251241,45.2203776,-93.1453969,340119477,25.7993,4.91314,-1.70916,0.000599753,-0.00102212,0.0,0.0530858,0.0350202,-0.0238529,-0.0598797,-0.00528227,0.271893,0.0,0.0,0.0,-0.410792,275.921,0.132852,0.0238529,0.520625,0.246841,0,1,1,1,1,1,0,1,1,1,1,0
340221003,13251241,45.2203776,-93.1453969,340221092,25.8011,4.91435,-1.71165,0.000599753,-0.00102212,0.0,0.0499468,0.0334771,-0.0194838,-0.0598797,-0.00528227,0.271893,0.0,0.0,0.0,-0.410903,275.921,0.129265,0.0194838,0.535666,0.247483,0,1,1,1,1,1,0,1,1,1,1,0
340325567,13251241,45.2203776,-93.1453969,340325642,25.7985,4.91313,-1.71671,0.000599753,-0.00102212,0.0,0.0316071,0.0194589,-0.0516047,-0.0598797,-0.00528227,0.271893,0.0,0.0,0.0,-0.408067,275.921,0.121302,0.0516047,0.521682,0.246727,0,1,1,1,1,1,0,1,1,1,1,0
340425073,13251241,45.2203776,-93.1453969,340425152,25.7948,4.91038,-1.7277,0.000599753,-0.00102212,0.0,0.0355238,-0.00882976,-0.0986434,-0.0598797,-0.00528227,0.271893,0.0,0.0,0.0,-0.399123,275.921,0.128524,0.0986434,0.534662,0.246519,0,1,1,1,1,1,0,1,1,1,1,0
340525073,13251241,45.2203776,-93.1453969,340525148,25.7915,4.89705,-1.74063,0.000599753,-0.00102212,0.0,0.101098,-0.0742002,-0.111439,-0.0598797,-0.00528227,0.271893,0.0,0.0,0.0,-0.387256,275.921,0.136097,0.111439,0.522667,0.246652,0,1,1,1,1,1,0,1,1,1,1,0
340626627,13251241,45.2203776,-93.1453969,340626708,25.7955,4.87576,-1.75287,0.000599753,-0.00102212,0.0,0.165446,-0.15215,-0.0548332,-0.0598797,-0.00528227,0.271893,0.0,0.0,0.0,-0.37744,275.921,0.134041,0.0548332,0.535427,0.246353,0,1,1,1,1,1,0,1,1,1,1,0
340730554,13251241,45.2203776,-93.1453969,340730629,25.8101,4.84918,-1.75765,0.000599753,-0.00102212,0.0,0.289556,-0.242061,-0.00635388,-0.0598797,-0.00528227,0.271893,0.0,0.0,0.0,-0.380968,275.921,0.132523,0.00635388,0.522356,0.246005,0,1,1,1,1,1,0,1,1,1,1,0
340831124,13251241,45.2203776,-93.1453969,340831204,25.837,4.81279,-1.75015,0.000599753,-0.00102212,0.0,0.384727,-0.385728,0.0461378,-0.0598797,-0.00528227,0.271893,0.0,0.0,0.0,-0.393623,275.921,0.134838,-0.0461378,0.536994,0.246491,0,1,1,1,1,1,0,1,1,1,1,0
340930563,13251241,45.2203776,-93.1453969,340930645,25.875,4.75931,-1.74122,0.000599753,-0.00102212,0.0,0.420367,-0.514807,-0.00317694,-0.0598797,-0.00528227,0.271893,0.0,0.0,0.0,-0.413423,275.921,0.134661,0.00317694,0.521567,0.245238,0,1,1,1,1,1,0,1,1,1,1,0
341035273,13251241,45.2203776,-93.1453969,341035384,25.9123,4.69218,-1.73238,0.000599753,-0.00102212,0.0,0.358703,-0.602508,-0.108127,-0.0598797,-0.00528227,0.271893,0.0,0.0,0.0,-0.431147,275.921,0.160565,0.108127,0.537565,0.24632,0,1,1,1,1,1,0,1,1,1,1,0
341136201,13251241,45.2203776,-93.1453969,341136283,25.9517,4.62306,-1.72971,0.000599753,-0.00102212,0.0,0.347359,-0.669113,-0.238047,-0.0598797,-0.00528227,0.271893,0.0,0.0,0.0,-0.431322,275.921,0.189246,0.238047,0.521995,0.245045,0,1,1,1,1,1,0,1,1,1,1,0
341236188,13251241,45.2203776,-93.1453969,341236299,25.9969,4.55445,-1.73318,0.000599753,-0.00102212,0.0,0.486815,-0.58695,-0.274993,-0.0598797,-0.00528227,0.271893,0.0,0.0,0.0,-0.415066,275.921,0.223107,0.274993,0.536286,0.245433,0,1,1,1,1,1,0,1,1,1,1,0
341340194,13251241,45.2203776,-93.1453969,341340269,26.0586,4.49731,-1.71741,0.000599753,-0.00102212,0.0,0.645442,-0.710611,0.136465,-0.0598797,-0.00528227,0.271893,0.0,0.0,0.0,-0.395638,275.921,0.218969,-0.136465,0.522362,0.244735,0,1,1,1,1,1,0,1,1,1,1,0
341440167,13251241,45.2203776,-93.1453969,341440284,26.131,4.4226,-1.6554,0.000599753,-0.00102212,0.0,0.767091,-0.912824,0.423809,-0.0598797,-0.00528227,0.271893,0.0,0.0,0.0,-0.362535,275.921,0.154949,-0.423809,0.537251,0.245344,0,1,1,1,1,1,0,1,1,1,1,0
341541799,13251241,45.2203776,-93.1453969,341541874,26.2196,4.32618,-1.58154,0.000599753,-0.00102212,0.0,1.03391,-1.14833,0.237166,-0.0598797,-0.00528227,0.271893,0.0,0.0,0.0,-0.325545,275.921,0.126308,-0.237166,0.524096,0.245023,0,1,1,1,1,1,0,1,1,1,1,0
341642401,13251241,45.2203776,-93.1453969,341642476,26.3386,4.20372,-1.52847,0.000599753,-0.00102212,0.0,1.41174,-1.4668,-0.106639,-0.0598797,-0.00528227,0.271893,0.0,0.0,0.0,-0.315302,275.921,0.151422,0.106639,0.539495,0.245884,0,1,1,1,1,1,0,1,1,1,1,0
341746606,13251241,45.2203776,-93.1453969,341746681,26.5271,4.02126,-1.52009,0.000599753,-0.00102212,0.0,2.17395,-1.99978,-0.754999,-0.0598797,-0.00528227,0.271893,0.0,0.0,0.0,-0.351239,275.921,0.184032,0.754999,0.527677,0.2461,0,1,1,1,1,1,0,1,1,1,1,0
341845773,13251241,45.2203776,-93.1453969,341845854,26.8289,3.7528,-1.62547,0.000599753,-0.00102212,0.0,4.25345,-3.39851,-2.18983,-0.0598797,-0.00528227,0.271893,0.0,0.0,0.0,-0.420567,275.921,0.289418,2.18983,0.539321,0.245351,0,1,1,1,1,1,0,1,1,1,1,0
341947959,13251241,45.2203776,-93.1453969,341948052,27.3294,3.35788,-1.84174,0.000599753,-0.00102212,0.0,4.91889,-3.82415,-2.60473,-0.0598797,-0.00528227,0.271893,0.0,0.0,0.0,-0.457158,275.921,0.505684,2.60473,0.526269,0.245032,0,1,1,1,1,1,0,1,1,1,1,0
342047648,13251241,45.2203776,-93.1453969,342047841,27.8424,2.9633,-2.09027,0.000599753,-0.00102212,0.0,5.04658,-3.88566,-3.08304,-0.0598797,-0.00528227,0.271893,0.0,0.0,0.0,-0.49696,275.921,0.754221,3.08304,0.538628,0.24453,0,1,1,1,1,1,0,1,1,1,1,0
342152467,13251241,45.2203776,-93.1453969,342152606,28.3726,2.54105,-2.40204,0.000599753,-0.00102212,0.0,5.049,-3.88312,-3.58199,-0.0598797,-0.00528227,0.271893,0.0,0.0,0.0,-0.558247,275.921,1.06598,3.58199,0.526993,0.244376,0,1,1,1,1,1,0,1,1,1,1,0
342251372,13251241,45.2203776,-93.1453969,342251471,28.8764,2.14081,-2.73571,0.000599753,-0.00102212,0.0,4.92341,-3.84189,-4.0757,-0.0598797,-0.00528227,0.271893,0.0,0.0,0.0,-0.634064,275.921,1.39966,4.0757,0.541238,0.246328,0,1,1,1,1,1,0,1,1,1,1,0
342352128,13251241,45.2203776,-93.1453969,342352226,29.3508,1.73306,-3.09252,0.000599753,-0.00102212,0.0,4.76683,-3.80884,-4.43517,-0.0598797,-0.00528227,0.271893,0.0,0.0,0.0,-0.710928,275.921,1.75647,4.43517,0.530443,0.244785,0,1,1,1,1,1,0,1,1,1,1,0
342452969,13251241,45.2203776,-93.1453969,342453081,29.8266,1.32595,-3.47028,0.000599753,-0.00102212,0.0,4.72578,-3.8721,-4.5588,-0.0598797,-0.00528227,0.271893,0.0,0.0,0.0,-0.786423,275.921,2.13422,4.5588,0.544864,0.246675,0,1,1,1,1,1,0,1,1,1,1,0
342557511,13251241,45.2203776,-93.1453969,342557643,30.2938,0.882508,-3.84305,0.000599753,-0.00102212,0.0,4.74682,-4.06956,-4.51017,-0.0598797,-0.00528227,0.271893,0.0,0.0,0.0,-0.84616,275.921,2.507,4.51017,0.532754,0.246727,0,1,1,1,1,1,0,1,1,1,1,0
342656986,13251241,45.2203776,-93.1453969,342657084,30.7608,0.442596,-4.18424,0.000599753,-0.00102212,0.0,4.94676,-4.39909,-4.16257,-0.0598797,-0.00528227,0.271893,0.0,0.0,0.0,-0.456353,275.921,2.84818,4.16257,0.549534,0.245707,0,1,1,1,1,1,0,1,1,1,1,0
342760987,13251241,45.2203776,-93.1453969,342761083,31.2442,-0.0609368,-4.49599,0.000599753,-0.00102212,0.0,5.4314,-4.78167,-3.51197,-0.0598797,-0.00528227,0.271893,0.0,0.0,0.0,-0.371197,275.921,3.15993,3.51197,0.534748,0.246883,0,1,1,1,1,1,0,1,1,1,1,0
342865544,13251241,45.2203776,-93.1453969,342865625,31.7843,-0.582894,-4.73308,0.000599753,-0.00102212,0.0,5.94552,-5.06899,-2.96956,-0.0598797,-0.00528227,0.271893,0.0,0.0,0.0,-0.281138,275.921,3.39703,2.96956,0.524179,0.246402,0,1,1,1,1,1,0,1,1,1,1,0
342966707,13251241,45.2203776,-93.1453969,342966788,32.3834,-1.17032,-4.94233,0.000599753,-0.00102212,0.0,6.34927,-5.35826,-2.72156,-0.0598797,-0.00528227,0.271893,0.0,0.0,0.0,-0.208598,275.921,3.60628,2.72156,0.537903,0.246473,0,1,1,1,1,1,0,1,1,1,1,0
343066518,13251241,45.2203776,-93.1453969,343066593,32.9988,-1.74646,-5.15501,0.000599753,-0.00102212,0.0,6.51933,-5.63862,-2.92979,-0.0598797,-0.00528227,0.271893,0.0,0.0,0.0,-0.18298,275.921,3.81895,2.92979,0.529045,0.246925,0,1,1,1,1,1,0,1,1,1,1,0
343172761,13251241,45.2203776,-93.1453969,343172853,33.617,-2.3964,-5.43148,0.000599753,-0.00102212,0.0,6.42648,-5.94277,-3.39973,-0.0598797,-0.00528227,0.271893,0.0,0.0,0.0,-0.217208,275.921,4.09542,3.39973,0.543446,0.247104,0,1,1,1,1,1,0,1,1,1,1,0
343274516,13251241,45.2203776,-93.1453969,343274649,34.2272,-3.06073,-5.7684,0.000599753,-0.00102212,0.0,6.16115,-6.11695,-3.97598,-0.0598797,-0.00528227,0.271893,0.0,0.0,0.0,-0.287345,275.921,4.43235,3.97598,0.559253,0.247225,0,1,1,1,1,1,0,1,1,1,1,0
343375839,13251241,45.2203776,-93.1453969,343375946,34.7121,-3.74091,-6.15105,0.000599753,-0.00102212,0.0,5.71452,-6.23643,-4.55804,-0.0598797,-0.00528227,0.271893,0.0,0.0,0.0,-0.381823,275.921,4.81499,4.55804,0.548646,0.247813,0,1,1,1,1,1,0,1,1,1,1,0
343476129,13251241,45.2203776,-93.1453969,343476279,35.1619,-4.41011,-6.57835,0.000599753,-0.00102212,0.0,5.3193,-6.29353,-5.02094,-0.0598797,-0.00528227,0.271893,0.0,0.0,0.0,-0.464766,275.921,5.24229,5.02094,0.536557,0.247658,0,1,1,1,1,1,0,1,1,1,1,0
343579440,13251241,45.2203776,-93.1453969,343579538,35.5905,-5.10386,-7.05107,0.000599753,-0.00102212,0.0,5.13466,-6.36017,-5.18665,-0.0598797,-0.00528227,0.271893,0.0,0.0,0.0,-0.50414,275.921,5.71502,5.18665,0.551952,0.24774,0,1,1,1,1,1,0,1,1,1,1,0
343679322,13251241,45.2203776,-93.1453969,343679463,36.0061,-5.77444,-7.50688,0.000599753,-0.00102212,0.0,5.17628,-6.49267,-5.08475,-0.0598797,-0.00528227,0.271893,0.0,0.0,0.0,-0.508092,275.921,6.17082,5.08475,0.537397,0.246817,0,1,1,1,1,1,0,1,1,1,1,0
343779950,13251241,45.2203776,-93.1453969,343780057,36.4,-6.45338,-7.93663,0.000599753,-0.00102212,0.0,5.28552,-6.63688,-4.96001,-0.0598797,-0.00528227,0.271893,0.0,0.0,0.0,-0.490246,275.921,6.60058,4.96001,0.554433,0.247562,0,1,1,1,1,1,0,1,1,1,1,0
343883448,13251241,45.2203776,-93.1453969,343883546,36.862,-7.17075,-8.37569,0.000599753,-0.00102212,0.0,5.56344,-6.82767,-4.61564,-0.0598797,-0.00528227,0.271893,0.0,0.0,0.0,-0.468754,275.921,7.03963,4.61564,0.542202,0.247673,0,1,1,1,1,1,0,1,1,1,1,0
343984190,13251241,45.2203776,-93.1453969,343984292,37.3373,-7.85886,-8.76622,0.000599753,-0.00102212,0.0,5.92215,-6.99828,-4.15067,-0.0598797,-0.00528227,0.271893,0.0,0.0,0.0,-0.442116,275.921,7.43016,4.15067,0.55754,0.247774,0,1,1,1,1,1,0,1,1,1,1,0
344084212,13251241,45.2203776,-93.1453969,344084298,37.8621,-8.55918,-9.11699,0.000599753,-0.00102212,0.0,6.25132,-7.12838,-3.8186,-0.0598797,-0.00528227,0.271893,0.0,0.0,0.0,-0.412435,275.921,7.78093,3.8186,0.543789,0.249184,0,1,1,1,1,1,0,1,1,1,1,0
344188182,13251241,45.2203776,-93.1453969,344188261,38.4238,-9.28002,-9.47879,0.000599753,-0.00102212,0.0,6.50014,-7.17421,-3.76232,-0.0598797,-0.00528227,0.271893,0.0,0.0,0.0,-0.384097,275.921,8.14274,3.76232,0.560739,0.2499,0,1,1,1,1,1,0,1,1,1,1,0
344288629,13251241,45.2203776,-93.1453969,344288704,39.0026,-9.97049,-9.83636,0.000599753,-0.00102212,0.0,6.7693,-7.20425,-3.65614,-0.0598797,-0.00528227,0.271893,0.0,0.0,0.0,-0.363295,275.921,8.50031,3.65614,0.548911,0.249537,0,1,1,1,1,1,0,1,1,1,1,0
344388286,13251241,45.2203776,-93.1453969,344388365,39.612,-10.6476,-10.1813,0.000599753,-0.00102212,0.0,7.07495,-7.19329,-3.46637,-0.0598797,-0.00528227,0.271893,0.0,0.0,0.0,-0.345385,275.921,8.84521,3.46637,0.567179,0.250509,0,1,1,1,1,1,0,1,1,1,1,0
344494352,13251241,45.2203776,-93.1453969,344494427,40.2919,-11.3484,-10.5133,0.000599753,-0.00102212,0.0,7.37208,-7.17273,-3.28999,-0.0598797,-0.00528227,0.271893,0.0,0.0,0.0,-0.333535,275.921,9.17721,3.28999,0.55542,0.250656,0,1,1,1,1,1,0,1,1,1,1,0
344592940,13251241,45.2203776,-93.1453969,344593015,40.9736,-12.0212,-10.8158,0.000599753,-0.00102212,0.0,7.65495,-7.13737,-3.09324,-0.0598797,-0.00528227,0.271893,0.0,0.0,0.0,-0.319719,275.921,9.47971,3.09324,0.571501,0.250652,0,1,1,1,1,1,0,1,1,1,1,0
344692938,13251241,45.2203776,-93.1453969,344693013,41.6826,-12.6876,-11.1133,0.000599753,-0.00102212,0.0,7.88562,-7.09122,-3.02508,-0.0598797,-0.00528227,0.271893,0.0,0.0,0.0,-0.306732,275.921,9.77722,3.02508,0.560453,0.251252,0,1,1,1,1,1,0,1,1,1,1,0
344797601,13251241,45.2203776,-93.1453969,344797716,42.4332,-13.3904,-11.4177,0.000599753,-0.00102212,0.0,8.10962,-7.0713,-2.97229,-0.0598797,-0.00528227,0.271893,0.0,0.0,0.0,-0.293191,275.921,10.0816,2.97229,0.579181,0.252115,0,1,1,1,1,1,0,1,1,1,1,0
344896982,13251241,45.2203776,-93.1453969,344897107,43.1838,-14.073,-11.7145,0.000599753,-0.00102212,0.0,8.32942,-7.05602,-2.96047,-0.0598797,-0.00528227,0.271893,0.0,0.0,0.0,-0.27243,275.921,10.3784,2.96047,0.564347,0.251878,0,1,1,1,1,1,0,1,1,1,1,0
345000990,13251241,45.2203776,-93.1453969,345001078,43.9864,-14.786,-12.0384,0.000599753,-0.00102212,0.0,8.50914,-6.9689,-3.24348,-0.0598797,-0.00528227,0.271893,0.0,0.0,0.0,-0.251933,275.921,10.7024,3.24348,0.582932,0.252715,0,1,1,1,1,1,0,1,1,1,1,0
345101008,13251241,45.2203776,-93.1453969,345101097,44.774,-15.4798,-12.3745,0.000599753,-0.00102212,0.0,8.6795,-6.8665,-3.48132,-0.0598797,-0.00528227,0.271893,0.0,0.0,0.0,-0.242684,275.921,11.0384,3.48132,0.56636,0.253945,0,1,1,1,1,1,0,1,1,1,1,0
345203278,13251241,45.2203776,-93.1453969,345203353,45.5938,-16.1833,-12.7165,0.000599753,-0.00102212,0.0,8.83698,-6.79842,-3.4041,-0.0598797,-0.00528227,0.271893,0.0,0.0,0.0,-0.242739,275.921,11.3805,3.4041,0.586306,0.253326,0,1,1,1,1,1,0,1,1,1,1,0
345302632,13251241,45.2203776,-93.1453969,345302711,46.4254,-16.8793,-13.0501,0.000599753,-0.00102212,0.0,8.88098,-6.74895,-3.36832,-0.0598797,-0.00528227,0.271893,0.0,0.0,0.0,-0.242673,275.921,11.714,3.36832,0.569307,0.254554,0,1,1,1,1,1,0,1,1,1,1,0
345406577,13251241,45.2203776,-93.1453969,345406652,47.2825,-17.6004,-13.3932,0.000599753,-0.00102212,0.0,8.85636,-6.68212,-3.37758,-0.0598797,-0.00528227,0.271893,0.0,0.0,0.0,-0.240214,275.921,12.0571,3.37758,0.588036,0.25561,0,1,1,1,1,1,0,1,1,1,1,0
345507252,13251241,45.2203776,-93.1453969,345507327,48.114,-18.3101,-13.7347,0.000599753,-0.00102212,0.0,8.806,-6.66067,-3.41899,-0.0598797,-0.00528227,0.271893,0.0,0.0,0.0,-0.233598,275.921,12.3987,3.41899,0.575332,0.256015,0,1,1,1,1,1,0,1,1,1,1,0
345607126,13251241,45.2203776,-93.1453969,345607201,48.9491,-19.0364,-14.0898,0.000599753,-0.00102212,0.0,8.76693,-6.65746,-3.41691,-0.0598797,-0.00528227,0.271893,0.0,0.0,0.0,-0.227945,275.921,12.7537,3.41691,0.592014,0.256218,0,1,1,1,1,1,0,1,1,1,1,0
345708736,13251241,45.2203776,-93.1453969,345708811,49.7998,-19.7827,-14.4543,0.000599753,-0.00102212,0.0,8.7107,-6.67493,-3.46338,-0.0598797,-0.00528227,0.271893,0.0,0.0,0.0,-0.224531,275.921,13.1183,3.46338,0.579628,0.256686,0,1,1,1,1,1,0,1,1,1,1,0
345812748,13251241,45.2203776,-93.1453969,345812827,50.6641,-20.5649,-14.8474,0.000599753,-0.00102212,0.0,8.57832,-6.69097,-3.76475,-0.0598797,-0.00528227,0.271893,0.0,0.0,0.0,-0.224517,275.921,13.5114,3.76475,0.598636,0.257785,0,1,1,1,1,1,0,1,1,1,1,0
345912224,13251241,45.2203776,-93.1453969,345912331,51.4838,-21.3022,-15.2768,0.000599753,-0.00102212,0.0,8.38277,-6.6583,-4.20603,-0.0598797,-0.00528227,0.271893,0.0,0.0,0.0,-0.227553,275.921,13.9407,4.20603,0.581631,0.256622,0,1,1,1,1,1,0,1,1,1,1,0
346016856,13251241,45.2203776,-93.1453969,346016935,52.3209,-22.0627,-15.7575,0.000599753,-0.00102212,0.0,8.22088,-6.61165,-4.41319,-0.0598797,-0.00528227,0.271893,0.0,0.0,0.0,-0.239374,275.921,14.4215,4.41319,0.601248,0.258018,0,1,1,1,1,1,0,1,1,1,1,0
346117043,13251241,45.2203776,-93.1453969,346117130,53.1193,-22.7945,-16.2447,0.000599753,-0.00102212,0.0,8.10802,-6.5958,-4.40364,-0.0598797,-0.00528227,0.271893,0.0,0.0,0.0,-0.248125,275.921,14.9087,4.40364,0.58544,0.257821,0,1,1,1,1,1,0,1,1,1,1,0
346216989,13251241,45.2203776,-93.1453969,346217077,53.9078,-23.5107,-16.7232,0.000599753,-0.00102212,0.0,8.02805,-6.58894,-4.32163,-0.0598797,-0.00528227,0.271893,0.0,0.0,0.0,-0.245446,275.921,15.3871,4.32163,0.605845,0.259569,0,1,1,1,1,1,0,1,1,1,1,0
346316962,13251241,45.2203776,-93.1453969,346317087,54.7022,-24.2006,-17.1867,0.000599753,-0.00102212,0.0,7.98233,-6.55107,-4.19681,-0.0598797,-0.00528227,0.271893,0.0,0.0,0.0,-0.23351,275.921,15.8507,4.19681,0.589408,0.259139,0,1,1,1,1,1,0,1,1,1,1,0
346420950,13251241,45.2203776,-93.1453969,346421038,55.5318,-24.8966,-17.6456,0.000599753,-0.00102212,0.0,7.92919,-6.51639,-4.11333,-0.0598797,-0.00528227,0.271893,0.0,0.0,0.0,-0.218193,275.921,16.3096,4.11333,0.606154,0.259524,0,1,1,1,1,1,0,1,1,1,1,0
346520995,13251241,45.2203776,-93.1453969,346521084,56.3386,-25.5381,-18.071,0.000599753,-0.00102212,0.0,7.87921,-6.45789,-4.06413,-0.0598797,-0.00528227,0.271893,0.0,0.0,0.0,-0.199044,275.921,16.7349,4.06413,0.590642,0.259382,0,1,1,1,1,1,0,1,1,1,1,0
346625450,13251241,45.2203776,-93.1453969,346625525,57.1761,-26.1905,-18.5132,0.000599753,-0.00102212,0.0,7.81129,-6.39298,-3.9972,-0.0598797,-0.00528227,0.271893,0.0,0.0,0.0,-0.179497,275.921,17.1771,3.9972,0.612183,0.261836,0,1,1,1,1,1,0,1,1,1,1,0
346726504,13251241,45.2203776,-93.1453969,346726579,57.9984,-26.805,-18.9496,0.000599753,-0.00102212,0.0,7.66514,-6.29999,-4.13487,-0.0598797,-0.00528227,0.271893,0.0,0.0,0.0,-0.162555,275.921,17.6136,4.13487,0.596743,0.261715,0,1,1,1,1,1,0,1,1,1,1,0
346827249,13251241,45.2203776,-93.1453969,346827324,58.7933,-27.4009,-19.3862,0.000599753,-0.00102212,0.0,7.55418,-6.19771,-4.16206,-0.0598797,-0.00528227,0.271893,0.0,0.0,0.0,-0.14772,275.921,18.0502,4.16206,0.614687,0.262649,0,1,1,1,1,1,0,1,1,1,1,0
346926621,13251241,45.2203776,-93.1453969,346926696,59.5985,-27.9593,-19.8158,0.000599753,-0.00102212,0.0,7.48739,-6.06459,-4.0664,-0.0598797,-0.00528227,0.271893,0.0,0.0,0.0,-0.137337,275.921,18.4797,4.0664,0.59711,0.262103,0,1,1,1,1,1,0,1,1,1,1,0
347031055,13251241,45.2203776,-93.1453969,347031130,60.4332,-28.5222,-20.2474,0.000599753,-0.00102212,0.0,7.41708,-5.9279,-3.92141,-0.0598797,-0.00528227,0.271893,0.0,0.0,0.0,-0.124074,275.921,18.9114,3.92141,0.615844,0.263486,0,1,1,1,1,1,0,1,1,1,1,0
347130538,13251241,45.2203776,-93.1453969,347130629,61.2579,-29.0095,-20.6606,0.000599753,-0.00102212,0.0,7.20256,-5.6528,-4.20673,-0.0598797,-0.00528227,0.271893,0.0,0.0,0.0,-0.10078,275.921,19.3245,4.20673,0.60067,0.26387,0,1,1,1,1,1,0,1,1,1,1,0
347232233,13251241,45.2203776,-93.1453969,347232357,62.0379,-29.5016,-21.1193,0.000599753,-0.00102212,0.0,6.93374,-5.28152,-4.53055,-0.0598797,-0.00528227,0.271893,0.0,0.0,0.0,-0.0767612,275.921,19.7833,4.53055,0.614703,0.26325,0,1,1,1,1,1,0,1,1,1,1,0
347332983,13251241,45.2203776,-93.1453969,347333110,62.8232,-29.9075,-21.584,0.000599753,-0.00102212,0.0,6.80269,-4.92062,-4.53396,-0.0598797,-0.00528227,0.271893,0.0,0.0,0.0,-0.0596987,275.921,20.248,4.53396,0.600945,0.264018,0,1,1,1,1,1,0,1,1,1,1,0
347436180,13251241,45.2203776,-93.1453969,347436285,63.5961,-30.3241,-22.0559,0.000599753,-0.00102212,0.0,6.67717,-4.56867,-4.45016,-0.0598797,-0.00528227,0.271893,0.0,0.0,0.0,-0.0396557,275.921,20.7199,4.45016,0.616437,0.266438,0,1,1,1,1,1,0,1,1,1,1,0
347536848,13251241,45.2203776,-93.1453969,347536939,64.3863,-30.6113,-22.5008,0.000599753,-0.00102212,0.0,6.5809,-4.16851,-4.39211,-0.0598797,-0.00528227,0.271893,0.0,0.0,0.0,-0.0140408,275.921,21.1647,4.39211,0.603513,0.265301,0,1,1,1,1,1,0,1,1,1,1,0
347640151,13251241,45.2203776,-93.1453969,347640242,65.1509,-30.9204,-22.9602,0.000599753,-0.00102212,0.0,6.45516,-3.77974,-4.35416,-0.0598797,-0.00528227,0.271893,0.0,0.0,0.0,0.0189375,275.921,21.6242,4.35416,0.619554,0.265656,0,1,1,1,1,1,0,1,1,1,1,0
347738617,13251241,45.2203776,-93.1453969,347738709,65.9377,-31.1239,-23.3843,0.000599753,-0.00102212,0.0,6.44072,-3.44807,-4.20625,-0.0598797,-0.00528227,0.271893,0.0,0.0,0.0,0.0560834,275.921,22.0483,4.20625,0.604301,0.265826,0,1,1,1,1,1,0,1,1,1,1,0
347841833,13251241,45.2203776,-93.1453969,347841924,66.7458,-31.3392,-23.8111,0.000599753,-0.00102212,0.0,6.42966,-3.12243,-3.9997,-0.0598797,-0.00528227,0.271893,0.0,0.0,0.0,0.106599,275.921,22.475,3.9997,0.621623,0.266817,0,1,1,1,1,1,0,1,1,1,1,0
347942357,13251241,45.2203776,-93.1453969,347942449,67.6545,-31.4606,-24.2026,0.000599753,-0.00102212,0.0,6.50593,-2.74247,-3.77841,-0.0598797,-0.00528227,0.271893,0.0,0.0,0.0,0.158588,275.921,22.8665,3.77841,0.607229,0.26737,0,1,1,1,1,1,0,1,1,1,1,0
348045743,13251241,45.2203776,-93.1453969,348045912,68.4846,-31.6238,-24.5882,0.000599753,-0.00102212,0.0,6.47137,-2.3578,-3.63781,-0.0598797,-0.00528227,0.271893,0.0,0.0,0.0,0.205809,275.921,23.2522,3.63781,0.623127,0.27009,0,1,1,1,1,1,0,1,1,1,1,0
348147963,13251241,45.2203776,-93.1453969,348148072,69.4439,-31.6673,-24.9623,0.000599753,-0.00102212,0.0,6.52855,-1.93626,-3.4837,-0.0598797,-0.00528227,0.271893,0.0,0.0,0.0,0.240381,275.921,23.6263,3.4837,0.608011,0.268203,0,1,1,1,1,1,0,1,1,1,1,0
348247307,13251241,45.2203776,-93.1453969,348247437,70.3019,-31.7222,-25.3285,0.000599753,-0.00102212,0.0,6.46742,-1.53273,-3.46406,-0.0598797,-0.00528227,0.271893,0.0,0.0,0.0,0.269218,275.921,23.9924,3.46406,0.625811,0.269436,0,1,1,1,1,1,0,1,1,1,1,0
348348005,13251241,45.2203776,-93.1453969,348348112,71.2883,-31.6701,-25.7049,0.000599753,-0.00102212,0.0,6.4706,-1.08304,-3.46287,-0.0598797,-0.00528227,0.271893,0.0,0.0,0.0,0.293485,275.921,24.3688,3.46287,0.606573,0.270991,0,1,1,1,1,1,0,1,1,1,1,0
348451408,13251241,45.2203776,-93.1453969,348451511,72.2096,-31.6292,-26.0893,0.000599753,-0.00102212,0.0,6.44826,-0.695254,-3.37928,-0.0598797,-0.00528227,0.271893,0.0,0.0,0.0,0.321795,275.921,24.7532,3.37928,0.623329,0.271861,0,1,1,1,1,1,0,1,1,1,1,0
348552136,13251241,45.2203776,-93.1453969,348552229,73.059,-31.5677,-26.4349,0.000599753,-0.00102212,0.0,6.46881,-0.346601,-3.11689,-0.0598797,-0.00528227,0.271893,0.0,0.0,0.0,0.355334,275.921,25.0988,3.11689,0.619727,0.272994,0,1,1,1,1,1,0,1,1,1,1,0
348654381,13251241,45.2203776,-93.1453969,348654468,73.8844,-31.4918,-26.7539,0.000599753,-0.00102212,0.0,6.45714,0.0247276,-2.87283,-0.0598797,-0.00528227,0.271893,0.0,0.0,0.0,0.390299,275.921,25.4178,2.87283,0.61697,0.272253,0,1,1,1,1,1,0,1,1,1,1,0
348752936,13251241,45.2203776,-93.1453969,348753060,74.6483,-31.3995,-27.0427,0.000599753,-0.00102212,0.0,6.31612,0.396376,-2.8382,-0.0598797,-0.00528227,0.271893,0.0,0.0,0.0,0.420892,275.921,25.7067,2.8382,0.632914,0.27462,0,1,1,1,1,1,0,1,1,1,1,0
348857049,13251241,45.2203776,-93.1453969,348857138,75.4159,-31.2755,-27.3358,0.000599753,-0.00102212,0.0,6.2238,0.7259,-2.69024,-0.0598797,-0.00528227,0.271893,0.0,0.0,0.0,0.46122,275.921,25.9998,2.69024,0.628743,0.27582,0,1,1,1,1,1,0,1,1,1,1,0
348956921,13251241,45.2203776,-93.1453969,348957010,76.1618,-31.116,-27.5934,0.000599753,-0.00102212,0.0,6.15299,1.06399,-2.4981,-0.0598797,-0.00528227,0.271893,0.0,0.0,0.0,0.513353,275.921,26.2574,2.4981,0.650159,0.277632,0,1,1,1,1,1,0,1,1,1,1,0
349059011,13251241,45.2203776,-93.1453969,349059178,76.8623,-30.9435,-27.8169,0.000599753,-0.00102212,0.0,6.07635,1.42486,-2.21725,-0.0598797,-0.00528227,0.271893,0.0,0.0,0.0,0.566596,275.921,26.4808,2.21725,0.643531,0.277927,0,1,1,1,1,1,0,1,1,1,1,0
349162763,13251241,45.2203776,-93.1453969,349162852,77.6091,-30.7095,-28.0316,0.000599753,-0.00102212,0.0,5.96314,1.82934,-2.00274,-0.0598797,-0.00528227,0.271893,0.0,0.0,0.0,0.615416,275.921,26.6955,2.00274,0.662006,0.277932,0,1,1,1,1,1,0,1,1,1,1,0
349263459,13251241,45.2203776,-93.1453969,349263577,78.2947,-30.455,-28.2212,0.000599753,-0.00102212,0.0,5.80247,2.22033,-1.92158,-0.0598797,-0.00528227,0.271893,0.0,0.0,0.0,0.654804,275.921,26.8851,1.92158,0.657098,0.279168,0,1,1,1,1,1,0,1,1,1,1,0
349362763,13251241,45.2203776,-93.1453969,349362851,79.0021,-30.1409,-28.4136,0.000599753,-0.00102212,0.0,5.60663,2.6375,-1.95495,-0.0598797,-0.00528227,0.271893,0.0,0.0,0.0,0.692085,275.921,27.0775,1.95495,0.679306,0.280273,0,1,1,1,1,1,0,1,1,1,1,0
349466620,13251241,45.2203776,-93.1453969,349466709,79.6957,-29.7836,-28.6214,0.000599753,-0.00102212,0.0,5.39645,3.04593,-1.9603,-0.0598797,-0.00528227,0.271893,0.0,0.0,0.0,0.73109,275.921,27.2854,1.9603,0.670389,0.280017,0,1,1,1,1,1,0,1,1,1,1,0
349568003,13251241,45.2203776,-93.1453969,349568146,80.411,-29.3645,-28.8123,0.000599753,-0.00102212,0.0,5.20544,3.42732,-1.97887,-0.0598797,-0.00528227,0.271893,0.0,0.0,0.0,0.766483,275.921,27.4762,1.97887,0.695023,0.281659,0,1,1,1,1,1,0,1,1,1,1,0
349667324,13251241,45.2203776,-93.1453969,349667412,81.0397,-28.9472,-28.9993,0.000599753,-0.00102212,0.0,5.05503,3.70748,-1.88846,-0.0598797,-0.00528227,0.271893,0.0,0.0,0.0,0.806509,275.921,27.6632,1.88846,0.68504,0.284136,0,1,1,1,1,1,0,1,1,1,1,0
349771423,13251241,45.2203776,-93.1453969,349771520,81.7875,-28.4293,-29.1735,0.000599753,-0.00102212,0.0,4.95587,4.01838,-1.6988,-0.0598797,-0.00528227,0.271893,0.0,0.0,0.0,0.867148,275.921,27.8374,1.6988,0.708182,0.284757,0,1,1,1,1,1,0,1,1,1,1,0
349871336,13251241,45.2203776,-93.1453969,349871425,82.4209,-27.9361,-29.3196,0.000599753,-0.00102212,0.0,4.77555,4.33182,-1.56323,-0.0598797,-0.00528227,0.271893,0.0,0.0,0.0,0.94257,275.921,27.9836,1.56323,0.697183,0.284304,0,1,1,1,1,1,0,1,1,1,1,0
349972382,13251241,45.2203776,-93.1453969,349972471,83.1669,-27.3399,-29.4568,0.000599753,-0.00102212,0.0,4.50932,4.74403,-1.61847,-0.0598797,-0.00528227,0.271893,0.0,0.0,0.0,1.01838,275.921,28.1208,1.61847,0.722884,0.285546,0,1,1,1,1,1,0,1,1,1,1,0
350075491,13251241,45.2203776,-93.1453969,350075584,83.794,-26.7311,-29.6204,0.000599753,-0.00102212,0.0,4.10609,5.17373,-1.84821,-0.0598797,-0.00528227,0.271893,0.0,0.0,0.0,1.08618,275.921,28.2844,1.84821,0.709639,0.287573,0,1,1,1,1,1,0,1,1,1,1,0
350176276,13251241,45.2203776,-93.1453969,350176365,84.5282,-26.0137,-29.8035,0.000599753,-0.00102212,0.0,3.70111,5.60414,-2.25554,-0.0598797,-0.00528227,0.271893,0.0,0.0,0.0,1.13998,275.921,28.4675,2.25554,0.737991,0.286457,0,1,1,1,1,1,0,1,1,1,1,0
350277647,13251241,45.2203776,-93.1453969,350277734,85.163,-25.2819,-30.0267,0.000599753,-0.00102212,0.0,3.26547,5.98972,-2.63398,-0.0598797,-0.00528227,0.271893,0.0,0.0,0.0,1.18179,275.921,28.6906,2.63398,0.729877,0.288036,0,1,1,1,1,1,0,1,1,1,1,0
350376966,13251241,45.2203776,-93.1453969,350377065,85.7796,-24.5061,-30.2831,0.000599753,-0.00102212,0.0,2.87189,6.34514,-2.86489,-0.0598797,-0.00528227,0.271893,0.0,0.0,0.0,1.21481,275.921,28.947,2.86489,0.751534,0.287019,0,1,1,1,1,1,0,1,1,1,1,0
350480968,13251241,45.2203776,-93.1453969,350481064,86.3652,-23.6668,-30.5587,0.000599753,-0.00102212,0.0,2.48643,6.68279,-2.93898,-0.0598797,-0.00528227,0.271893,0.0,0.0,0.0,1.24605,275.921,29.2227,2.93898,0.739345,0.290149,0,1,1,1,1,1,0,1,1,1,1,0
350581007,13251241,45.2203776,-93.1453969,350581104,86.9971,-22.7712,-30.8395,0.000599753,-0.00102212,0.0,2.09793,7.00793,-3.03265,-0.0598797,-0.00528227,0.271893,0.0,0.0,0.0,1.27193,275.921,29.5035,3.03265,0.764855,0.290213,0,1,1,1,1,1,0,1,1,1,1,0
350682628,13251241,45.2203776,-93.1453969,350682719,87.5641,-21.8372,-31.1422,0.000599753,-0.00102212,0.0,1.54231,7.27581,-3.42673,-0.0598797,-0.00528227,0.271893,0.0,0.0,0.0,1.29082,275.921,29.8061,3.42673,0.752501,0.290617,0,1,1,1,1,1,0,1,1,1,1,0
350786585,13251241,45.2203776,-93.1453969,350786672,88.1492,-20.8239,-31.4919,0.000599753,-0.00102212,0.0,1.12999,7.52338,-3.59268,-0.0598797,-0.00528227,0.271893,0.0,0.0,0.0,1.31665,275.921,30.1559,3.59268,0.781091,0.291416,0,1,1,1,1,1,0,1,1,1,1,0
