timestamp,altitudeSp,altitude_filtered,flightPathAngleSp,flightPathAngle,flightPathAngleFiltered,airspeedSp,airspeed_filtered,airspeedDerivativeSp,airspeedDerivative,totalEnergyError,energyDistributionError,totalEnergyRateError,energyDistributionRateError,throttle_integ,pitch_integ,mode
630933136,338.5,338.49,0.000498962,0.0,0.0,17.0,15.5295,0.0294107,1.0811,24.0157,-23.8198,-3.26545,16.337,8.74615e-05,-0.0476396,0
630953144,338.519,338.493,0.000228882,-0.0691304,-0.0691304,17.0,15.5488,0.0290233,0.964494,23.8718,-23.3621,-5.38542,15.2257,0.000174434,-0.0943825,0
630973165,338.546,338.498,0.000595093,-0.144011,-0.144011,17.0,15.5671,0.0286584,0.833955,23.8088,-22.8572,-6.53194,13.9542,0.000261233,-0.140145,0
630993204,338.581,338.504,0.00124664,-0.221607,-0.221607,17.0,15.5835,0.0283295,0.677141,23.8313,-22.3225,-6.81062,12.2962,0.000348192,-0.184877,0
631013204,338.622,338.511,0.00230865,-0.304727,-0.304727,17.0,15.5968,0.0280637,0.51247,23.959,-21.7803,-6.35734,10.5662,0.000435447,-0.228437,0
631033219,338.668,338.518,0.00376129,-0.37875,-0.37875,17.0,15.6081,0.0278378,0.3488,24.1707,-21.2161,-5.33756,8.76077,0.000523539,-0.270901,0
631053257,338.721,338.525,0.00578156,-0.441956,-0.441956,17.0,15.6175,0.027649,0.196916,24.468,-20.6243,-3.92059,7.03434,0.000612816,-0.312228,0
631073313,338.778,338.532,0.00800476,-0.494516,-0.494516,17.0,15.6244,0.0275126,0.0467318,24.8538,-20.0251,-2.21092,5.22833,0.000703584,-0.352391,0
631093415,338.839,338.538,0.010611,-0.551071,-0.551071,17.0,15.6294,0.0274128,-0.0986622,25.3174,-19.4058,-0.273,3.53775,0.000796256,-0.3914,0
631113411,338.904,338.543,0.0135361,-0.600586,-0.600586,17.0,15.6323,0.0273547,-0.237217,25.8601,-18.7722,1.81327,1.88663,0.000890415,-0.428937,0
631133826,338.973,338.547,0.0167511,-0.638414,-0.638414,17.0,15.6333,0.0273347,-0.35618,26.4763,-18.1248,3.93472,0.429391,0.000988839,-0.465939,0
631153625,339.045,338.55,0.0203415,-0.669132,-0.669132,17.0,15.6325,0.0273499,-0.455116,27.1646,-17.46,6.00849,-0.78072,0.00108677,-0.500508,0
631173479,339.12,338.552,0.0240616,-0.713875,-0.713875,17.0,15.6297,0.0274059,-0.56812,27.9248,-16.7876,8.11571,-2.0712,0.00118773,-0.533838,0
631193488,339.197,338.552,0.02798,-0.756305,-0.756305,17.0,15.6251,0.0274979,-0.659637,28.7513,-16.1047,10.1781,-3.04535,0.00129248,-0.566062,0
631213661,339.277,338.551,0.0320892,-0.802931,-0.802931,17.0,15.6193,0.0276146,-0.729147,29.6346,-15.4036,12.1443,-3.63131,0.00140134,-0.597135,0
631233540,339.358,338.548,0.0363754,-0.854648,-0.854648,17.0,15.6119,0.0277613,-0.798272,30.5762,-14.6914,14.0422,-4.15801,0.00151202,-0.626341,0
631253518,339.442,338.544,0.0408371,-0.920284,-0.920284,17.0,15.6029,0.0279414,-0.85626,31.5797,-13.969,15.8781,-4.37075,0.0016269,-0.654248,0
631273530,339.527,338.537,0.0454758,-0.987679,-0.987679,17.0,15.5933,0.0281338,-0.891322,32.6277,-13.2209,17.5963,-4.20557,0.0017458,-0.680706,0
631293702,339.613,338.528,0.0502853,-1.07235,-1.07235,17.0,15.5827,0.0283458,-0.913474,33.7297,-12.4495,19.2141,-3.66684,0.0018697,-0.705819,0
631313598,339.701,338.517,0.0551941,-1.16238,-1.16238,17.0,15.5716,0.0285689,-0.926536,34.8715,-11.6553,20.7338,-2.9321,0.00199603,-0.729008,0
631353580,339.881,338.489,0.0656326,-1.3124,-1.3124,17.0,15.5497,0.0290057,-0.906104,37.2467,-9.95972,23.3053,-1.02683,0.0022628,-0.77057,0
631373634,339.972,338.473,0.0710175,-1.35799,-1.35799,17.0,15.5396,0.0292073,-0.862041,38.4545,-9.06519,24.2169,0.164088,0.00240323,-0.78875,0
631393827,340.064,338.456,0.0764572,-1.4017,-1.4017,17.0,15.531,0.0293795,-0.801397,39.6588,-8.12842,24.8533,1.593,0.00254905,-0.805163,0
631414284,340.157,338.438,0.0819962,-1.44784,-1.44784,17.0,15.5234,0.029532,-0.753742,40.8726,-7.15137,25.315,2.8435,0.0027013,-0.819793,0
631433700,340.251,338.418,0.0879318,-1.49058,-1.49058,17.0,15.5175,0.0296494,-0.704502,42.0728,-6.1333,25.6264,4.08771,0.00285005,-0.831701,0
631453698,340.345,338.398,0.0935883,-1.52194,-1.52194,17.0,15.5135,0.0297295,-0.633452,43.2605,-5.07007,25.7274,5.55467,0.00300758,-0.84184,0
631473704,340.44,338.376,0.0994354,-1.54648,-1.54648,17.0,15.5118,0.0297644,-0.570641,44.4267,-3.95801,25.6727,6.82757,0.00316943,-0.849759,0
631493774,340.535,338.354,0.10531,-1.5624,-1.5624,17.0,15.5126,0.0297477,-0.495286,45.5637,-2.79517,25.438,8.20997,0.00333595,-0.855369,0
631513743,340.631,338.332,0.111266,-1.58699,-1.58699,17.0,15.5156,0.0296875,-0.416152,46.6771,-1.58838,25.0648,9.73668,0.00350567,-0.858541,0
631533764,340.727,338.307,0.117665,-1.60793,-1.60793,17.0,15.5209,0.0295816,-0.347982,47.7803,-0.320801,24.6083,11.0622,0.00367986,-0.859183,0
631553769,340.824,338.282,0.123711,-1.63164,-1.63164,17.0,15.5283,0.0294335,-0.262009,48.8587,0.987549,24.0346,12.6885,0.00385784,-0.857207,0
631573796,340.921,338.257,0.129897,-1.64896,-1.64896,17.0,15.5382,0.0292365,-0.189549,49.909,2.34399,23.3965,14.0451,0.00403985,-0.852513,0
631593805,341.018,338.23,0.136176,-1.66613,-1.66613,17.0,15.5501,0.0289976,-0.101451,50.9375,3.74365,22.6578,15.6461,0.00422544,-0.845022,0
631615310,341.116,338.201,0.142577,-1.68031,-1.68031,17.0,15.5656,0.0286878,-0.0291273,51.9485,5.23657,21.8815,16.9765,0.00442886,-0.833761,0
631634096,341.214,338.173,0.14933,-1.70423,-1.70423,17.0,15.5817,0.028365,0.0538189,52.9261,6.71704,21.0613,18.5738,0.00460991,-0.821142,0
631653864,341.312,338.143,0.155736,-1.72222,-1.72222,17.0,15.6011,0.0279784,0.121814,53.8773,8.271,20.2396,19.8804,0.00480385,-0.804792,0
631673908,341.41,338.111,0.162598,-1.73239,-1.73239,17.0,15.6226,0.027548,0.216143,54.818,9.88354,19.3191,21.5299,0.00500393,-0.784982,0
631713952,341.607,338.049,0.175781,-1.64048,-1.64048,17.0,15.6734,0.0265328,0.412883,56.5645,13.2188,16.9332,23.8669,0.00541326,-0.735414,0
631733959,341.706,338.02,0.182344,-1.56045,-1.56045,17.0,15.7026,0.0259476,0.515681,57.3623,14.9346,15.4267,24.7811,0.00562224,-0.705535,0
631754112,341.805,337.993,0.188469,-1.47568,-1.47568,17.0,15.7338,0.025323,0.612004,58.1058,16.6599,13.7592,25.5505,0.00583547,-0.67196,0
631774815,341.904,337.964,0.195483,-1.40178,-1.40178,17.0,15.7692,0.0246157,0.709201,58.8043,18.4724,11.981,26.4592,0.00605715,-0.633717,0
631794597,342.003,337.938,0.201947,-1.31731,-1.31731,17.0,15.8059,0.0238815,0.793223,59.4541,20.2812,10.1325,27.059,0.00627132,-0.593596,0
631814195,342.103,337.914,0.208232,-1.23744,-1.23744,17.0,15.844,0.02312,0.888881,60.0615,22.0938,8.19806,27.8943,0.00648565,-0.550297,0
631836837,342.203,337.886,0.214977,-1.1385,-1.1385,17.0,15.8916,0.0221689,0.967016,60.5659,24.1074,6.21005,28.2882,0.00673536,-0.495713,0
631856809,342.304,337.864,0.221208,-1.03202,-1.03202,17.0,15.9366,0.0212677,1.05486,61.0483,26.0239,4.13164,28.7619,0.00695738,-0.443738,0
631874598,342.403,337.846,0.227689,-0.919457,-0.919457,17.0,15.9781,0.0204372,1.14659,61.5446,27.8455,1.95649,29.2434,0.00715674,-0.394204,0
631894711,342.503,337.826,0.233739,-0.798497,-0.798497,17.0,16.0289,0.0194225,1.23073,61.8977,29.8225,-0.293441,29.5387,0.00738343,-0.334222,0
631914757,342.602,337.81,0.239682,-0.672004,-0.672004,17.0,16.0827,0.0183463,1.32134,62.1732,31.8259,-2.63777,29.8963,0.00761038,-0.270423,0
631934764,342.702,337.795,0.245532,-0.553398,-0.553398,17.0,16.137,0.0172606,1.38977,62.4168,33.8186,-4.97286,29.9829,0.00783777,-0.202762,0
631954972,342.802,337.783,0.251309,-0.447594,-0.447594,17.0,16.1941,0.0161174,1.46369,62.5948,35.8447,-7.29594,30.296,0.0080681,-0.130327,0
631974970,342.901,337.772,0.257028,-0.343012,-0.343012,17.0,16.2506,0.0149879,1.51093,62.7628,37.845,-9.52187,30.1944,0.00829665,-0.0546451,0
631994994,343.001,337.762,0.262698,-0.275419,-0.275419,17.0,16.3088,0.0138241,1.54776,62.892,39.8689,-11.5654,30.2938,0.00852597,0.0251884,0
632014654,343.101,337.751,0.268613,-0.241772,-0.241772,17.0,16.3651,0.0126982,1.55993,63.0544,41.8704,-13.3154,30.3257,0.0087517,0.107506,0
632034666,343.201,337.741,0.274242,-0.205175,-0.205175,17.0,16.4236,0.0115276,1.57623,63.1753,43.9106,-14.8516,30.3995,0.00898191,0.19538,0
632074710,343.4,337.72,0.285544,-0.140972,-0.140972,17.0,16.5422,0.00915524,1.60962,63.3781,48.0237,-17.4365,30.6579,0.00944364,0.383573,0
632094703,343.5,337.71,0.291229,-0.122393,-0.122393,17.0,16.6018,0.0079636,1.62743,63.4723,50.0928,-18.5152,30.9424,0.00967471,0.483723,0
632116861,343.601,337.698,0.29698,-0.099114,-0.099114,17.0,16.6662,0.00667557,1.62755,63.5067,52.2698,-19.438,30.8982,0.00993095,0.599542,0
632137254,343.702,337.687,0.302763,-0.0688402,-0.0688402,17.0,16.7255,0.00548973,1.65533,63.6135,54.3562,-20.3405,31.2386,0.0101672,0.710391,0
632157136,343.803,337.676,0.308557,-0.0320637,-0.0320637,17.0,16.7815,0.00436913,1.65909,63.767,56.3872,-21.1581,31.1091,0.010398,0.8225,0
632175033,343.902,337.666,0.314372,-0.00890067,-0.00890067,17.0,16.8315,0.0033699,1.66998,64.0035,58.3032,-21.9027,31.2218,0.0106066,0.926845,0
632194978,344.002,337.655,0.320143,0.0200252,0.0200252,17.0,16.8856,0.00228718,1.67919,64.1834,60.3083,-22.5967,31.2588,0.0108397,1.04713,0
632214681,344.102,337.644,0.325784,0.0606286,0.0606286,17.0,16.9382,0.00123688,1.69407,64.38,62.281,-23.292,31.2738,0.0110707,1.16984,0
632234748,344.201,337.633,0.331404,0.117498,0.117498,17.0,16.9905,0.000190125,1.71303,64.5712,64.248,-24.0344,31.1997,0.0113066,1.29877,0
632254703,344.301,337.624,0.337007,0.180475,0.180475,17.0,17.0406,-0.000811005,1.73084,64.7896,66.1699,-24.8222,31.0434,0.0115421,1.43081,0
632275156,344.401,337.616,0.342552,0.264576,0.264576,17.0,17.0905,-0.00181084,1.75647,64.997,68.0835,-25.7148,30.8146,0.0117841,1.57006,0
632294708,344.5,337.609,0.348048,0.355119,0.355119,17.0,17.1368,-0.00273659,1.7894,65.2458,69.9167,-26.728,30.6422,0.0120164,1.70676,0
632314709,344.6,337.604,0.353426,0.448021,0.448021,17.0,17.1823,-0.00364506,1.82776,65.4935,71.7234,-27.8615,30.5401,0.012255,1.85022,0
632335091,344.7,337.6,0.358754,0.506864,0.506864,17.0,17.2255,-0.00451084,1.83123,65.77,73.4893,-28.904,30.1692,0.0124991,2.0,0
632354689,344.8,337.597,0.364009,0.557526,0.557526,17.0,17.2647,-0.0052932,1.8538,66.1054,75.1738,-29.9221,30.1989,0.012735,2.14733,0
632374741,344.9,337.594,0.369191,0.609077,0.609077,17.0,17.3012,-0.00602425,1.85652,66.4754,76.8074,-30.8531,29.8719,0.0129777,2.30134,0
632394708,345.0,337.592,0.37424,0.621747,0.621747,17.0,17.3343,-0.00668514,1.84565,66.9002,78.3767,-31.5897,29.6817,0.0132209,2.45784,0
632434736,345.199,337.59,0.384236,0.625859,0.625859,17.0,17.3881,-0.00776295,1.8021,67.9504,81.2981,-32.4841,29.1007,0.0137142,2.78042,0
632454711,345.299,337.589,0.3892,0.621816,0.621816,17.0,17.4096,-0.0081929,1.78358,68.5652,82.6609,-32.6823,28.9129,0.0139636,2.94553,0
632475325,345.399,337.588,0.394154,0.617881,0.617881,17.0,17.4273,-0.00854668,1.7536,69.2466,83.9585,-32.7266,28.5155,0.0142235,3.1186,0
632495341,345.499,337.587,0.399217,0.602903,0.602903,17.0,17.4399,-0.00879898,1.73588,70.0191,85.1709,-32.6662,28.4296,0.0144787,3.28908,0
632515367,345.6,337.586,0.404234,0.612929,0.612929,17.0,17.4478,-0.00895672,1.71348,70.871,86.2979,-32.5528,28.0062,0.0147371,3.4619,0
632535320,345.7,337.586,0.409225,0.630778,0.630778,17.0,17.4529,-0.0090583,1.71896,71.7657,87.3699,-32.5086,27.9863,0.0149979,3.63623,0
632555388,345.8,337.587,0.414232,0.669786,0.669786,17.0,17.4534,-0.0090675,1.72425,72.7336,88.3538,-32.5585,27.7461,0.0152637,3.81354,0
632575381,345.9,337.588,0.419194,0.707202,0.707202,17.0,17.4488,-0.00897541,1.73052,73.7817,89.2412,-32.6821,27.5277,0.0155323,3.99196,0
632595357,346.0,337.591,0.424065,0.753194,0.753194,17.0,17.4392,-0.00878407,1.74001,74.9051,90.031,-32.8907,27.2698,0.0158047,4.1718,0
632615816,346.1,337.595,0.428838,0.805846,0.805846,17.0,17.4265,-0.00853001,1.7427,76.0699,90.7529,-33.1556,26.8206,0.0160881,4.35748,0
632636054,346.201,337.601,0.433493,0.897177,0.897177,17.0,17.41,-0.00819992,1.77781,77.278,91.386,-33.6528,26.5472,0.0163729,4.54242,0
632655474,346.301,337.611,0.437859,1.0266,1.0266,17.0,17.3926,-0.0078513,1.81536,78.4659,91.9673,-34.419,25.9368,0.0166504,4.72102,0
632695361,346.501,337.641,0.446423,1.29995,1.29995,17.0,17.3474,-0.00694725,1.90146,80.9234,92.8545,-36.6419,24.7355,0.0172337,5.09062,0
632715807,346.601,337.66,0.450453,1.40515,1.40515,17.0,17.3213,-0.00642693,1.913,82.1637,93.1926,-37.8354,23.8847,0.0175396,5.28116,0
632737644,346.702,337.684,0.454395,1.47504,1.47504,17.0,17.2903,-0.00580585,1.91053,83.467,93.4211,-38.897,23.1249,0.0178715,5.48516,0
632755534,346.802,337.703,0.458054,1.44507,1.44507,17.0,17.2626,-0.00525166,1.87715,84.7384,93.7351,-39.5525,22.8158,0.0181475,5.65286,0
632776056,346.902,337.725,0.461829,1.40926,1.40926,17.0,17.2286,-0.00457298,1.83091,86.0888,93.915,-39.8248,22.3318,0.0184692,5.84559,0
632795796,347.003,337.745,0.465631,1.33999,1.33999,17.0,17.1935,-0.00386997,1.78735,87.4772,94.0935,-39.7342,22.2227,0.0187837,6.03133,0
632815829,347.103,337.764,0.469469,1.24022,1.24022,17.0,17.1557,-0.00311398,1.74776,88.9203,94.2383,-39.3065,22.4789,0.0191081,6.22012,0
632837629,347.204,337.785,0.473398,1.20889,1.20889,17.0,17.1133,-0.00226585,1.71092,90.4346,94.2993,-38.7514,22.1056,0.019467,6.42569,0
632855589,347.304,337.802,0.47719,1.1606,1.1606,17.0,17.0775,-0.00154911,1.68746,91.8612,94.5007,-38.1103,22.1419,0.0197675,6.59541,0
632875483,347.403,337.819,0.481128,1.07949,1.07949,17.0,17.0374,-0.0007481,1.67779,93.3493,94.6223,-37.3814,22.73,0.0201056,6.78365,0
632895514,347.503,337.837,0.485202,1.06947,1.06947,17.0,16.9963,7.47299e-05,1.66053,94.8543,94.7273,-36.6954,22.4919,0.0204516,6.9734,0
632915823,347.603,337.855,0.489302,1.06824,1.06824,17.0,16.9543,0.000914116,1.64515,96.3707,94.8188,-36.0672,22.1994,0.020808,7.16597,0
632936167,347.703,337.872,0.493428,1.01252,1.01252,17.0,16.9131,0.00173805,1.6474,97.8857,94.9385,-35.4385,22.7426,0.0211706,7.35911,0
632955559,347.803,337.888,0.497385,0.946763,0.946763,17.0,16.8751,0.00249786,1.6513,99.3551,95.1243,-34.7969,23.4169,0.0215214,7.54358,0
632975460,347.903,337.903,0.501537,0.924479,0.924479,17.0,16.8382,0.00323627,1.65846,100.802,95.3269,-34.2412,23.7232,0.0218867,7.73329,0
632995418,348.003,337.92,0.505687,0.945863,0.945863,17.0,16.803,0.00393902,1.66872,102.212,95.5547,-33.851,23.6568,0.0222582,7.924,0
633015474,348.103,337.937,0.509802,0.965856,0.965856,17.0,16.7712,0.0045763,1.68986,103.559,95.8318,-33.6281,23.7919,0.0226364,8.1162,0
633035561,348.203,337.954,0.513896,0.954174,0.954174,17.0,16.7433,0.00513481,1.71584,104.84,96.177,-33.4946,24.3251,0.0230199,8.30939,0
633076067,348.403,337.988,0.521947,0.915607,0.915607,17.0,16.6967,0.00606602,1.76996,107.248,97.0276,-33.398,25.5908,0.0238065,8.70142,0
633095499,348.503,338.006,0.525809,0.928226,0.928226,17.0,16.6801,0.00639721,1.7872,108.328,97.5552,-33.4485,25.7576,0.0241898,8.89099,0
633115468,348.603,338.026,0.529652,0.959257,0.959257,17.0,16.665,0.00669964,1.79564,109.365,98.0874,-33.5639,25.5997,0.0245875,9.08686,0
633135659,348.703,338.048,0.533473,1.0134,1.0134,17.0,16.6528,0.00694336,1.80927,110.335,98.6514,-33.7952,25.3074,0.0249932,9.28604,0
633155508,348.803,338.07,0.537273,1.05918,1.05918,17.0,16.6433,0.0071344,1.8327,111.25,99.2485,-34.1365,25.2653,0.0253952,9.48304,0
633176140,348.903,338.095,0.54106,1.09654,1.09654,17.0,16.6349,0.00730202,1.86545,112.129,99.8489,-34.5807,25.4627,0.0258165,9.68905,0
633195503,349.003,338.119,0.544937,1.1449,1.1449,17.0,16.6292,0.00741604,1.9179,112.97,100.501,-35.1952,25.8861,0.0262148,9.88365,0
633215474,349.103,338.146,0.548476,1.24066,1.24066,17.0,16.6244,0.0075111,1.95788,113.761,101.133,-35.9985,25.6358,0.0266285,10.0856,0
633235506,349.203,338.176,0.552043,1.35067,1.35067,17.0,16.6209,0.00758232,1.9921,114.506,101.76,-36.9621,25.1526,0.0270462,10.2895,0
633255525,349.303,338.208,0.55553,1.43695,1.43695,17.0,16.6182,0.00763542,2.02691,115.22,102.385,-38.0098,24.9131,0.0274662,10.4944,0
633275631,349.403,338.24,0.558966,1.48398,1.48398,17.0,16.6159,0.0076828,2.04457,115.92,103.007,-38.991,24.7733,0.0278906,10.7015,0
633295522,349.502,338.273,0.562457,1.52134,1.52134,17.0,16.6142,0.00771622,2.07488,116.608,103.639,-39.9424,24.9409,0.028313,10.9077,0
633315545,349.602,338.307,0.56591,1.58481,1.58481,17.0,16.613,0.00773903,2.0941,117.276,104.27,-40.8845,24.6689,0.0287406,11.1165,0
633335573,349.702,338.342,0.56917,1.66644,1.66644,17.0,16.6121,0.00775814,2.10888,117.923,104.885,-41.8405,24.1435,0.0291706,11.3265,0
633355575,349.802,338.38,0.572353,1.75073,1.75073,17.0,16.6107,0.00778542,2.09414,118.56,105.476,-42.7148,23.1,0.0296024,11.5375,0
633375574,349.902,338.418,0.575636,1.83329,1.83329,17.0,16.6092,0.00781528,2.08424,119.188,106.055,-43.536,22.1544,0.0300365,11.7496,0
633395579,350.002,338.458,0.578885,1.95082,1.95082,17.0,16.6085,0.00782944,2.12576,119.786,106.629,-44.5548,21.7216,0.0304728,11.9629,0
633415646,350.102,338.501,0.58204,2.10386,2.10386,17.0,16.6092,0.0078157,2.20531,120.336,107.202,-45.9284,21.5747,0.0309126,12.178,0
633435605,350.202,338.546,0.585101,2.24341,2.24341,17.0,16.6108,0.00778316,2.28378,120.852,107.772,-47.5564,21.5438,0.0313518,12.3931,0
633455645,350.302,338.594,0.587784,2.38494,2.38494,17.0,16.613,0.00774086,2.33946,121.327,108.318,-49.3173,21.1127,0.0317945,12.6102,0
633495806,350.502,338.697,0.593291,2.7035,2.7035,17.0,16.617,0.00765938,2.44541,122.212,109.337,-53.1618,19.8141,0.0326867,13.0483,0
633515805,350.603,338.753,0.595642,2.89703,2.89703,17.0,16.6201,0.00759716,2.5405,122.585,109.814,-55.4627,19.5283,0.0331331,13.2679,0
633535825,350.703,338.811,0.598138,3.01851,3.01851,17.0,16.6226,0.00754848,2.59274,122.958,110.268,-57.7118,19.2367,0.0335813,13.4887,0
633555862,350.803,338.869,0.600508,3.04257,3.04257,17.0,16.6229,0.00754211,2.60649,123.368,110.689,-59.5995,19.2536,0.0340315,13.7105,0
633575821,350.903,338.927,0.60249,3.02418,3.02418,17.0,16.6213,0.00757317,2.59422,123.812,111.081,-61.028,19.2449,0.0344814,13.9322,0
633595879,351.003,338.984,0.604753,3.01986,3.01986,17.0,16.6162,0.00767677,2.57761,124.319,111.416,-62.0997,19.0183,0.0349355,14.1557,0
633615869,351.103,339.04,0.606993,3.01009,3.01009,17.0,16.6066,0.00786827,2.53599,124.906,111.685,-62.7897,18.4172,0.0353902,14.3789,0
633636014,351.203,339.096,0.609245,2.97815,2.97815,17.0,16.5943,0.00811363,2.49582,125.54,111.912,-63.1344,18.0509,0.0358507,14.6044,0
633655919,351.303,339.151,0.611249,2.91918,2.91918,17.0,16.5786,0.00842804,2.47164,126.247,112.097,-63.2014,18.2036,0.0363083,14.8275,0
633675928,351.403,339.205,0.613559,2.84289,2.84289,17.0,16.5598,0.00880398,2.45159,127.015,112.242,-63.024,18.5898,0.036771,15.0521,0
633695950,351.499,339.256,0.615843,2.77254,2.77254,17.0,16.5398,0.00920349,2.44237,127.783,112.349,-62.698,19.0941,0.0372369,15.277,0
633716007,351.586,339.306,0.617664,2.7175,2.7175,17.0,16.5174,0.00965271,2.42243,128.51,112.334,-62.2474,19.2602,0.0377063,15.5023,0
633735996,351.664,339.356,0.61908,2.69733,2.69733,17.0,16.4931,0.010138,2.40837,129.188,112.21,-61.785,19.1736,0.0381765,15.7266,0
633756004,351.734,339.408,0.619777,2.7308,2.7308,17.0,16.469,0.010621,2.4412,129.767,111.993,-61.5742,19.327,0.0386493,15.9507,0
633776138,351.797,339.46,0.620386,2.76063,2.76063,17.0,16.4433,0.0111344,2.46258,130.297,111.678,-61.519,19.3211,0.039127,16.1756,0
633796126,351.854,339.512,0.620392,2.76375,2.76375,17.0,16.4166,0.0116677,2.48877,130.774,111.28,-61.5522,19.6465,0.0396029,16.398,0
633816088,351.905,339.565,0.620432,2.76114,2.76114,17.0,16.3903,0.0121947,2.52064,131.196,110.836,-61.6632,20.1209,0.0400798,16.6192,0
633836108,351.951,339.616,0.620094,2.71897,2.71897,17.0,16.363,0.0127393,2.52874,131.585,110.334,-61.681,20.5865,0.0405595,16.8401,0
633856138,351.992,339.668,0.619514,2.68901,2.68901,17.0,16.3354,0.0132925,2.5259,131.941,109.785,-61.6127,20.7496,0.0410408,17.06,0
633876130,352.029,339.718,0.618956,2.65169,2.65169,17.0,16.3079,0.0138412,2.51428,132.264,109.213,-61.4324,20.8428,0.0415222,17.2784,0
633896160,352.063,339.767,0.618323,2.64138,2.64138,17.0,16.2808,0.0143843,2.49377,132.554,108.618,-61.1871,20.527,0.0420057,17.4959,0
633936166,352.12,339.863,0.616628,2.648,2.648,17.0,16.2288,0.0154246,2.43539,133.015,107.388,-60.5528,19.3521,0.0429739,17.9268,0
633956192,352.145,339.911,0.615578,2.64327,2.64327,17.0,16.2045,0.0159105,2.41791,133.182,106.767,-60.2038,19.0382,0.0434596,18.1406,0
633976201,352.167,339.959,0.613913,2.61796,2.61796,17.0,16.1822,0.0163564,2.40251,133.285,106.148,-59.8163,18.9601,0.0439452,18.353,0
633996231,352.187,340.007,0.612566,2.61415,2.61415,17.0,16.1615,0.0167707,2.39817,133.343,105.536,-59.4762,18.858,0.0444315,18.5644,0
634016229,352.204,340.057,0.610658,2.64755,2.64755,17.0,16.1433,0.0171331,2.38688,133.319,104.927,-59.2271,18.2805,0.044917,18.7742,0
634036243,352.22,340.108,0.609142,2.70811,2.70811,17.0,16.1275,0.0174493,2.36631,133.234,104.332,-59.0747,17.2975,0.0454026,18.983,0
634056260,352.235,340.159,0.607463,2.76534,2.76534,17.0,16.1127,0.0177464,2.33354,133.112,103.73,-58.9548,16.1521,0.0458878,19.1907,0
634076313,352.248,340.211,0.605739,2.80961,2.80961,17.0,16.0996,0.0180079,2.30482,132.944,103.141,-58.8497,15.2041,0.0463732,19.3975,0
634096332,352.26,340.262,0.604019,2.82882,2.82882,17.0,16.0886,0.0182277,2.27657,132.736,102.58,-58.7101,14.5159,0.0468571,19.6028,0
634116333,352.27,340.312,0.602237,2.81614,2.81614,17.0,16.0786,0.0184289,2.23943,132.513,102.033,-58.4523,13.9996,0.0473397,19.8069,0
634136461,352.28,340.361,0.600343,2.79388,2.79388,17.0,16.0701,0.0185987,2.18085,132.259,101.506,-58.0136,13.2363,0.0478244,20.0112,0
634156365,352.288,340.412,0.597804,2.81237,2.81237,17.0,16.0636,0.0187273,2.12397,131.947,100.988,-57.518,12.1004,0.0483027,20.2122,0
634176346,352.296,340.464,0.595712,2.86815,2.86815,17.0,16.0581,0.0188371,2.07821,131.602,100.466,-57.0853,10.7847,0.0487815,20.413,0
634196368,352.303,340.516,0.593518,2.91824,2.91824,17.0,16.0552,0.0188965,2.03172,131.2,99.9683,-56.691,9.51852,0.0492598,20.6131,0
634216357,352.309,340.57,0.59124,2.9695,2.9695,17.0,16.0554,0.0188927,2.00353,130.732,99.5073,-56.3902,8.5413,0.0497357,20.812,0
634236404,352.314,340.624,0.588811,3.00211,3.00211,17.0,16.0572,0.0188559,1.9805,130.224,99.0576,-56.1451,7.83214,0.050211,21.0106,0
634256426,352.319,340.679,0.586217,3.00774,3.00774,17.0,16.0622,0.0187566,1.94613,129.654,98.6475,-55.8571,7.21072,0.0506837,21.2081,0
634276457,352.324,340.736,0.583136,3.00698,3.00698,17.0,16.0696,0.0186073,1.89772,129.02,98.2529,-55.4789,6.42688,0.0511543,21.4049,0
634296476,352.328,340.793,0.580533,3.00195,3.00195,17.0,16.0774,0.0184519,1.8342,128.379,97.8616,-54.9709,5.44659,0.0516223,21.6009,0
634316501,352.332,340.85,0.57787,3.01883,3.01883,17.0,16.0869,0.0182618,1.77318,127.702,97.491,-54.4105,4.29358,0.052088,21.7961,0
634356609,352.338,340.967,0.571887,2.99198,2.99198,17.0,16.1097,0.0178054,1.65587,126.245,96.7688,-53.0642,2.65585,0.0530126,22.1849,0
634376673,352.341,341.025,0.569051,2.94688,2.94688,17.0,16.1228,0.017545,1.60366,125.496,96.4397,-52.2296,2.25403,0.0534711,22.3784,0
634396676,352.343,341.082,0.566154,2.88721,2.88721,17.0,16.1371,0.017258,1.55706,124.731,96.137,-51.3056,2.08618,0.0539255,22.5707,0
634416722,352.345,341.139,0.563264,2.85013,2.85013,17.0,16.1516,0.0169684,1.50762,123.963,95.8362,-50.3451,1.64985,0.0543779,22.7628,0
634436719,352.347,341.196,0.560367,2.8467,2.8467,17.0,16.1671,0.0166586,1.45911,123.169,95.543,-49.4243,0.898886,0.0548264,22.9539,0
634456968,352.349,341.255,0.557155,2.83044,2.83044,17.0,16.1837,0.0163268,1.41335,122.337,95.2476,-48.5199,0.315598,0.0552775,23.1468,0
634477965,352.351,341.316,0.554308,2.84017,2.84017,17.0,16.2008,0.0159841,1.37039,121.474,94.9399,-47.6878,-0.47415,0.055742,23.3461,0
634496798,352.352,341.371,0.551558,2.86411,2.86411,17.0,16.2166,0.0156683,1.33364,120.695,94.6724,-46.9605,-1.30534,0.0561559,23.5244,0
634516766,352.353,341.432,0.548297,2.8839,2.8839,17.0,16.2333,0.0153332,1.30498,119.845,94.366,-46.3364,-1.96918,0.0565916,23.7128,0
634536793,352.354,341.491,0.545474,2.87324,2.87324,17.0,16.2507,0.0149855,1.28771,118.986,94.0718,-45.7711,-2.14483,0.0570255,23.9012,0
634556802,352.355,341.55,0.542647,2.84806,2.84806,17.0,16.2687,0.014627,1.27598,118.126,93.7952,-45.2427,-2.08791,0.0574559,24.0889,0
634576822,352.356,341.609,0.539743,2.82529,2.82529,17.0,16.2866,0.0142675,1.26427,117.267,93.521,-44.7485,-2.05521,0.0578834,24.2761,0
634596832,352.357,341.668,0.536758,2.83075,2.83075,17.0,16.3047,0.0139065,1.24388,116.402,93.2446,-44.309,-2.44205,0.0583076,24.4627,0
634617108,352.358,341.729,0.53369,2.85993,2.85993,17.0,16.3227,0.0135453,1.21698,115.519,92.9512,-43.9384,-3.16934,0.0587341,24.6512,0
634637078,352.359,341.79,0.530563,2.89036,2.89036,17.0,16.34,0.0132,1.19254,114.645,92.6409,-43.6331,-3.87128,0.059151,24.8362,0
634656887,352.359,341.852,0.52708,2.89286,2.89286,17.0,16.3566,0.0128674,1.17475,113.768,92.3071,-43.3475,-4.19588,0.0595613,25.019,0
634677612,352.36,341.917,0.524016,2.85829,2.85829,17.0,16.3735,0.0125295,1.16167,112.866,91.9585,-43.0194,-4.07585,0.0599873,25.2096,0
634696947,352.36,341.976,0.520667,2.8233,2.8233,17.0,16.3887,0.0122258,1.15081,112.036,91.6255,-42.6637,-3.92123,0.0603817,25.3868,0
634716970,352.361,342.038,0.517718,2.80339,2.80339,17.0,16.4035,0.0119307,1.14089,111.195,91.2688,-42.3177,-3.89597,0.0607871,25.5695,0
634736964,352.361,342.099,0.514745,2.80953,2.80953,17.0,16.4169,0.0116626,1.11506,110.377,90.8909,-41.9778,-4.38979,0.061189,25.7513,0
634756963,352.361,342.161,0.511754,2.83091,2.83091,17.0,16.4292,0.0114169,1.08434,109.576,90.4932,-41.6563,-5.11589,0.061588,25.9322,0
634796995,352.362,342.284,0.505748,2.83302,2.83302,17.0,16.4524,0.0109524,1.03448,107.996,89.6768,-41.0221,-5.98318,0.0623781,26.292,0
634817065,352.362,342.344,0.50276,2.78049,2.78049,17.0,16.4645,0.0107103,1.01131,107.211,89.29,-40.5799,-5.86249,0.0627699,26.4712,0
634837169,352.363,342.404,0.499458,2.72497,2.72497,17.0,16.4769,0.0104625,0.995068,106.419,88.906,-40.0735,-5.60156,0.0631595,26.65,0
634857059,352.363,342.464,0.496196,2.69357,2.69357,17.0,16.4902,0.0101968,0.975871,105.615,88.5403,-39.5534,-5.62473,0.063542,26.8261,0
634877074,352.363,342.524,0.493262,2.69557,2.69557,17.0,16.5047,0.00990639,0.951353,104.788,88.1919,-39.0698,-6.05901,0.0639239,27.0026,0
634897088,352.363,342.583,0.490633,2.73437,2.73437,17.0,16.5204,0.00959122,0.934686,103.946,87.8704,-38.7132,-6.72056,0.0643028,27.1785,0
634917099,352.363,342.643,0.487949,2.77028,2.77028,17.0,16.5372,0.00925507,0.926997,103.088,87.5688,-38.4823,-7.20514,0.0646784,27.3537,0
634937173,352.363,342.701,0.485199,2.78136,2.78136,17.0,16.5545,0.00890972,0.930185,102.226,87.2781,-38.3397,-7.26639,0.0650521,27.5289,0
634957143,352.364,342.759,0.482407,2.78017,2.78017,17.0,16.5725,0.00855095,0.9329,101.361,87.0073,-38.2421,-7.2146,0.0654207,27.7027,0
634977210,352.364,342.819,0.47921,2.77329,2.77329,17.0,16.5913,0.00817463,0.939842,100.47,86.74,-38.1847,-7.03973,0.0657878,27.8767,0
634997230,352.364,342.878,0.476328,2.77843,2.77843,17.0,16.61,0.00779903,0.936743,99.5807,86.4744,-38.1489,-7.14613,0.0661508,28.0498,0
635017240,352.364,342.938,0.473067,2.8036,2.8036,17.0,16.629,0.00742065,0.919114,98.6733,86.1958,-38.1222,-7.69422,0.0665103,28.2223,0
635037255,352.364,342.999,0.470145,2.84398,2.84398,17.0,16.648,0.00703976,0.905208,97.7585,85.9148,-38.1442,-8.32666,0.0668666,28.3943,0
635057511,352.364,343.061,0.467218,2.87765,2.87765,17.0,16.667,0.00666046,0.893147,96.8354,85.6235,-38.198,-8.86321,0.0672238,28.5677,0
635077756,352.364,343.125,0.463963,2.92021,2.92021,17.0,16.6858,0.00628407,0.879486,95.8998,85.3157,-38.2899,-9.51751,0.0675773,28.7404,0
635097818,352.364,343.187,0.461157,2.94695,2.94695,17.0,16.7042,0.00591625,0.874475,94.9846,85.0144,-38.4091,-9.86877,0.0679243,28.911,0
635117897,352.364,343.248,0.458298,2.93687,2.93687,17.0,16.7222,0.00555553,0.870916,94.086,84.7188,-38.4827,-9.83574,0.0682683,29.0811,0
635138380,352.364,343.309,0.455438,2.90089,2.90089,17.0,16.7404,0.0051926,0.878024,93.1859,84.426,-38.5048,-9.37022,0.0686159,29.254,0
635158195,352.364,343.366,0.452539,2.8653,2.8653,17.0,16.7573,0.00485405,0.872955,92.3377,84.1448,-38.4455,-9.11405,0.068949,29.4208,0
635178310,352.364,343.425,0.449573,2.84852,2.84852,17.0,16.7736,0.00452801,0.86227,91.4909,83.8445,-38.339,-9.13825,0.0692842,29.5894,0
635217895,352.364,343.545,0.443297,2.91863,2.91863,17.0,16.8026,0.00394726,0.842104,89.8291,83.1577,-38.2901,-10.1915,0.0699346,29.9193,0
635237894,352.364,343.606,0.440269,2.95039,2.95039,17.0,16.8152,0.00369507,0.835315,89.0132,82.7656,-38.3521,-10.632,0.0702588,30.0848,0
635257854,352.365,343.667,0.43719,2.93939,2.93939,17.0,16.827,0.00345947,0.834641,88.2142,82.363,-38.3866,-10.5519,0.0705794,30.2492,0
635278167,352.365,343.729,0.434102,2.89624,2.89624,17.0,16.8375,0.00324905,0.833821,87.4341,81.937,-38.3353,-10.1605,0.0709028,30.4157,0
635298226,352.365,343.788,0.431195,2.85909,2.85909,17.0,16.8464,0.0030727,0.830556,86.7035,81.5034,-38.2181,-9.8694,0.0712195,30.5791,0
635318248,352.365,343.848,0.428247,2.85068,2.85068,17.0,16.854,0.00292004,0.815638,85.9953,81.0525,-38.0652,-10.0584,0.071533,30.7414,0
635338208,352.365,343.907,0.425279,2.87406,2.87406,17.0,16.8599,0.00280258,0.798543,85.3138,80.5691,-37.9382,-10.5983,0.0718431,30.9022,0
635358551,352.365,343.969,0.422023,2.90618,2.90618,17.0,16.8645,0.00271095,0.792963,84.6252,80.0349,-37.8883,-11.0341,0.0721566,31.0651,0
635378340,352.365,344.03,0.419009,2.92001,2.92001,17.0,16.8683,0.00263348,0.796732,83.9683,79.5088,-37.8949,-11.1313,0.0724592,31.2224,0
635397806,352.365,344.09,0.415768,2.90153,2.90153,17.0,16.8713,0.00257446,0.809802,83.3284,78.9685,-37.9151,-10.758,0.0727545,31.3761,0
635418191,352.365,344.152,0.41274,2.86367,2.86367,17.0,16.8736,0.00252861,0.818321,82.6838,78.4011,-37.8923,-10.2701,0.0730614,31.5359,0
635437830,352.365,344.211,0.409724,2.83168,2.83168,17.0,16.8753,0.00249489,0.816353,82.0753,77.8496,-37.8109,-10.0172,0.073355,31.6888,0
635457809,352.365,344.271,0.406711,2.84402,2.84402,17.0,16.876,0.0024802,0.818082,81.4711,77.27,-37.7819,-10.1377,0.0736513,31.8432,0
635478343,352.365,344.333,0.403951,2.87659,2.87659,17.0,16.8756,0.0024889,0.8126,80.8742,76.6584,-37.8094,-10.5773,0.0739537,32.0006,0
635498508,352.365,344.393,0.401178,2.88973,2.88973,17.0,16.8746,0.00250813,0.810398,80.3025,76.0544,-37.855,-10.7716,0.0742486,32.154,0
635518406,352.365,344.452,0.398068,2.8928,2.8928,17.0,16.8729,0.002542,0.81551,79.7495,75.4443,-37.9204,-10.7478,0.0745376,32.3041,0
635537843,352.365,344.51,0.394948,2.87405,2.87405,17.0,16.8712,0.00257664,0.828205,79.2058,74.842,-37.9845,-10.3823,0.0748179,32.4496,0
635558118,352.365,344.57,0.392094,2.85019,2.85019,17.0,16.8688,0.0026231,0.837544,78.6571,74.2151,-38.0256,-10.0215,0.0751083,32.6,0
635577908,352.365,344.628,0.389195,2.8349,2.8349,17.0,16.866,0.00268093,0.841079,78.1372,73.5977,-38.0454,-9.84383,0.0753899,32.7457,0
635597869,352.365,344.687,0.38625,2.84355,2.84355,17.0,16.8627,0.00274616,0.837513,77.6158,72.9663,-38.0712,-10.0215,0.075672,32.8913,0
635618613,352.365,344.749,0.383275,2.87485,2.87485,17.0,16.8588,0.0028241,0.836496,77.0739,72.2927,-38.1547,-10.3793,0.0759631,33.0413,0
635658667,352.365,344.87,0.377077,2.89894,2.89894,17.0,16.8512,0.00297531,0.853624,76.0155,70.9797,-38.4546,-10.3965,0.0765195,33.3269,0
635677919,352.365,344.928,0.373869,2.87772,2.87772,17.0,16.8479,0.00304283,0.866486,75.4984,70.3486,-38.584,-10.0073,0.0767841,33.4623,0
635697928,352.365,344.988,0.371385,2.89395,2.89395,17.0,16.8443,0.00311302,0.869543,74.9748,69.7068,-38.7337,-10.1435,0.0770573,33.6018,0
635717923,352.365,345.048,0.368455,2.92346,2.92346,17.0,16.8406,0.00318882,0.874733,74.4522,69.0566,-38.9336,-10.3787,0.0773284,33.7399,0
635737930,352.365,345.107,0.365511,2.92399,2.92399,17.0,16.8365,0.00327049,0.884904,73.9355,68.4023,-39.1336,-10.2465,0.0775977,33.8768,0
635757934,352.365,345.166,0.36256,2.88985,2.88985,17.0,16.8323,0.00335499,0.897834,73.429,67.7537,-39.275,-9.72814,0.0778652,34.0123,0
635777976,352.365,345.225,0.359418,2.84358,2.84358,17.0,16.828,0.00343994,0.910498,72.9241,67.1057,-39.345,-9.09732,0.0781313,34.1468,0
635797973,352.365,345.284,0.356297,2.80495,2.80495,17.0,16.8236,0.00352856,0.907005,72.4244,66.457,-39.3186,-8.81341,0.078395,34.2797,0
635817985,352.365,345.342,0.353394,2.80399,2.80399,17.0,16.8188,0.00362389,0.902867,71.9311,65.8032,-39.2862,-8.90799,0.0786572,34.4114,0
635838021,352.365,345.401,0.35049,2.84963,2.84963,17.0,16.8142,0.00371693,0.906604,71.4273,65.1431,-39.3668,-9.32687,0.0789178,34.5419,0
635858053,352.365,345.461,0.347553,2.88686,2.88686,17.0,16.8097,0.00380569,0.908984,70.9138,64.4802,-39.517,-9.68627,0.0791764,34.6711,0
635878071,352.365,345.521,0.344635,2.88601,2.88601,17.0,16.8056,0.00388828,0.914518,70.3977,63.8254,-39.6588,-9.61872,0.079433,34.7988,0
635898120,352.365,345.58,0.341579,2.84477,2.84477,17.0,16.8022,0.00395557,0.928203,69.8749,63.1895,-39.7425,-9.0185,0.0796881,34.9255,0
635918220,352.365,345.638,0.338734,2.78085,2.78085,17.0,16.7995,0.00400917,0.925137,69.3567,62.5813,-39.6787,-8.47442,0.079942,35.0513,0
635938273,352.365,345.694,0.335909,2.74499,2.74499,17.0,16.7969,0.00406101,0.910312,68.8438,61.9814,-39.5124,-8.40278,0.0801934,35.1756,0
635958268,352.365,345.752,0.332912,2.75628,2.75628,17.0,16.7945,0.00411064,0.885223,68.3238,61.3779,-39.3225,-8.9673,0.0804421,35.2983,0
635978278,352.365,345.809,0.330124,2.76384,2.76384,17.0,16.7924,0.00415192,0.865986,67.7976,60.7825,-39.1258,-9.39438,0.0806892,35.4199,0
635998305,352.365,345.865,0.327359,2.74094,2.74094,17.0,16.7906,0.00418758,0.856352,67.2738,60.1987,-38.8961,-9.36073,0.0809345,35.5405,0
636018311,352.365,345.92,0.324623,2.67583,2.67583,17.0,16.7894,0.00421196,0.847473,66.7577,59.6418,-38.56,-8.89963,0.0811777,35.6598,0
636038315,352.365,345.974,0.321906,2.61665,2.61665,17.0,16.7888,0.0042234,0.835383,66.2422,59.1069,-38.1396,-8.54957,0.081419,35.7781,0
636078358,352.365,346.082,0.316388,2.65324,2.65324,17.0,16.7884,0.00423103,0.812626,65.1807,58.0327,-37.5112,-9.34494,0.0818962,36.0115,0
636098367,352.365,346.137,0.313741,2.67252,2.67252,17.0,16.7888,0.00422497,0.811155,64.6382,57.5005,-37.3448,-9.58435,0.0821317,36.1266,0
636118392,352.365,346.191,0.31107,2.64109,2.64109,17.0,16.7892,0.00421501,0.814406,64.1003,56.9792,-37.1662,-9.24718,0.0823654,36.2407,0
636138555,352.365,346.246,0.30825,2.61453,2.61453,17.0,16.7896,0.00420807,0.811752,63.562,56.4526,-36.968,-9.05854,0.0825988,36.3545,0
636158489,352.365,346.299,0.305577,2.62889,2.62889,17.0,16.7894,0.00421185,0.79624,63.0381,55.9224,-36.7908,-9.48626,0.0828276,36.466,0
636178499,352.365,346.354,0.302879,2.64552,2.64552,17.0,16.7889,0.00422272,0.782053,62.5148,55.3806,-36.6391,-9.91459,0.0830554,36.5768,0
636198504,352.365,346.408,0.300124,2.62294,2.62294,17.0,16.788,0.00423931,0.773026,61.9989,54.8369,-36.4484,-9.87261,0.0832812,36.6865,0
636218556,352.365,346.461,0.297276,2.5795,2.5795,17.0,16.7873,0.00425495,0.766641,61.4842,54.2961,-36.1945,-9.5826,0.0835057,36.7954,0
636238684,352.365,346.516,0.294502,2.58426,2.58426,17.0,16.7865,0.00426941,0.760386,60.9624,53.75,-35.9851,-9.7623,0.0837292,36.9036,0
636258676,352.365,346.569,0.291724,2.53919,2.53919,17.0,16.786,0.00428059,0.754127,60.4493,53.2183,-35.7135,-9.45324,0.0839492,37.0099,0
636278677,352.365,346.623,0.288937,2.51731,2.51731,17.0,16.7856,0.00428806,0.749452,59.9324,52.6887,-35.443,-9.34485,0.0841675,37.1153,0
636298723,352.365,346.677,0.286192,2.53017,2.53017,17.0,16.7849,0.00430145,0.726065,59.4136,52.1475,-35.1785,-9.89119,0.0843844,37.2199,0
636318597,352.365,346.73,0.283324,2.49608,2.49608,17.0,16.7844,0.00431293,0.720851,58.8991,51.6135,-34.8881,-9.67311,0.0845975,37.3224,0
636338597,352.365,346.784,0.280472,2.48641,2.48641,17.0,16.784,0.00432041,0.708836,58.3731,51.0752,-34.602,-9.80827,0.0848101,37.4246,0
636358626,352.365,346.839,0.277718,2.52171,2.52171,17.0,16.7835,0.00432922,0.689293,57.8398,50.5269,-34.382,-10.51,0.0850211,37.5258,0
636378598,352.365,346.895,0.274979,2.52676,2.52676,17.0,16.7835,0.0043306,0.674533,57.3006,49.9856,-34.1718,-10.8342,0.0852295,37.6256,0
636398604,352.365,346.949,0.272174,2.49591,2.49591,17.0,16.7842,0.00431587,0.677828,56.7516,49.4612,-33.9598,-10.503,0.0854362,37.7246,0
636418608,352.365,347.004,0.269414,2.47813,2.47813,17.0,16.7849,0.00430103,0.656558,56.2053,48.9397,-33.6895,-10.712,0.0856409,37.8225,0
636438625,352.365,347.059,0.266652,2.50439,2.50439,17.0,16.7862,0.00427643,0.635646,55.6438,48.4197,-33.4602,-11.3464,0.0858438,37.9194,0
636458650,352.365,347.114,0.263896,2.50277,2.50277,17.0,16.7884,0.00423168,0.631591,55.0655,47.9165,-33.2658,-11.4235,0.0860445,38.0153,0
636498721,352.365,347.224,0.258464,2.50587,2.50587,17.0,16.796,0.00407974,0.638365,53.8635,46.9695,-33.0357,-11.386,0.0864398,38.2045,0
636518728,352.365,347.28,0.255699,2.55432,2.55432,17.0,16.8018,0.0039645,0.629146,53.2176,46.5173,-33.0378,-12.0376,0.0866337,38.2976,0
636538743,352.365,347.336,0.252882,2.56546,2.56546,17.0,16.8083,0.00383354,0.635767,52.5556,46.0752,-33.0903,-12.0569,0.0868252,38.3898,0
636558736,352.365,347.392,0.250035,2.55356,2.55356,17.0,16.816,0.00368053,0.632439,51.8757,45.6526,-33.1048,-12.0166,0.0870141,38.481,0
636578722,352.365,347.449,0.247165,2.5708,2.5708,17.0,16.8239,0.00352249,0.606065,51.1873,45.2302,-33.0687,-12.65,0.0872004,38.5714,0
636598776,352.365,347.505,0.244417,2.54711,2.54711,17.0,16.8316,0.00336884,0.582397,50.5087,44.8101,-32.9205,-12.8357,0.0873848,38.6613,0
636618792,352.365,347.559,0.241591,2.4783,2.4783,17.0,16.8395,0.00320988,0.569541,49.8386,44.4075,-32.6307,-12.3979,0.0875665,38.7502,0
636639007,352.365,347.613,0.238947,2.44731,2.44731,17.0,16.8473,0.00305397,0.534975,49.177,44.0085,-32.2281,-12.6952,0.0877475,38.8392,0
636658851,352.365,347.666,0.236276,2.39268,2.39268,17.0,16.8543,0.00291348,0.494193,48.5464,43.6147,-31.668,-12.867,0.0879229,38.9257,0
636678854,352.365,347.716,0.233711,2.26914,2.26914,17.0,16.8615,0.00276939,0.464065,47.9364,43.2476,-30.8822,-12.1826,0.0880975,39.0122,0
636698884,352.365,347.763,0.231303,2.15852,2.15852,17.0,16.8688,0.00262356,0.415088,47.3486,42.9058,-29.8772,-11.9418,0.0882702,39.0982,0
636718886,352.365,347.808,0.228981,2.05752,2.05752,17.0,16.8756,0.00248898,0.361515,46.7924,42.5767,-28.6999,-11.8731,0.0884406,39.1833,0
636738995,352.365,347.849,0.22692,1.89992,1.89992,17.0,16.8828,0.00234432,0.322858,46.2649,42.2932,-27.3234,-10.9954,0.08861,39.2684,0
636759009,352.365,347.888,0.224895,1.79723,1.79723,17.0,16.8906,0.002188,0.282827,45.7498,42.0422,-25.8906,-10.6791,0.0887768,39.3525,0
636779172,352.365,347.926,0.223006,1.73254,1.73254,17.0,16.8986,0.0020285,0.251478,45.2445,41.8064,-24.5163,-10.5881,0.0889429,39.4368,0
636799081,352.365,347.961,0.221252,1.632,1.632,17.0,16.9077,0.00184544,0.242593,44.7477,41.6189,-23.1941,-9.76418,0.0891051,39.5197,0
636819111,352.365,347.995,0.219646,1.57447,1.57447,17.0,16.9172,0.00165634,0.22822,44.2602,41.4512,-21.9791,-9.45343,0.0892665,39.6027,0
636839166,352.365,348.027,0.218123,1.55646,1.55646,17.0,16.9274,0.00145123,0.21891,43.7673,41.3054,-20.9444,-9.44362,0.0894264,39.6855,0
636859253,352.365,348.058,0.21666,1.50018,1.50018,17.0,16.9385,0.00122963,0.22676,43.2747,41.1882,-20.0369,-8.76693,0.0895847,39.7683,0
636899136,352.365,348.116,0.213995,1.44509,1.44509,17.0,16.9607,0.00078537,0.221971,42.3357,41.0022,-18.5504,-8.32145,0.0898938,39.932,0
636919171,352.365,348.143,0.212679,1.39935,1.39935,17.0,16.9722,0.000556412,0.233402,41.8747,40.9294,-17.9582,-7.68536,0.0900466,40.014,0
636939183,352.365,348.169,0.211256,1.35618,1.35618,17.0,16.9841,0.000317802,0.25203,41.4116,40.8716,-17.4671,-6.95272,0.0901975,40.0958,0
636959195,352.365,348.196,0.20986,1.35304,1.35304,17.0,16.996,7.90787e-05,0.258208,40.9469,40.8125,-17.0933,-6.82356,0.0903467,40.1774,0
636979234,352.365,348.223,0.208531,1.35439,1.35439,17.0,17.0078,-0.000155907,0.265356,40.4839,40.749,-16.8252,-6.72131,0.0904944,40.2591,0
636999237,352.365,348.249,0.20715,1.3169,1.3169,17.0,17.0192,-0.00038414,0.290181,40.0336,40.687,-16.6258,-5.9377,0.0906402,40.3405,0
637019278,352.365,348.276,0.205713,1.34078,1.34078,17.0,17.0298,-0.000596085,0.311311,39.5871,40.6013,-16.5892,-5.81943,0.0907847,40.4218,0
637039406,352.365,348.305,0.204225,1.39935,1.39935,17.0,17.0403,-0.00080677,0.349438,39.125,40.498,-16.8091,-5.75192,0.0909281,40.5034,0
637079378,352.365,348.365,0.201077,1.45852,1.45852,17.0,17.0599,-0.00119877,0.410821,38.2,40.2415,-17.5918,-5.30231,0.0912078,40.6645,0
637099517,352.365,348.397,0.19946,1.52078,1.52078,17.0,17.0697,-0.00139305,0.435972,37.7178,40.0908,-18.1581,-5.49201,0.0913462,40.7452,0
637119384,352.365,348.43,0.198016,1.55002,1.55002,17.0,17.0793,-0.00158699,0.472813,37.2358,39.9399,-18.7987,-5.1562,0.0914809,40.8246,0
637139526,352.365,348.464,0.196381,1.61188,1.61188,17.0,17.0893,-0.00178665,0.499087,36.7335,39.7788,-19.5272,-5.32172,0.0916156,40.9047,0
637159417,352.365,348.499,0.194633,1.68418,1.68418,17.0,17.0994,-0.00198833,0.523608,36.2178,39.6079,-20.3407,-5.62009,0.0917468,40.9835,0
637179423,352.365,348.534,0.192897,1.72166,1.72166,17.0,17.1102,-0.0022031,0.552345,35.6821,39.4395,-21.1687,-5.50367,0.0918768,41.0624,0
637199484,352.365,348.571,0.191145,1.76269,1.76269,17.0,17.1208,-0.00241508,0.55114,35.1411,39.2612,-21.9127,-5.93429,0.0920051,41.1411,0
637219447,352.365,348.607,0.189413,1.77014,1.77014,17.0,17.1318,-0.00263615,0.55299,34.5965,39.0955,-22.5343,-5.9828,0.0921309,41.2192,0
637239577,352.365,348.643,0.187843,1.7474,1.7474,17.0,17.143,-0.00286072,0.552555,34.0582,38.9419,-22.9905,-5.77256,0.0922557,41.2976,0
637259486,352.365,348.677,0.186166,1.74416,1.74416,17.0,17.1545,-0.00308907,0.530586,33.5242,38.7996,-23.2791,-6.12376,0.0923773,41.3748,0
637279492,352.365,348.71,0.184557,1.6979,1.6979,17.0,17.1666,-0.00333168,0.51763,32.9894,38.6809,-23.3801,-5.89771,0.0924974,41.4522,0
637299698,352.365,348.742,0.183025,1.63462,1.63462,17.0,17.1786,-0.00357151,0.49205,32.4739,38.5774,-23.2539,-5.72119,0.0926169,41.5302,0
637319509,352.365,348.772,0.18167,1.60789,1.60789,17.0,17.191,-0.0038205,0.472424,31.9636,38.4949,-23.0379,-5.79926,0.0927322,41.6064,0
637339515,352.365,348.801,0.180296,1.57201,1.57201,17.0,17.2046,-0.00409111,0.469836,31.4462,38.4429,-22.7906,-5.49431,0.0928468,41.6833,0
637359548,352.365,348.83,0.178972,1.56456,1.56456,17.0,17.2183,-0.00436607,0.469184,30.931,38.4011,-22.5809,-5.43426,0.0929596,41.7603,0
637379551,352.365,348.858,0.17769,1.58086,1.58086,17.0,17.2331,-0.00466282,0.481203,30.3983,38.3794,-22.4914,-5.38739,0.0930704,41.837,0
637399597,352.365,348.886,0.176421,1.61158,1.61158,17.0,17.2487,-0.00497498,0.49521,29.8512,38.3706,-22.5334,-5.44655,0.0931793,41.9139,0
637419690,352.365,348.915,0.17513,1.65261,1.65261,17.0,17.2645,-0.00529068,0.513823,29.2963,38.3604,-22.717,-5.52687,0.0932865,41.991,0
637439635,352.365,348.944,0.173741,1.68375,1.68375,17.0,17.2805,-0.00560951,0.527327,28.736,38.3508,-22.9771,-5.59872,0.0933909,42.0675,0
637459688,352.365,348.974,0.172301,1.69604,1.69604,17.0,17.2962,-0.00592415,0.533853,28.1752,38.334,-23.2375,-5.60663,0.0934938,42.1444,0
637499713,352.365,349.032,0.169426,1.71696,1.71696,17.0,17.3264,-0.00652878,0.542664,27.0765,38.282,-23.7167,-5.66054,0.0936931,42.2977,0
637519719,352.365,349.062,0.167903,1.73335,1.73335,17.0,17.3408,-0.00681587,0.559589,26.5327,38.2358,-24.0081,-5.52991,0.0937897,42.3742,0
637539719,352.365,349.093,0.16626,1.75884,1.75884,17.0,17.3543,-0.0070858,0.557653,25.9939,38.1653,-24.2902,-5.81723,0.0938844,42.4505,0
637559807,352.365,349.126,0.164449,1.77014,1.77014,17.0,17.367,-0.00733944,0.555789,25.4578,38.0696,-24.5374,-5.96665,0.0939775,42.527,0
637581398,352.365,349.161,0.162682,1.783,1.783,17.0,17.3799,-0.00759773,0.552035,24.8838,37.9443,-24.7532,-6.16354,0.0940754,42.6089,0
637599852,352.365,349.191,0.161063,1.77532,1.77532,17.0,17.3901,-0.00780266,0.537765,24.4132,37.8298,-24.8661,-6.34294,0.0941574,42.6787,0
637619874,352.365,349.224,0.159288,1.74714,1.74714,17.0,17.4004,-0.00800804,0.519335,23.9133,37.6873,-24.8424,-6.39553,0.0942446,42.7542,0
637640089,352.365,349.257,0.157539,1.72233,1.72233,17.0,17.4101,-0.0082024,0.49825,23.4207,37.533,-24.7065,-6.52791,0.0943308,42.83,0
637659994,352.365,349.289,0.155815,1.6769,1.6769,17.0,17.4192,-0.00838356,0.474779,22.9514,37.3792,-24.4318,-6.50046,0.094414,42.9044,0
637681489,352.365,349.323,0.154057,1.64192,1.64192,17.0,17.4282,-0.00856415,0.45182,22.4567,37.199,-24.0683,-6.56729,0.0945019,42.9844,0
637700213,352.365,349.352,0.152362,1.62007,1.62007,17.0,17.4359,-0.00871868,0.437879,22.0334,37.0452,-23.6907,-6.60648,0.094577,43.0538,0
637720186,352.365,349.383,0.15083,1.59118,1.59118,17.0,17.4437,-0.00887474,0.420362,21.5934,36.8774,-23.2751,-6.63751,0.0946556,43.1274,0
637740038,352.365,349.414,0.149147,1.56008,1.56008,17.0,17.4512,-0.00902473,0.402707,21.162,36.7075,-22.8244,-6.65129,0.094732,43.2003,0
637760074,352.365,349.445,0.147464,1.53754,1.53754,17.0,17.4583,-0.00916656,0.388158,20.734,36.5273,-22.3732,-6.69532,0.0948077,43.2735,0
637800095,352.365,349.508,0.144174,1.5351,1.5351,17.0,17.4726,-0.00945118,0.374462,19.8695,36.1599,-21.6414,-6.9324,0.0949541,43.4186,0
637820085,352.365,349.54,0.14258,1.53597,1.53597,17.0,17.4794,-0.00958874,0.359257,19.4392,35.97,-21.3355,-7.21725,0.0950248,43.4905,0
637840439,352.365,349.572,0.140999,1.54426,1.54426,17.0,17.4867,-0.00973457,0.354847,18.9949,35.7805,-21.0957,-7.38597,0.0950952,43.5633,0
637860135,352.365,349.603,0.139594,1.55939,1.55939,17.0,17.4935,-0.00986938,0.339901,18.5737,35.5952,-20.885,-7.80476,0.0951618,43.6334,0
637880116,352.365,349.634,0.137968,1.56055,1.56055,17.0,17.5007,-0.0100144,0.341486,18.1366,35.4119,-20.7284,-7.79924,0.0952278,43.7042,0
637900136,352.365,349.666,0.136365,1.55811,1.55811,17.0,17.5078,-0.0101558,0.315842,17.7018,35.2246,-20.5128,-8.23509,0.0952924,43.7747,0
637920578,352.365,349.698,0.134766,1.55123,1.55123,17.0,17.5148,-0.0102952,0.303953,17.2646,35.0312,-20.2892,-8.38677,0.0953566,43.8463,0
637940144,352.365,349.728,0.133354,1.54298,1.54298,17.0,17.5213,-0.0104258,0.282424,16.854,34.8496,-20.0223,-8.69263,0.0954167,43.9145,0
637960199,352.365,349.759,0.131778,1.53728,1.53728,17.0,17.5277,-0.0105539,0.273448,16.4385,34.6587,-19.7701,-8.80541,0.0954767,43.984,0
637980263,352.365,349.79,0.130226,1.53366,1.53366,17.0,17.5338,-0.0106763,0.262069,16.0287,34.4634,-19.5251,-8.98072,0.0955353,44.0531,0
638000274,352.365,349.821,0.128712,1.52439,1.52439,17.0,17.5392,-0.0107836,0.245138,15.6353,34.2583,-19.2552,-9.19828,0.0955922,44.1217,0
638020409,352.365,349.851,0.127232,1.50859,1.50859,17.0,17.5439,-0.0108785,0.234952,15.2579,34.0471,-18.976,-9.23362,0.0956482,44.1902,0
638041735,352.365,349.883,0.125758,1.49642,1.49642,17.0,17.5477,-0.0109539,0.208633,14.8793,33.8008,-18.6398,-9.58834,0.095706,44.2623,0
638061825,352.365,349.912,0.124316,1.48263,1.48263,17.0,17.5504,-0.0110071,0.199358,14.548,33.563,-18.3143,-9.62848,0.0957592,44.3297,0
638080777,352.365,349.938,0.123012,1.45029,1.45029,17.0,17.552,-0.0110392,0.175309,14.2627,33.334,-17.9088,-9.74541,0.0958084,44.3929,0
638100277,352.365,349.964,0.121715,1.41827,1.41827,17.0,17.5526,-0.0110516,0.164357,13.9926,33.0854,-17.4858,-9.63604,0.0958581,44.4574,0
638120304,352.365,349.991,0.120287,1.39312,1.39312,17.0,17.5525,-0.01105,0.154091,13.7298,32.8201,-17.0648,-9.58359,0.0959082,44.5232,0
638160404,352.365,350.043,0.117525,1.32363,1.32363,17.0,17.5477,-0.0109541,0.124947,13.3019,32.2239,-16.1164,-9.44311,0.096006,44.653,0
638180386,352.365,350.069,0.11617,1.29319,1.29319,17.0,17.5434,-0.0108682,0.10647,13.1278,31.8992,-15.6134,-9.48413,0.0960538,44.7167,0
638200414,352.365,350.094,0.114841,1.27254,1.27254,17.0,17.5372,-0.0107447,0.0957223,12.9878,31.5425,-15.1348,-9.48603,0.0961011,44.7799,0
638220476,352.365,350.119,0.113527,1.24214,1.24214,17.0,17.5301,-0.0106022,0.089717,12.8689,31.1736,-14.6731,-9.30935,0.0961481,44.8425,0
638240471,352.365,350.142,0.112442,1.1848,1.1848,17.0,17.5207,-0.0104141,0.0715851,12.8071,30.7822,-14.1291,-9.07951,0.0961948,44.904,0
638260463,352.365,350.164,0.1112,1.11709,1.11709,17.0,17.509,-0.0101807,0.0581587,12.7952,30.3616,-13.5154,-8.66785,0.0962414,44.9647,0
638280463,352.365,350.184,0.110234,1.04912,1.04912,17.0,17.4964,-0.00992794,0.0507129,12.8184,29.9424,-12.866,-8.14638,0.096288,45.0246,0
638300506,352.365,350.204,0.109099,0.998031,0.998031,17.0,17.4815,-0.00963093,0.0364896,12.8853,29.4897,-12.1976,-7.91119,0.0963351,45.0837,0
638320521,352.365,350.223,0.108009,0.956534,0.956534,17.0,17.4648,-0.00929676,0.0345972,12.989,29.0095,-11.5756,-7.55458,0.0963824,45.1418,0
638340600,352.365,350.242,0.106985,0.944139,0.944139,17.0,17.4476,-0.00895161,0.0359761,13.102,28.52,-11.0592,-7.42579,0.0964303,45.199,0
638360642,352.365,350.262,0.105913,0.961598,0.961598,17.0,17.4293,-0.00858696,0.0499587,13.2239,28.0061,-10.7297,-7.37099,0.0964786,45.2552,0
638380650,352.365,350.283,0.104832,0.994111,0.994111,17.0,17.4106,-0.00821148,0.0708288,13.3459,27.4739,-10.6032,-7.34471,0.0965272,45.3101,0
638400959,352.365,350.305,0.103705,1.00106,1.00106,17.0,17.3915,-0.00782944,0.0793988,13.4659,26.9292,-10.546,-7.28304,0.096577,45.3648,0
638421656,352.365,350.328,0.102534,1.01859,1.01859,17.0,17.3714,-0.00742794,0.0979082,13.5916,26.3572,-10.5994,-7.15363,0.0966282,45.4194,0
638441472,352.365,350.349,0.101416,1.00779,1.00779,17.0,17.3513,-0.00702633,0.0897696,13.7301,25.7983,-10.5931,-7.20892,0.0966778,45.4705,0
638461161,352.365,350.37,0.100511,0.985836,0.985836,17.0,17.3314,-0.00662834,0.0935903,13.8759,25.2539,-10.5583,-6.94514,0.0967275,45.5202,0
638480797,352.365,350.39,0.0994644,0.997591,0.997591,17.0,17.311,-0.0062199,0.106522,14.0273,24.6978,-10.5985,-6.85594,0.0967777,45.5687,0
638521399,352.365,350.435,0.0968018,0.968681,0.968681,17.0,17.268,-0.00536098,0.109952,14.3267,23.5122,-10.6327,-6.55898,0.096883,45.6654,0
638541633,352.365,350.457,0.0955872,0.899909,0.899909,17.0,17.2452,-0.0049049,0.0822724,14.5098,22.9082,-10.3844,-6.38431,0.0969365,45.7117,0
638561640,352.365,350.476,0.0944672,0.778551,0.778551,17.0,17.2225,-0.00445087,0.0575146,14.7157,22.3318,-9.86269,-5.64137,0.0969901,45.7564,0
638581391,352.365,350.492,0.0935257,0.673254,0.673254,17.0,17.1997,-0.00399391,0.0356723,14.9473,21.7769,-9.16364,-5.00295,0.0970438,45.7994,0
638601542,352.365,350.506,0.0929688,0.58349,0.58349,17.0,17.1763,-0.00352661,0.0175021,15.21,21.2363,-8.36522,-4.44917,0.0970996,45.8422,0
638621307,352.365,350.519,0.092244,0.51035,0.51035,17.0,17.1541,-0.00308163,0.0122968,15.4696,20.7322,-7.56498,-3.83642,0.0971553,45.8832,0
638641267,352.365,350.529,0.0919006,0.450305,0.450305,17.0,17.1322,-0.00264458,0.00471792,15.7424,20.2556,-6.78016,-3.38861,0.0972125,45.9236,0
638661234,352.365,350.538,0.0913681,0.389486,0.389486,17.0,17.1115,-0.00223,0.00143222,16.007,19.8103,-6.02137,-2.86087,0.0972707,45.9632,0
638681015,352.365,350.547,0.0909134,0.351689,0.351689,17.0,17.0921,-0.00184208,-0.00482074,16.2564,19.3965,-5.31838,-2.60825,0.0973293,46.0016,0
638701607,352.365,350.556,0.0904861,0.353112,0.353112,17.0,17.0743,-0.00148598,0.0130517,16.4749,19.0066,-4.81945,-2.32726,0.0973911,46.0407,0
638721406,352.365,350.564,0.0900345,0.338949,0.338949,17.0,17.0598,-0.00119648,0.0264051,16.6416,18.6792,-4.43794,-1.97013,0.0974511,46.0777,0
638741553,352.365,350.572,0.0896484,0.315832,0.315832,17.0,17.0468,-0.000935516,0.0339509,16.7877,18.3804,-4.11291,-1.6234,0.0975126,46.1147,0
638761106,352.365,350.578,0.0895508,0.299942,0.299942,17.0,17.0367,-0.000733147,0.0562905,16.8989,18.1465,-3.89727,-1.09174,0.0975728,46.1502,0
638781429,352.365,350.584,0.0892471,0.293435,0.293435,17.0,17.0278,-0.000556488,0.0750287,16.9875,17.9343,-3.77571,-0.715344,0.0976357,46.1866,0
638801082,352.365,350.591,0.0889267,0.316955,0.316955,17.0,17.022,-0.000440407,0.108847,17.0217,17.7708,-3.83986,-0.375907,0.0976966,46.2216,0
638821244,352.365,350.598,0.0885666,0.345032,0.345032,17.0,17.018,-0.000359611,0.140199,17.0177,17.6294,-4.05331,-0.123055,0.0977591,46.2571,0
638861103,352.365,350.615,0.0877258,0.402098,0.402098,17.0,17.0174,-0.000348968,0.202821,16.8622,17.4558,-4.83366,0.374493,0.0978818,46.3268,0
638884142,352.365,350.624,0.0872345,0.371071,0.371071,17.0,17.0207,-0.000413437,0.21329,16.7131,17.4163,-5.1511,0.85389,0.0979519,46.367,0
638903274,352.365,350.631,0.086795,0.319311,0.319311,17.0,17.0248,-0.000496025,0.202337,16.5761,17.4199,-5.26756,1.17298,0.0980097,46.4003,0
638921235,352.365,350.636,0.0866623,0.252526,0.252526,17.0,17.0302,-0.000604362,0.205702,16.439,17.4673,-5.24205,1.88687,0.0980634,46.4317,0
638941453,352.365,350.641,0.0863144,0.224933,0.224933,17.0,17.0373,-0.000746307,0.21697,16.2695,17.5396,-5.20738,2.34992,0.0981233,46.4671,0
638963138,352.365,350.646,0.0860458,0.203547,0.203547,17.0,17.0463,-0.000925827,0.222214,16.0674,17.6436,-5.1571,2.65142,0.0981868,46.5054,0
638981445,352.365,350.649,0.0860687,0.196721,0.196721,17.0,17.0549,-0.00109756,0.247001,15.89,17.7588,-5.18897,3.14616,0.0982398,46.5379,0
639001497,352.365,350.653,0.0858063,0.206248,0.206248,17.0,17.0648,-0.00129604,0.26602,15.6814,17.8889,-5.29974,3.38057,0.098297,46.5738,0
639021243,352.365,350.658,0.0854706,0.214167,0.214167,17.0,17.0752,-0.0015033,0.287976,15.4589,18.02,-5.48079,3.68082,0.0983526,46.6093,0
639041411,352.365,350.663,0.0852188,0.226653,0.226653,17.0,17.0861,-0.00172215,0.313478,15.2224,18.1575,-5.73914,3.99855,0.0984085,46.646,0
639061236,352.365,350.667,0.0852509,0.260755,0.260755,17.0,17.097,-0.00193928,0.338074,14.9914,18.2976,-6.09817,4.09209,0.0984626,46.6822,0
639081267,352.365,350.672,0.085054,0.292224,0.292224,17.0,17.1079,-0.00215706,0.371259,14.7547,18.4333,-6.56254,4.35671,0.0985164,46.7192,0
639121321,352.365,350.683,0.084761,0.327729,0.327729,17.0,17.1279,-0.00255821,0.409754,14.3107,18.676,-7.51397,4.67934,0.0986216,46.7937,0
639141602,352.365,350.688,0.0845703,0.364449,0.364449,17.0,17.1369,-0.00273762,0.43066,14.1019,18.7747,-8.04553,4.68242,0.0986737,46.8318,0
639161506,352.365,350.695,0.0845459,0.444326,0.444326,17.0,17.1455,-0.0029108,0.475878,13.8924,18.8621,-8.78389,4.68087,0.098724,46.8694,0
639181558,352.365,350.702,0.0842834,0.522626,0.522626,17.0,17.1529,-0.00305778,0.505838,13.6914,18.9131,-9.63265,4.43037,0.098774,46.9073,0
639201569,352.365,350.711,0.0839447,0.601394,0.601394,17.0,17.1598,-0.00319633,0.541,13.4837,18.9431,-10.5887,4.26387,0.0988232,46.9452,0
639221571,352.365,350.721,0.0835571,0.665714,0.665714,17.0,17.1654,-0.00330776,0.563091,13.289,18.9395,-11.5572,4.01345,0.0988716,46.9831,0
639241549,352.365,350.732,0.083107,0.701916,0.701916,17.0,17.1693,-0.00338688,0.570881,13.1166,18.9031,-12.4314,3.79136,0.0989193,47.0208,0
639261534,352.365,350.743,0.0826401,0.744345,0.744345,17.0,17.1727,-0.00345444,0.590828,12.9485,18.8508,-13.2841,3.71634,0.0989664,47.0585,0
639281555,352.365,350.755,0.0821609,0.759704,0.759704,17.0,17.1747,-0.00349346,0.590792,12.8046,18.7739,-13.9975,3.56223,0.0990131,47.0961,0
639301591,352.365,350.766,0.0816757,0.773378,0.773378,17.0,17.176,-0.00352085,0.600727,12.6705,18.687,-14.6303,3.5953,0.0990593,47.1335,0
639321589,352.365,350.777,0.0811646,0.775727,0.775727,17.0,17.176,-0.00352066,0.60424,12.5618,18.5779,-15.1543,3.62759,0.099105,47.1707,0
639341611,352.365,350.788,0.0806519,0.769965,0.769965,17.0,17.1743,-0.00348602,0.604703,12.4853,18.4419,-15.5645,3.68537,0.0991506,47.2076,0
639361628,352.365,350.798,0.0801544,0.763291,0.763291,17.0,17.1718,-0.00343567,0.612083,12.4248,18.2949,-15.9053,3.87027,0.0991958,47.2442,0
639381627,352.365,350.808,0.0797562,0.76326,0.76326,17.0,17.1676,-0.00335209,0.615079,12.3977,18.1243,-16.1882,3.91409,0.099241,47.2805,0
639401628,352.365,350.819,0.0792908,0.783061,0.783061,17.0,17.1629,-0.00325752,0.627822,12.3775,17.9419,-16.4972,3.9295,0.0992861,47.3164,0
639441756,352.365,350.839,0.0784271,0.784013,0.784013,17.0,17.1499,-0.00299709,0.629027,12.4058,17.5234,-16.9624,3.91968,0.0993766,47.3871,0
639461929,352.365,350.848,0.0779724,0.770224,0.770224,17.0,17.1424,-0.00284714,0.622462,12.4421,17.3025,-17.0715,3.9306,0.0994223,47.422,0
639482200,352.365,350.857,0.0775467,0.743443,0.743443,17.0,17.1342,-0.00268307,0.611225,12.4965,17.0757,-17.067,3.98858,0.0994685,47.4566,0
639502342,352.365,350.864,0.077182,0.697503,0.697503,17.0,17.1257,-0.00251453,0.598907,12.5669,16.8574,-16.9302,4.2165,0.0995145,47.4906,0
639522026,352.365,350.871,0.076828,0.652137,0.652137,17.0,17.1169,-0.00233829,0.574407,12.6545,16.6433,-16.647,4.23026,0.0995599,47.5233,0
639541955,352.365,350.877,0.0764725,0.609543,0.609543,17.0,17.1075,-0.00214985,0.563735,12.7596,16.426,-16.2993,4.45323,0.0996062,47.5561,0
639561933,352.365,350.88,0.0761459,0.504479,0.504479,17.0,17.0974,-0.00194782,0.540283,12.895,16.2158,-15.7337,5.07021,0.0996531,47.5885,0
639582052,352.365,350.882,0.0758911,0.392736,0.392736,17.0,17.0856,-0.00171204,0.504234,13.0785,15.9963,-14.9373,5.53721,0.099701,47.6207,0
639601985,352.365,350.881,0.0757492,0.254245,0.254245,17.0,17.073,-0.00146084,0.477922,13.3008,15.7896,-13.9368,6.43408,0.0997493,47.6521,0
639621931,352.365,350.878,0.0757324,0.0915175,0.0915175,17.0,17.0586,-0.00117195,0.440277,13.5846,15.5803,-12.6865,7.37571,0.0997986,47.6832,0
639642038,352.365,350.871,0.0758957,-0.0661781,-0.0661781,17.0,17.0421,-0.000842819,0.405667,13.9331,15.3677,-11.2561,8.32107,0.0998497,47.7141,0
639661905,352.365,350.86,0.0762085,-0.242159,-0.242159,17.0,17.0251,-0.000502319,0.383634,14.3232,15.1777,-9.68845,9.66209,0.0999015,47.7443,0
639701936,352.365,350.83,0.0773148,-0.572066,-0.572066,17.0,16.9853,0.000293541,0.332347,15.2958,14.7969,-6.2632,12.0083,0.100011,47.8039,0
639721985,352.365,350.811,0.0780594,-0.717137,-0.717137,17.0,16.964,0.000719681,0.327827,15.8459,14.6238,-4.56073,13.3473,0.100069,47.8332,0
639741992,352.365,350.79,0.0789444,-0.829463,-0.829463,17.0,16.9411,0.00117756,0.317061,16.4418,14.4434,-2.93718,14.2598,0.100129,47.8621,0
639762000,352.365,350.767,0.079924,-0.931852,-0.931852,17.0,16.9171,0.00165802,0.31786,17.0736,14.2617,-1.43516,15.2713,0.100191,47.8906,0
639782078,352.365,350.743,0.0809662,-0.998489,-0.998489,17.0,16.8933,0.0021336,0.337934,17.71,14.0942,-0.165519,16.2586,0.100256,47.9189,0
639802080,352.365,350.718,0.0820816,-1.05891,-1.05891,17.0,16.8689,0.00262253,0.351858,18.3658,13.9248,0.927199,17.0805,0.100323,47.9468,0
639822110,352.365,350.693,0.0832214,-1.10853,-1.10853,17.0,16.8449,0.00310154,0.376252,19.0193,13.7708,1.82204,17.9728,0.100392,47.9744,0
639862204,352.365,350.641,0.0854279,-1.18537,-1.18537,17.0,16.7969,0.00406132,0.424375,20.3304,13.4675,3.11268,19.5222,0.100538,48.0287,0
639882217,352.365,350.616,0.0865265,-1.20571,-1.20571,17.0,16.7728,0.00454384,0.441907,20.9849,13.312,3.55747,20.0083,0.100615,48.0553,0
639902204,352.365,350.591,0.0876144,-1.22627,-1.22627,17.0,16.7485,0.00502968,0.479782,21.6391,13.1519,3.83266,20.8362,0.100693,48.0816,0
639922235,352.365,350.566,0.0886627,-1.22854,-1.22854,17.0,16.7246,0.00550724,0.503521,22.279,12.9924,3.98378,21.2465,0.100775,48.1076,0
639942212,352.365,350.542,0.0897873,-1.23912,-1.23912,17.0,16.7008,0.00598499,0.533596,22.9165,12.8315,4.03115,21.8437,0.100858,48.1333,0
639962858,352.365,350.518,0.0908066,-1.23633,-1.23633,17.0,16.6762,0.00647579,0.556434,23.5653,12.6614,3.99363,22.186,0.100947,48.1594,0
639982238,352.365,350.495,0.091922,-1.23924,-1.23924,17.0,16.6543,0.00691372,0.590125,24.1502,12.5164,3.86316,22.7672,0.101032,48.1837,0
640002257,352.365,350.473,0.0929428,-1.2141,-1.2141,17.0,16.6325,0.00735012,0.614469,24.733,12.3728,3.6345,22.9157,0.101122,48.2084,0
640022322,352.365,350.451,0.0939331,-1.20849,-1.20849,17.0,16.612,0.00775963,0.65239,25.2875,12.2466,3.32035,23.481,0.101214,48.233,0
640042318,352.365,350.43,0.0948715,-1.18796,-1.18796,17.0,16.5927,0.00814549,0.674116,25.8122,12.1306,2.96228,23.6305,0.101308,48.2573,0
640062848,352.365,350.409,0.0958145,-1.16768,-1.16768,17.0,16.5743,0.00851418,0.709283,26.3208,12.0278,2.525,24.0054,0.101407,48.2819,0
640082394,352.365,350.391,0.0967468,-1.15075,-1.15075,17.0,16.5578,0.00884354,0.724392,26.7779,11.9395,2.09716,24.0817,0.101502,48.3053,0
640102414,352.365,350.371,0.0977966,-1.13892,-1.13892,17.0,16.5422,0.00915569,0.754658,27.2278,11.8728,1.63689,24.4603,0.101601,48.3291,0
