timestamp,timestamp_last_signal,channel_count,rssi,rc_lost_frame_count,rc_total_frame_count,rc_ppm_frame_length,values[0],values[1],values[2],values[3],values[4],values[5],values[6],values[7],values[8],values[9],values[10],values[11],values[12],values[13],values[14],values[15],values[16],values[17],rc_failsafe,rc_lost,input_source
327008388,327008388,18,255,0,0,0,1494,1494,982,2006,1494,1496,1496,982,982,982,982,1494,1494,1494,1494,1494,998,998,0,0,4
327073405,327073405,18,255,0,0,0,1494,1492,982,2006,1494,1496,1496,982,982,982,982,1494,1494,1494,1494,1494,998,998,0,0,4
327160763,327160763,18,255,0,0,0,1494,1492,982,2006,1494,1496,1496,982,982,982,982,1494,1494,1494,1494,1494,998,998,0,0,4
327185049,327185049,18,255,0,0,0,1494,1492,982,2006,1494,1496,1496,982,982,982,982,1494,1494,1494,1494,1494,998,998,0,0,4
327205498,327205498,18,255,0,0,0,1494,1492,982,2006,1494,1496,1496,982,982,982,982,1494,1494,1494,1494,1494,998,998,0,0,4
327229454,327229454,18,255,0,0,0,1494,1494,982,2006,1494,1496,1496,982,982,982,982,1494,1494,1494,1494,1494,998,998,0,0,4
327253990,327253990,18,255,0,0,0,1494,1492,982,2006,1494,1496,1496,982,982,982,982,1494,1494,1494,1494,1494,998,998,0,0,4
327276445,327276445,18,255,0,0,0,1494,1492,982,2006,1494,1495,1495,982,982,982,982,1494,1494,1494,1494,1494,998,998,0,0,4
327297011,327297011,18,255,0,0,0,1494,1492,982,2006,1494,1496,1496,982,982,982,982,1494,1494,1494,1494,1494,998,998,0,0,4
327320462,327320462,18,255,0,0,0,1494,1494,982,2006,1494,1495,1495,982,982,982,982,1494,1494,1494,1494,1494,998,998,0,0,4
327344419,327344419,18,255,0,0,0,1494,1494,982,2006,1494,1496,1496,982,982,982,982,1494,1494,1494,1494,1494,998,998,0,0,4
327364408,327364408,18,255,0,0,0,1493,1492,982,2006,1493,1496,1496,982,982,982,982,1494,1494,1494,1494,1494,998,998,0,0,4
327386379,327386379,18,255,0,0,0,1494,1494,982,2006,1494,1496,1496,982,982,982,982,1494,1494,1494,1494,1494,998,998,0,0,4
327406780,327406780,18,255,0,0,0,1494,1494,982,2006,1494,1496,1496,982,982,982,982,1494,1494,1494,1494,1494,998,998,0,0,4
327431357,327431357,18,255,0,0,0,1494,1492,982,2006,1494,1495,1495,982,982,982,982,1494,1494,1494,1494,1494,998,998,0,0,4
327454855,327454855,18,255,0,0,0,1494,1492,982,2006,1494,1496,1496,982,982,982,982,1494,1494,1494,1494,1494,998,998,0,0,4
327474924,327474924,18,255,0,0,0,1493,1492,982,2006,1493,1496,1496,982,982,982,982,1494,1494,1494,1494,1494,998,998,0,0,4
327499127,327499127,18,255,0,0,0,1494,1492,982,2006,1494,1496,1496,982,982,982,982,1494,1494,1494,1494,1494,998,998,0,0,4
327523124,327523124,18,255,0,0,0,1493,1492,982,2006,1493,1496,1496,982,982,982,982,1494,1494,1494,1494,1494,998,998,0,0,4
327546097,327546097,18,255,0,0,0,1494,1494,982,2006,1494,1496,1496,982,982,982,982,1494,1494,1494,1494,1494,998,998,0,0,4
327570533,327570533,18,255,0,0,0,1494,1494,982,2006,1494,1496,1496,982,982,982,982,1494,1494,1494,1494,1494,998,998,0,0,4
327590113,327590113,18,255,0,0,0,1494,1492,982,2006,1494,1495,1495,982,982,982,982,1494,1494,1494,1494,1494,998,998,0,0,4
327611008,327611008,18,255,0,0,0,1494,1492,982,2006,1494,1496,1496,982,982,982,982,1494,1494,1494,1494,1494,998,998,0,0,4
327634215,327634215,18,255,0,0,0,1492,1492,982,2006,1492,1496,1496,982,982,982,982,1494,1494,1494,1494,1494,998,998,0,0,4
327657973,327657973,18,255,0,0,0,1494,1494,982,2006,1494,1496,1496,982,982,982,982,1494,1494,1494,1494,1494,998,998,0,0,4
327678211,327678211,18,255,0,0,0,1494,1492,982,2006,1494,1496,1496,982,982,982,982,1494,1494,1494,1494,1494,998,998,0,0,4
327702092,327702092,18,255,0,0,0,1494,1492,982,2006,1494,1496,1496,982,982,982,982,1494,1494,1494,1494,1494,998,998,0,0,4
327726338,327726338,18,255,0,0,0,1494,1494,982,2006,1494,1496,1496,982,982,982,982,1494,1494,1494,1494,1494,998,998,0,0,4
327750826,327750826,18,255,0,0,0,1494,1494,982,2006,1494,1496,1496,982,982,982,982,1494,1494,1494,1494,1494,998,998,0,0,4
327774454,327774454,18,255,0,0,0,1494,1492,982,2006,1494,1496,1496,982,982,982,982,1494,1494,1494,1494,1494,998,998,0,0,4
327798684,327798684,18,255,0,0,0,1493,1494,982,2006,1493,1496,1496,982,982,982,982,1494,1494,1494,1494,1494,998,998,0,0,4
327818649,327818649,18,255,0,0,0,1494,1492,982,2006,1494,1496,1496,982,982,982,982,1494,1494,1494,1494,1494,998,998,0,0,4
327840245,327840245,18,255,0,0,0,1494,1494,982,2006,1494,1496,1496,982,982,982,982,1494,1494,1494,1494,1494,998,998,0,0,4
327866329,327866329,18,255,0,0,0,1494,1494,982,2006,1494,1496,1496,982,982,982,982,1494,1494,1494,1494,1494,998,998,0,0,4
327887670,327887670,18,255,0,0,0,1494,1494,982,2006,1494,1496,1496,982,982,982,982,1494,1494,1494,1494,1494,998,998,0,0,4
327911931,327911931,18,255,0,0,0,1494,1492,982,2006,1494,1496,1496,982,982,982,982,1494,1494,1494,1494,1494,998,998,0,0,4
327935809,327935809,18,255,0,0,0,1494,1492,982,2006,1494,1496,1496,982,982,982,982,1494,1494,1494,1494,1494,998,998,0,0,4
327956183,327956183,18,255,0,0,0,1494,1494,982,2006,1494,1496,1496,982,982,982,982,1494,1494,1494,1494,1494,998,998,0,0,4
327975789,327975789,18,255,0,0,0,1494,1492,982,1990,1494,1495,1495,982,982,982,982,1494,1494,1494,1494,1494,998,998,0,0,4
327996728,327996728,18,255,0,0,0,1494,1494,982,1925,1494,1495,1495,982,982,982,982,1494,1494,1494,1494,1494,998,998,0,0,4
328020607,328020607,18,255,0,0,0,1494,1492,982,1878,1494,1496,1496,982,982,982,982,1494,1494,1494,1494,1494,998,998,0,0,4
328044622,328044622,18,255,0,0,0,1494,1492,982,1828,1494,1496,1496,982,982,982,982,1494,1494,1494,1494,1494,998,998,0,0,4
328066294,328066294,18,255,0,0,0,1494,1494,982,1771,1494,1496,1496,982,982,982,982,1494,1494,1494,1494,1494,998,998,0,0,4
328084878,328084878,18,255,0,0,0,1494,1492,982,1658,1494,1496,1496,982,982,982,982,1494,1494,1494,1494,1494,998,998,0,0,4
328108625,328108625,18,255,0,0,0,1494,1492,982,1600,1494,1496,1496,982,982,982,982,1494,1494,1494,1494,1494,998,998,0,0,4
328132735,328132735,18,255,0,0,0,1494,1494,982,1540,1494,1496,1496,982,982,982,982,1494,1494,1494,1494,1494,998,998,0,0,4
328155805,328155805,18,255,0,0,0,1494,1492,982,1494,1494,1496,1496,982,982,982,982,1494,1494,1494,1494,1494,998,998,0,0,4
328179512,328179512,18,255,0,0,0,1494,1492,982,1494,1494,1495,1495,982,982,982,982,1494,1494,1494,1494,1494,998,998,0,0,4
328199668,328199668,18,255,0,0,0,1494,1492,982,1494,1494,1496,1496,982,982,982,982,1494,1494,1494,1494,1494,998,998,0,0,4
328223825,328223825,18,255,0,0,0,1494,1492,982,1494,1494,1495,1495,982,982,982,982,1494,1494,1494,1494,1494,998,998,0,0,4
328247603,328247603,18,255,0,0,0,1494,1492,982,1494,1494,1496,1496,982,982,982,982,1494,1494,1494,1494,1494,998,998,0,0,4
328267660,328267660,18,255,0,0,0,1494,1494,982,1494,1494,1495,1495,982,982,982,982,1494,1494,1494,1494,1494,998,998,0,0,4
328292793,328292793,18,255,0,0,0,1494,1492,982,1494,1494,1496,1496,982,982,982,982,1494,1494,1494,1494,1494,998,998,0,0,4
328313266,328313266,18,255,0,0,0,1494,1492,982,1494,1494,1496,1496,982,982,982,982,1494,1494,1494,1494,1494,998,998,0,0,4
328337175,328337175,18,255,0,0,0,1494,1492,982,1494,1494,1496,1496,982,982,982,982,1494,1494,1494,1494,1494,998,998,0,0,4
328357275,328357275,18,255,0,0,0,1492,1494,982,1494,1492,1495,1495,982,982,982,982,1494,1494,1494,1494,1494,998,998,0,0,4
328381870,328381870,18,255,0,0,0,1494,1492,982,1494,1494,1496,1496,982,982,982,982,1494,1494,1494,1494,1494,998,998,0,0,4
328405386,328405386,18,255,0,0,0,1494,1492,982,1494,1494,1496,1496,982,982,982,982,1494,1494,1494,1494,1494,998,998,0,0,4
328429290,328429290,18,255,0,0,0,1494,1492,982,1494,1494,1496,1496,982,982,982,982,1494,1494,1494,1494,1494,998,998,0,0,4
328449974,328449974,18,255,0,0,0,1494,1492,982,1494,1494,1496,1496,982,982,982,982,1494,1494,1494,1494,1494,998,998,0,0,4
328474225,328474225,18,255,0,0,0,1493,1494,982,1494,1493,1496,1496,982,982,982,982,1494,1494,1494,1494,1494,998,998,0,0,4
328498777,328498777,18,255,0,0,0,1494,1494,982,1494,1494,1496,1496,982,982,982,982,1494,1494,1494,1494,1494,998,998,0,0,4
328518907,328518907,18,255,0,0,0,1494,1492,982,1495,1494,1496,1496,982,982,982,982,1494,1494,1494,1494,1494,998,998,0,0,4
328542078,328542078,18,255,0,0,0,1494,1492,982,1494,1494,1496,1496,982,982,982,982,1494,1494,1494,1494,1494,998,998,0,0,4
328563252,328563252,18,255,0,0,0,1494,1494,982,1494,1494,1495,1495,982,982,982,982,1494,1494,1494,1494,1494,998,998,0,0,4
328586245,328586245,18,255,0,0,0,1494,1492,982,1494,1494,1496,1496,982,982,982,982,1494,1494,1494,1494,1494,998,998,0,0,4
328606799,328606799,18,255,0,0,0,1493,1494,982,1494,1493,1496,1496,982,982,982,982,1494,1494,1494,1494,1494,998,998,0,0,4
328628231,328628231,18,255,0,0,0,1493,1492,982,1494,1493,1496,1496,982,982,982,982,1494,1494,1494,1494,1494,998,998,0,0,4
328650322,328650322,18,255,0,0,0,1494,1494,982,1494,1494,1495,1495,982,982,982,982,1494,1494,1494,1494,1494,998,998,0,0,4
328671822,328671822,18,255,0,0,0,1494,1494,982,1494,1494,1496,1496,982,982,982,982,1494,1494,1494,1494,1494,998,998,0,0,4
328695582,328695582,18,255,0,0,0,1493,1492,982,1495,1493,1495,1495,982,982,982,982,1494,1494,1494,1494,1494,998,998,0,0,4
328715628,328715628,18,255,0,0,0,1493,1492,982,1494,1493,1496,1496,982,982,982,982,1494,1494,1494,1494,1494,998,998,0,0,4
328740127,328740127,18,255,0,0,0,1494,1494,982,1494,1494,1495,1495,982,982,982,982,1494,1494,1494,1494,1494,998,998,0,0,4
328760461,328760461,18,255,0,0,0,1494,1494,982,1494,1494,1496,1496,982,982,982,982,1494,1494,1494,1494,1494,998,998,0,0,4
328784548,328784548,18,255,0,0,0,1494,1492,982,1494,1494,1496,1496,982,982,982,982,1494,1494,1494,1494,1494,998,998,0,0,4
328809316,328809316,18,255,0,0,0,1494,1494,982,1494,1494,1497,1497,982,982,982,982,1494,1494,1494,1494,1494,998,998,0,0,4
328831975,328831975,18,255,0,0,0,1494,1492,982,1494,1494,1496,1496,982,982,982,982,1494,1494,1494,1494,1494,998,998,0,0,4
328855678,328855678,18,255,0,0,0,1494,1492,982,1494,1494,1496,1496,982,982,982,982,1494,1494,1494,1494,1494,998,998,0,0,4
328881072,328881072,18,255,0,0,0,1494,1494,982,1494,1494,1496,1496,982,982,982,982,1494,1494,1494,1494,1494,998,998,0,0,4
328900605,328900605,18,255,0,0,0,1494,1492,982,1494,1494,1496,1496,982,982,982,982,1494,1494,1494,1494,1494,998,998,0,0,4
328924396,328924396,18,255,0,0,0,1494,1494,982,1494,1494,1496,1496,982,982,982,982,1494,1494,1494,1494,1494,998,998,0,0,4
328947573,328947573,18,255,0,0,0,1494,1492,982,1494,1494,1495,1495,982,982,982,982,1494,1494,1494,1494,1494,998,998,0,0,4
328967673,328967673,18,255,0,0,0,1494,1492,982,1494,1494,1496,1496,982,982,982,982,1494,1494,1494,1494,1494,998,998,0,0,4
328991632,328991632,18,255,0,0,0,1494,1492,982,1494,1494,1496,1496,982,982,982,982,1494,1494,1494,1494,1494,998,998,0,0,4
329011746,329011746,18,255,0,0,0,1494,1494,982,1494,1494,1496,1496,982,982,982,982,1494,1494,1494,1494,1494,998,998,0,0,4
329035805,329035805,18,255,0,0,0,1494,1492,982,1494,1494,1495,1495,982,982,982,982,1494,1494,1494,1494,1494,998,998,0,0,4
329057260,329057260,18,255,0,0,0,1493,1494,982,1494,1493,1496,1496,982,982,982,982,1494,1494,1494,1494,1494,998,998,0,0,4
329081386,329081386,18,255,0,0,0,1493,1494,982,1494,1493,1496,1496,982,982,982,982,1494,1494,1494,1494,1494,998,998,0,0,4
329105171,329105171,18,255,0,0,0,1494,1492,982,1494,1494,1495,1495,982,982,982,982,1494,1494,1494,1494,1494,998,998,0,0,4
329125178,329125178,18,255,0,0,0,1494,1494,982,1494,1494,1495,1495,982,982,982,982,1494,1494,1494,1494,1494,998,998,0,0,4
329149179,329149179,18,255,0,0,0,1494,1494,982,1494,1494,1496,1496,982,982,982,982,1494,1494,1494,1494,1494,998,998,0,0,4
329169996,329169996,18,255,0,0,0,1494,1492,982,1495,1494,1495,1495,982,982,982,982,1494,1494,1494,1494,1494,998,998,0,0,4
329194003,329194003,18,255,0,0,0,1494,1492,982,1494,1494,1496,1496,982,982,982,982,1494,1494,1494,1494,1494,998,998,0,0,4
329217865,329217865,18,255,0,0,0,1494,1494,982,1494,1494,1496,1496,982,982,982,982,1494,1494,1494,1494,1494,998,998,0,0,4
329242055,329242055,18,255,0,0,0,1494,1494,982,1494,1494,1496,1496,982,982,982,982,1494,1494,1494,1494,1494,998,998,0,0,4
329265414,329265414,18,255,0,0,0,1494,1494,982,1494,1494,1496,1496,982,982,982,982,1494,1494,1494,1494,1494,998,998,0,0,4
329289228,329289228,18,255,0,0,0,1494,1492,982,1494,1494,1496,1496,982,982,982,982,1494,1494,1494,1494,1494,998,998,0,0,4
329309623,329309623,18,255,0,0,0,1494,1492,982,1494,1494,1496,1496,982,982,982,982,1494,1494,1494,1494,1494,998,998,0,0,4
329329424,329329424,18,255,0,0,0,1494,1492,982,1494,1494,1496,1496,982,982,982,982,1494,1494,1494,1494,1494,998,998,0,0,4
329353384,329353384,18,255,0,0,0,1494,1492,982,1494,1494,1495,1495,982,982,982,982,1494,1494,1494,1494,1494,998,998,0,0,4
329373408,329373408,18,255,0,0,0,1494,1492,982,1494,1494,1496,1496,982,982,982,982,1494,1494,1494,1494,1494,998,998,0,0,4
329394363,329394363,18,255,0,0,0,1494,1492,982,1494,1494,1496,1496,982,982,982,982,1494,1494,1494,1494,1494,998,998,0,0,4
329418341,329418341,18,255,0,0,0,1494,1494,982,1494,1494,1496,1496,982,982,982,982,1494,1494,1494,1494,1494,998,998,0,0,4
329441212,329441212,18,255,0,0,0,1494,1492,982,1494,1494,1496,1496,982,982,982,982,1494,1494,1494,1494,1494,998,998,0,0,4
329461756,329461756,18,255,0,0,0,1494,1494,982,1494,1494,1496,1496,982,982,982,982,1494,1494,1494,1494,1494,998,998,0,0,4
329485808,329485808,18,255,0,0,0,1494,1492,982,1494,1494,1496,1496,982,982,982,982,1494,1494,1494,1494,1494,998,998,0,0,4
329510836,329510836,18,255,0,0,0,1494,1492,982,1494,1494,1496,1496,982,982,982,982,1494,1494,1494,1494,1494,998,998,0,0,4
329532020,329532020,18,255,0,0,0,1494,1492,982,1494,1494,1495,1495,982,982,982,982,1494,1494,1494,1494,1494,998,998,0,0,4
329555915,329555915,18,255,0,0,0,1494,1494,982,1494,1494,1496,1496,982,982,982,982,1494,1494,1494,1494,1494,998,998,0,0,4
329578821,329578821,18,255,0,0,0,1494,1492,982,1494,1494,1496,1496,982,982,982,982,1494,1494,1494,1494,1494,998,998,0,0,4
329600251,329600251,18,255,0,0,0,1494,1492,982,1494,1494,1496,1496,982,982,982,982,1494,1494,1494,1494,1494,998,998,0,0,4
329623618,329623618,18,255,0,0,0,1494,1492,982,1494,1494,1496,1496,982,982,982,982,1494,1494,1494,1494,1494,998,998,0,0,4
329647430,329647430,18,255,0,0,0,1492,1492,982,1494,1492,1496,1496,982,982,982,982,1494,1494,1494,1494,1494,998,998,0,0,4
329671924,329671924,18,255,0,0,0,1494,1492,982,1494,1494,1495,1495,982,982,982,982,1494,1494,1494,1494,1494,998,998,0,0,4
329695462,329695462,18,255,0,0,0,1494,1492,982,1494,1494,1496,1496,982,982,982,982,1494,1494,1494,1494,1494,998,998,0,0,4
329718821,329718821,18,255,0,0,0,1494,1494,982,1494,1494,1496,1496,982,982,982,982,1494,1494,1494,1494,1494,998,998,0,0,4
329738912,329738912,18,255,0,0,0,1494,1492,982,1494,1494,1496,1496,982,982,982,982,1494,1494,1494,1494,1494,998,998,0,0,4
329759243,329759243,18,255,0,0,0,1494,1494,982,1494,1494,1496,1496,982,982,982,982,1494,1494,1494,1494,1494,998,998,0,0,4
329782799,329782799,18,255,0,0,0,1493,1494,982,1494,1493,1495,1495,982,982,982,982,1494,1494,1494,1494,1494,998,998,0,0,4
329803452,329803452,18,255,0,0,0,1494,1492,982,1494,1494,1496,1496,982,982,982,982,1494,1494,1494,1494,1494,998,998,0,0,4
329823574,329823574,18,255,0,0,0,1494,1494,982,1494,1494,1496,1496,982,982,982,982,1494,1494,1494,1494,1494,998,998,0,0,4
329847569,329847569,18,255,0,0,0,1494,1494,982,1494,1494,1496,1496,982,982,982,982,1494,1494,1494,1494,1494,998,998,0,0,4
329870759,329870759,18,255,0,0,0,1494,1494,982,1494,1494,1496,1496,982,982,982,982,1494,1494,1494,1494,1494,998,998,0,0,4
329890779,329890779,18,255,0,0,0,1494,1492,982,1494,1494,1496,1496,982,982,982,982,1494,1494,1494,1494,1494,998,998,0,0,4
329911938,329911938,18,255,0,0,0,1494,1492,982,1494,1494,1496,1496,982,982,982,982,1494,1494,1494,1494,1494,998,998,0,0,4
329931958,329931958,18,255,0,0,0,1494,1492,982,1495,1494,1496,1496,982,982,982,982,1494,1494,1494,1494,1494,998,998,0,0,4
329954775,329954775,18,255,0,0,0,1494,1492,982,1494,1494,1495,1495,982,982,982,982,1494,1494,1494,1494,1494,998,998,0,0,4
329976295,329976295,18,255,0,0,0,1494,1494,982,1494,1494,1496,1496,982,982,982,982,1494,1494,1494,1494,1494,998,998,0,0,4
329996392,329996392,18,255,0,0,0,1494,1492,982,1494,1494,1496,1496,982,982,982,982,1494,1494,1494,1494,1494,998,998,0,0,4
330016783,330016783,18,255,0,0,0,1494,1492,982,1494,1494,1496,1496,982,982,982,982,1494,1494,1494,1494,1494,998,998,0,0,4
330037312,330037312,18,255,0,0,0,1494,1492,982,1495,1494,1495,1495,982,982,982,982,1494,1494,1494,1494,1494,998,998,0,0,4
330061247,330061247,18,255,0,0,0,1494,1494,982,1494,1494,1496,1496,982,982,982,982,1494,1494,1494,1494,1494,998,998,0,0,4
330084413,330084413,18,255,0,0,0,1494,1494,982,1494,1494,1496,1496,982,982,982,982,1494,1494,1494,1494,1494,998,998,0,0,4
330104448,330104448,18,255,0,0,0,1494,1492,982,1494,1494,1495,1495,982,982,982,982,1494,1494,1494,1494,1494,998,998,0,0,4
330125506,330125506,18,255,0,0,0,1494,1492,982,1494,1494,1496,1496,982,982,982,982,1494,1494,1494,1494,1494,998,998,0,0,4
330148634,330148634,18,255,0,0,0,1494,1492,982,1494,1494,1495,1495,982,982,982,982,1494,1494,1494,1494,1494,998,998,0,0,4
330168778,330168778,18,255,0,0,0,1494,1492,982,1494,1494,1496,1496,982,982,982,982,1494,1494,1494,1494,1494,998,998,0,0,4
330192396,330192396,18,255,0,0,0,1494,1492,982,1494,1494,1496,1496,982,982,982,982,1494,1494,1494,1494,1494,998,998,0,0,4
330213304,330213304,18,255,0,0,0,1494,1492,982,1494,1494,1496,1496,982,982,982,982,1494,1494,1494,1494,1494,998,998,0,0,4
330233766,330233766,18,255,0,0,0,1494,1494,982,1494,1494,1495,1495,982,982,982,982,1494,1494,1494,1494,1494,998,998,0,0,4
330257453,330257453,18,255,0,0,0,1494,1492,982,1494,1494,1496,1496,982,982,982,982,1494,1494,1494,1494,1494,998,998,0,0,4
330280717,330280717,18,255,0,0,0,1494,1492,982,1494,1494,1496,1496,982,982,982,982,1494,1494,1494,1494,1494,998,998,0,0,4
330300751,330300751,18,255,0,0,0,1493,1492,982,1494,1493,1495,1495,982,982,982,982,1494,1494,1494,1494,1494,998,998,0,0,4
330321642,330321642,18,255,0,0,0,1494,1494,982,1494,1494,1496,1496,982,982,982,982,1494,1494,1494,1494,1494,998,998,0,0,4
330345429,330345429,18,255,0,0,0,1494,1492,982,1494,1494,1496,1496,982,982,982,982,1494,1494,1494,1494,1494,998,998,0,0,4
330365525,330365525,18,255,0,0,0,1494,1492,982,1494,1494,1496,1496,982,982,982,982,1494,1494,1494,1494,1494,998,998,0,0,4
330389584,330389584,18,255,0,0,0,1494,1494,982,1494,1494,1496,1496,982,982,982,982,1494,1494,1494,1494,1494,998,998,0,0,4
330413845,330413845,18,255,0,0,0,1494,1492,982,1494,1494,1496,1496,982,982,982,982,1494,1494,1494,1494,1494,998,998,0,0,4
330435241,330435241,18,255,0,0,0,1494,1492,982,1494,1494,1496,1496,982,982,982,982,1494,1494,1494,1494,1494,998,998,0,0,4
330458688,330458688,18,255,0,0,0,1494,1492,982,1494,1494,1496,1496,982,982,982,982,1494,1494,1494,1494,1494,998,998,0,0,4
330485442,330485442,18,255,0,0,0,1494,1494,982,1494,1494,1496,1496,982,982,982,982,1494,1494,1494,1494,1494,998,998,0,0,4
330507088,330507088,18,255,0,0,0,1494,1492,982,1494,1494,1495,1495,982,982,982,982,1494,1494,1494,1494,1494,998,998,0,0,4
330531005,330531005,18,255,0,0,0,1494,1492,982,1494,1494,1496,1496,982,982,982,982,1494,1494,1494,1494,1494,998,998,0,0,4
330555019,330555019,18,255,0,0,0,1494,1492,982,1494,1494,1496,1496,982,982,982,982,1494,1494,1494,1494,1494,998,998,0,0,4
330578581,330578581,18,255,0,0,0,1494,1494,982,1494,1494,1496,1496,982,982,982,982,1494,1494,1494,1494,1494,998,998,0,0,4
330602428,330602428,18,255,0,0,0,1494,1494,982,1494,1494,1496,1496,982,982,982,982,1494,1494,1494,1494,1494,998,998,0,0,4
330626330,330626330,18,255,0,0,0,1494,1492,982,1494,1494,1496,1496,982,982,982,982,1494,1494,1494,1494,1494,998,998,0,0,4
330646433,330646433,18,255,0,0,0,1494,1494,982,1494,1494,1496,1496,982,982,982,982,1494,1494,1494,1494,1494,998,998,0,0,4
330670205,330670205,18,255,0,0,0,1494,1494,982,1494,1494,1496,1496,982,982,982,982,1494,1494,1494,1494,1494,998,998,0,0,4
330695251,330695251,18,255,0,0,0,1494,1494,982,1494,1494,1496,1496,982,982,982,982,1494,1494,1494,1494,1494,998,998,0,0,4
330719005,330719005,18,255,0,0,0,1494,1492,982,1494,1494,1496,1496,982,982,982,982,1494,1494,1494,1494,1494,998,998,0,0,4
330741852,330741852,18,255,0,0,0,1494,1492,982,1494,1494,1496,1496,982,982,982,982,1494,1494,1494,1494,1494,998,998,0,0,4
330763253,330763253,18,255,0,0,0,1494,1494,982,1494,1494,1496,1496,982,982,982,982,1494,1494,1494,1494,1494,998,998,0,0,4
330786619,330786619,18,255,0,0,0,1493,1494,982,1494,1493,1496,1496,982,982,982,982,1494,1494,1494,1494,1494,998,998,0,0,4
330806744,330806744,18,255,0,0,0,1494,1494,982,1494,1494,1496,1496,982,982,982,982,1494,1494,1494,1494,1494,998,998,0,0,4
330830023,330830023,18,255,0,0,0,1494,1494,982,1494,1494,1496,1496,982,982,982,982,1494,1494,1494,1494,1494,998,998,0,0,4
330850621,330850621,18,255,0,0,0,1494,1492,982,1494,1494,1496,1496,982,982,982,982,1494,1494,1494,1494,1494,998,998,0,0,4
330876207,330876207,18,255,0,0,0,1494,1492,982,1494,1494,1495,1495,982,982,982,982,1494,1494,1494,1494,1494,998,998,0,0,4
330896791,330896791,18,255,0,0,0,1494,1492,982,1494,1494,1496,1496,982,982,982,982,1494,1494,1494,1494,1494,998,998,0,0,4
330917260,330917260,18,255,0,0,0,1494,1494,982,1494,1494,1496,1496,982,982,982,982,1494,1494,1494,1494,1494,998,998,0,0,4
330936763,330936763,18,255,0,0,0,1493,1492,982,1494,1493,1496,1496,982,982,982,982,1494,1494,1494,1494,1494,998,998,0,0,4
330960522,330960522,18,255,0,0,0,1494,1492,982,1494,1494,1495,1495,982,982,982,982,1494,1494,1494,1494,1494,998,998,0,0,4
330983618,330983618,18,255,0,0,0,1494,1494,982,1494,1494,1496,1496,982,982,982,982,1494,1494,1494,1494,1494,998,998,0,0,4
331003633,331003633,18,255,0,0,0,1494,1492,982,1494,1494,1496,1496,982,982,982,982,1494,1494,1494,1494,1494,998,998,0,0,4
331024496,331024496,18,255,0,0,0,1494,1494,982,1494,1494,1496,1496,982,982,982,982,1494,1494,1494,1494,1494,998,998,0,0,4
331047558,331047558,18,255,0,0,0,1494,1494,982,1494,1494,1496,1496,982,982,982,982,1494,1494,1494,1494,1494,998,998,0,0,4
331071888,331071888,18,255,0,0,0,1494,1492,982,1495,1494,1496,1496,982,982,982,982,1494,1494,1494,1494,1494,998,998,0,0,4
331096628,331096628,18,255,0,0,0,1494,1494,982,1494,1494,1496,1496,982,982,982,982,1494,1494,1494,1494,1494,998,998,0,0,4
331120221,331120221,18,255,0,0,0,1494,1494,982,1494,1494,1495,1495,982,982,982,982,1494,1494,1494,1494,1494,998,998,0,0,4
331140397,331140397,18,255,0,0,0,1494,1494,982,1494,1494,1496,1496,982,982,982,982,1494,1494,1494,1494,1494,998,998,0,0,4
331165052,331165052,18,255,0,0,0,1494,1492,982,1495,1494,1496,1496,982,982,982,982,1494,1494,1494,1494,1494,998,998,0,0,4
331188368,331188368,18,255,0,0,0,1494,1494,982,1494,1494,1496,1496,982,982,982,982,1494,1494,1494,1494,1494,998,998,0,0,4
331208383,331208383,18,255,0,0,0,1494,1494,982,1494,1494,1496,1496,982,982,982,982,1494,1494,1494,1494,1494,998,998,0,0,4
331232370,331232370,18,255,0,0,0,1494,1494,982,1494,1494,1496,1496,982,982,982,982,1494,1494,1494,1494,1494,998,998,0,0,4
331254283,331254283,18,255,0,0,0,1493,1492,982,1494,1493,1496,1496,982,982,982,982,1494,1494,1494,1494,1494,998,998,0,0,4
331276066,331276066,18,255,0,0,0,1494,1492,982,1494,1494,1496,1496,982,982,982,982,1494,1494,1494,1494,1494,998,998,0,0,4
331297273,331297273,18,255,0,0,0,1494,1494,988,1494,1494,1495,1495,982,982,982,982,1494,1494,1494,1494,1494,998,998,0,0,4
331321452,331321452,18,255,0,0,0,1494,1492,997,1494,1494,1496,1496,982,982,982,982,1494,1494,1494,1494,1494,998,998,0,0,4
331345369,331345369,18,255,0,0,0,1492,1492,1018,1494,1492,1495,1495,982,982,982,982,1494,1494,1494,1494,1494,998,998,0,0,4
331366186,331366186,18,255,0,0,0,1494,1492,1028,1494,1494,1495,1495,982,982,982,982,1494,1494,1494,1494,1494,998,998,0,0,4
331386191,331386191,18,255,0,0,0,1494,1492,1047,1494,1494,1496,1496,982,982,982,982,1494,1494,1494,1494,1494,998,998,0,0,4
331410660,331410660,18,255,0,0,0,1494,1492,1056,1494,1494,1496,1496,982,982,982,982,1494,1494,1494,1494,1494,998,998,0,0,4
331430199,331430199,18,255,0,0,0,1494,1492,1065,1494,1494,1496,1496,982,982,982,982,1494,1494,1494,1494,1494,998,998,0,0,4
331454204,331454204,18,255,0,0,0,1494,1492,1088,1494,1494,1496,1496,982,982,982,982,1494,1494,1494,1494,1494,998,998,0,0,4
331478110,331478110,18,255,0,0,0,1494,1492,1108,1494,1494,1496,1496,982,982,982,982,1494,1494,1494,1494,1494,998,998,0,0,4
331501999,331501999,18,255,0,0,0,1494,1492,1117,1494,1494,1496,1496,982,982,982,982,1494,1494,1494,1494,1494,998,998,0,0,4
331521973,331521973,18,255,0,0,0,1494,1492,1128,1494,1494,1495,1495,982,982,982,982,1494,1494,1494,1494,1494,998,998,0,0,4
331542337,331542337,18,255,0,0,0,1494,1492,1157,1494,1494,1496,1496,982,982,982,982,1494,1494,1494,1494,1494,998,998,0,0,4
331563166,331563166,18,255,0,0,0,1494,1494,1171,1494,1494,1496,1496,982,982,982,982,1494,1494,1494,1494,1494,998,998,0,0,4
331585960,331585960,18,255,0,0,0,1494,1492,1185,1494,1494,1496,1496,982,982,982,982,1494,1494,1494,1494,1494,998,998,0,0,4
331606362,331606362,18,255,0,0,0,1494,1494,1202,1494,1494,1496,1496,982,982,982,982,1494,1494,1494,1494,1494,998,998,0,0,4
331631349,331631349,18,255,0,0,0,1494,1492,1231,1494,1494,1496,1496,982,982,982,982,1494,1494,1494,1494,1494,998,998,0,0,4
331652180,331652180,18,255,0,0,0,1493,1492,1245,1494,1493,1496,1496,982,982,982,982,1494,1494,1494,1494,1494,998,998,0,0,4
331672488,331672488,18,255,0,0,0,1494,1492,1251,1494,1494,1496,1496,982,982,982,982,1494,1494,1494,1494,1494,998,998,0,0,4
331697049,331697049,18,255,0,0,0,1494,1492,1266,1494,1494,1496,1496,982,982,982,982,1494,1494,1494,1494,1494,998,998,0,0,4
331716821,331716821,18,255,0,0,0,1494,1492,1276,1494,1494,1496,1496,982,982,982,982,1494,1494,1494,1494,1494,998,998,0,0,4
331740242,331740242,18,255,0,0,0,1494,1492,1307,1494,1494,1496,1496,982,982,982,982,1494,1494,1494,1494,1494,998,998,0,0,4
331760706,331760706,18,255,0,0,0,1493,1494,1325,1494,1493,1496,1496,982,982,982,982,1494,1494,1494,1494,1494,998,998,0,0,4
331780605,331780605,18,255,0,0,0,1494,1492,1343,1494,1494,1496,1496,982,982,982,982,1494,1494,1494,1494,1494,998,998,0,0,4
331804991,331804991,18,255,0,0,0,1494,1492,1358,1494,1494,1495,1495,982,982,982,982,1494,1494,1494,1494,1494,998,998,0,0,4
331828442,331828442,18,255,0,0,0,1494,1492,1393,1494,1494,1496,1496,982,982,982,982,1494,1494,1494,1494,1494,998,998,0,0,4
331850386,331850386,18,255,0,0,0,1494,1492,1407,1494,1494,1496,1496,982,982,982,982,1494,1494,1494,1494,1494,998,998,0,0,4
331871936,331871936,18,255,0,0,0,1494,1492,1421,1494,1494,1496,1496,982,982,982,982,1494,1494,1494,1494,1494,998,998,0,0,4
331892666,331892666,18,255,0,0,0,1493,1494,1431,1494,1493,1496,1496,982,982,982,982,1494,1494,1494,1494,1494,998,998,0,0,4
331916887,331916887,18,255,0,0,0,1494,1492,1449,1495,1494,1496,1496,982,982,982,982,1494,1494,1494,1494,1494,998,998,0,0,4
331940538,331940538,18,255,0,0,0,1494,1492,1470,1494,1494,1496,1496,982,982,982,982,1494,1494,1494,1494,1494,998,998,0,0,4
331964027,331964027,18,255,0,0,0,1494,1492,1476,1494,1494,1496,1496,982,982,982,982,1494,1494,1494,1494,1494,998,998,0,0,4
331987610,331987610,18,255,0,0,0,1494,1492,1482,1495,1494,1496,1496,982,982,982,982,1494,1494,1494,1494,1494,998,998,0,0,4
332007733,332007733,18,255,0,0,0,1492,1492,1490,1494,1492,1496,1496,982,982,982,982,1494,1494,1494,1494,1494,998,998,0,0,4
332028274,332028274,18,255,0,0,0,1494,1492,1507,1494,1494,1495,1495,982,982,982,982,1494,1494,1494,1494,1494,998,998,0,0,4
332048821,332048821,18,255,0,0,0,1494,1492,1514,1494,1494,1495,1496,982,982,982,982,1494,1494,1494,1494,1494,998,998,0,0,4
332075179,332075179,18,255,0,0,0,1494,1492,1524,1494,1494,1496,1496,982,982,982,982,1494,1494,1494,1494,1494,998,998,0,0,4
332097429,332097429,18,255,0,0,0,1494,1492,1535,1494,1494,1496,1496,982,982,982,982,1494,1494,1494,1494,1494,998,998,0,0,4
332117877,332117877,18,255,0,0,0,1494,1492,1558,1494,1494,1496,1496,982,982,982,982,1494,1494,1494,1494,1494,998,998,0,0,4
332141058,332141058,18,255,0,0,0,1494,1492,1568,1495,1494,1496,1496,982,982,982,982,1494,1494,1494,1494,1494,998,998,0,0,4
332162066,332162066,18,255,0,0,0,1492,1492,1577,1494,1492,1495,1495,982,982,982,982,1494,1494,1494,1494,1494,998,998,0,0,4
332182441,332182441,18,255,0,0,0,1494,1492,1591,1494,1494,1495,1495,982,982,982,982,1494,1494,1494,1494,1494,998,998,0,0,4
332206427,332206427,18,255,0,0,0,1494,1492,1614,1494,1494,1496,1496,982,982,982,982,1494,1494,1494,1494,1494,998,998,0,0,4
332226188,332226188,18,255,0,0,0,1494,1492,1622,1494,1494,1496,1496,982,982,982,982,1494,1494,1494,1494,1494,998,998,0,0,4
332250016,332250016,18,255,0,0,0,1494,1492,1635,1495,1494,1495,1495,982,982,982,982,1494,1494,1494,1494,1494,998,998,0,0,4
332276796,332276796,18,255,0,0,0,1494,1492,1645,1494,1494,1496,1496,982,982,982,982,1494,1494,1494,1494,1494,998,998,0,0,4
332297347,332297347,18,255,0,0,0,1494,1494,1679,1494,1494,1495,1495,982,982,982,982,1494,1494,1494,1494,1494,998,998,0,0,4
332317167,332317167,18,255,0,0,0,1494,1492,1695,1494,1494,1496,1496,982,982,982,982,1494,1494,1494,1494,1494,998,998,0,0,4
332341080,332341080,18,255,0,0,0,1493,1494,1708,1494,1493,1496,1496,982,982,982,982,1494,1494,1494,1494,1494,998,998,0,0,4
332361314,332361314,18,255,0,0,0,1494,1494,1726,1494,1494,1496,1496,982,982,982,982,1494,1494,1494,1494,1494,998,998,0,0,4
332382015,332382015,18,255,0,0,0,1494,1492,1737,1494,1494,1496,1496,982,982,982,982,1494,1494,1494,1494,1494,998,998,0,0,4
332406020,332406020,18,255,0,0,0,1494,1492,1750,1494,1494,1496,1496,982,982,982,982,1494,1494,1494,1494,1494,998,998,0,0,4
332429821,332429821,18,255,0,0,0,1494,1492,1761,1494,1494,1496,1496,982,982,982,982,1494,1494,1494,1494,1494,998,998,0,0,4
332453203,332453203,18,255,0,0,0,1494,1494,1765,1494,1494,1496,1496,982,982,982,982,1494,1494,1494,1494,1494,998,998,0,0,4
332473422,332473422,18,255,0,0,0,1494,1492,1770,1494,1494,1496,1496,982,982,982,982,1494,1494,1494,1494,1494,998,998,0,0,4
332494512,332494512,18,255,0,0,0,1494,1492,1799,1494,1494,1496,1496,982,982,982,982,1494,1494,1494,1494,1494,998,998,0,0,4
332520198,332520198,18,255,0,0,0,1494,1492,1813,1495,1494,1495,1495,982,982,982,982,1494,1494,1494,1494,1494,998,998,0,0,4
332542320,332542320,18,255,0,0,0,1494,1492,1818,1494,1494,1496,1496,982,982,982,982,1494,1494,1494,1494,1494,998,998,0,0,4
332563145,332563145,18,255,0,0,0,1494,1492,1822,1494,1494,1496,1496,982,982,982,982,1494,1494,1494,1494,1494,998,998,0,0,4
332583407,332583407,18,255,0,0,0,1494,1494,1824,1494,1494,1495,1495,982,982,982,982,1494,1494,1494,1494,1494,998,998,0,0,4
332607276,332607276,18,255,0,0,0,1494,1492,1827,1494,1494,1496,1496,982,982,982,982,1494,1494,1494,1494,1494,998,998,0,0,4
332628172,332628172,18,255,0,0,0,1494,1492,1827,1494,1494,1496,1496,982,982,982,982,1494,1494,1494,1494,1494,998,998,0,0,4
332651385,332651385,18,255,0,0,0,1494,1492,1827,1494,1494,1495,1495,982,982,982,982,1494,1494,1494,1494,1494,998,998,0,0,4
332675121,332675121,18,255,0,0,0,1494,1492,1827,1494,1494,1495,1495,982,982,982,982,1494,1494,1494,1494,1494,998,998,0,0,4
332699672,332699672,18,255,0,0,0,1494,1492,1822,1494,1494,1495,1495,982,982,982,982,1494,1494,1494,1494,1494,998,998,0,0,4
332722772,332722772,18,255,0,0,0,1494,1492,1813,1494,1494,1495,1495,982,982,982,982,1494,1494,1494,1494,1494,998,998,0,0,4
332743006,332743006,18,255,0,0,0,1494,1492,1799,1494,1494,1495,1495,982,982,982,982,1494,1494,1494,1494,1494,998,998,0,0,4
332763027,332763027,18,255,0,0,0,1494,1492,1785,1494,1494,1496,1496,982,982,982,982,1494,1494,1494,1494,1494,998,998,0,0,4
332786874,332786874,18,255,0,0,0,1494,1492,1745,1494,1494,1496,1496,982,982,982,982,1494,1494,1494,1494,1494,998,998,0,0,4
332807358,332807358,18,255,0,0,0,1494,1492,1722,1494,1494,1496,1496,982,982,982,982,1494,1494,1494,1494,1494,998,998,0,0,4
332830918,332830918,18,255,0,0,0,1494,1492,1694,1495,1494,1496,1496,982,982,982,982,1494,1494,1494,1494,1494,998,998,0,0,4
332851005,332851005,18,255,0,0,0,1494,1494,1660,1494,1494,1496,1496,982,982,982,982,1494,1494,1494,1494,1494,998,998,0,0,4
332875005,332875005,18,255,0,0,0,1492,1492,1588,1495,1492,1496,1496,982,982,982,982,1494,1494,1494,1494,1494,998,998,0,0,4
332898794,332898794,18,255,0,0,0,1494,1492,1545,1495,1494,1496,1496,982,982,982,982,1494,1494,1494,1494,1494,998,998,0,0,4
332918773,332918773,18,255,0,0,0,1494,1492,1507,1495,1494,1495,1495,982,982,982,982,1494,1494,1494,1494,1494,998,998,0,0,4
332938832,332938832,18,255,0,0,0,1494,1492,1472,1495,1494,1495,1495,982,982,982,982,1494,1494,1494,1494,1494,998,998,0,0,4
332959003,332959003,18,255,0,0,0,1494,1494,1435,1495,1494,1496,1496,982,982,982,982,1494,1494,1494,1494,1494,998,998,0,0,4
332979223,332979223,18,255,0,0,0,1494,1492,1397,1495,1494,1495,1495,982,982,982,982,1494,1494,1494,1494,1494,998,998,0,0,4
333000612,333000612,18,255,0,0,0,1494,1494,1321,1495,1494,1496,1496,982,982,982,982,1494,1494,1494,1494,1494,998,998,0,0,4
333021829,333021829,18,255,0,0,0,1494,1492,1290,1495,1494,1496,1496,982,982,982,982,1494,1494,1494,1494,1494,998,998,0,0,4
333044408,333044408,18,255,0,0,0,1494,1492,1258,1495,1494,1496,1496,982,982,982,982,1494,1494,1494,1494,1494,998,998,0,0,4
333065087,333065087,18,255,0,0,0,1494,1492,1234,1495,1494,1496,1496,982,982,982,982,1494,1494,1494,1494,1494,998,998,0,0,4
333089048,333089048,18,255,0,0,0,1494,1492,1185,1496,1494,1495,1495,982,982,982,982,1494,1494,1494,1494,1494,998,998,0,0,4
333109499,333109499,18,255,0,0,0,1494,1492,1152,1496,1494,1496,1496,982,982,982,982,1494,1494,1494,1494,1494,998,998,0,0,4
333133405,333133405,18,255,0,0,0,1494,1492,1123,1497,1494,1496,1496,982,982,982,982,1494,1494,1494,1494,1494,998,998,0,0,4
333157250,333157250,18,255,0,0,0,1493,1492,1098,1498,1493,1496,1496,982,982,982,982,1494,1494,1494,1494,1494,998,998,0,0,4
333177253,333177253,18,255,0,0,0,1494,1492,1088,1501,1494,1496,1496,982,982,982,982,1494,1494,1494,1494,1494,998,998,0,0,4
333201524,333201524,18,255,0,0,0,1494,1494,1050,1505,1494,1496,1496,982,982,982,982,1494,1494,1494,1494,1494,998,998,0,0,4
333224978,333224978,18,255,0,0,0,1494,1492,1020,1505,1494,1496,1496,982,982,982,982,1494,1494,1494,1494,1494,998,998,0,0,4
333248273,333248273,18,255,0,0,0,1494,1492,995,1502,1494,1495,1495,982,982,982,982,1494,1494,1494,1494,1494,998,998,0,0,4
333271660,333271660,18,255,0,0,0,1494,1492,982,1496,1494,1496,1496,982,982,982,982,1494,1494,1494,1494,1494,998,998,0,0,4
333292347,333292347,18,255,0,0,0,1494,1494,982,1495,1494,1496,1496,982,982,982,982,1494,1494,1494,1494,1494,998,998,0,0,4
333313570,333313570,18,255,0,0,0,1494,1492,982,1495,1494,1496,1496,982,982,982,982,1494,1494,1494,1494,1494,998,998,0,0,4
333337302,333337302,18,255,0,0,0,1494,1492,982,1495,1494,1496,1496,982,982,982,982,1494,1494,1494,1494,1494,998,998,0,0,4
333360875,333360875,18,255,0,0,0,1494,1492,982,1495,1494,1496,1496,982,982,982,982,1494,1494,1494,1494,1494,998,998,0,0,4
333384388,333384388,18,255,0,0,0,1494,1492,982,1495,1494,1496,1496,982,982,982,982,1494,1494,1494,1494,1494,998,998,0,0,4
333404373,333404373,18,255,0,0,0,1494,1492,982,1496,1494,1496,1496,982,982,982,982,1494,1494,1494,1494,1494,998,998,0,0,4
333425408,333425408,18,255,0,0,0,1494,1494,982,1495,1494,1496,1496,982,982,982,982,1494,1494,1494,1494,1494,998,998,0,0,4
333449992,333449992,18,255,0,0,0,1494,1494,982,1495,1494,1496,1496,982,982,982,982,1494,1494,1494,1494,1494,998,998,0,0,4
333473518,333473518,18,255,0,0,0,1494,1492,982,1495,1494,1496,1496,982,982,982,982,1494,1494,1494,1494,1494,998,998,0,0,4
333494913,333494913,18,255,0,0,0,1494,1492,982,1495,1494,1496,1496,982,982,982,982,1494,1494,1494,1494,1494,998,998,0,0,4
333519663,333519663,18,255,0,0,0,1494,1494,982,1496,1494,1496,1496,982,982,982,982,1494,1494,1494,1494,1494,998,998,0,0,4
333543005,333543005,18,255,0,0,0,1494,1492,982,1494,1494,1496,1496,982,982,982,982,1494,1494,1494,1494,1494,998,998,0,0,4
333566742,333566742,18,255,0,0,0,1493,1492,982,1496,1493,1495,1495,982,982,982,982,1494,1494,1494,1494,1494,998,998,0,0,4
333590515,333590515,18,255,0,0,0,1494,1487,982,1495,1494,1496,1496,982,982,982,982,1494,1494,1494,1494,1494,998,998,0,0,4
333611005,333611005,18,255,0,0,0,1493,1442,982,1495,1493,1495,1495,982,982,982,982,1494,1494,1494,1494,1494,998,998,0,0,4
333634648,333634648,18,255,0,0,0,1494,1410,982,1495,1494,1496,1496,982,982,982,982,1494,1494,1494,1494,1494,998,998,0,0,4
333658220,333658220,18,255,0,0,0,1494,1371,982,1496,1494,1496,1496,982,982,982,982,1494,1494,1494,1494,1494,998,998,0,0,4
333678825,333678825,18,255,0,0,0,1494,1322,982,1496,1494,1495,1495,982,982,982,982,1494,1494,1494,1494,1494,998,998,0,0,4
333699694,333699694,18,255,0,0,0,1494,1262,982,1496,1494,1495,1495,982,982,982,982,1494,1494,1494,1494,1494,998,998,0,0,4
333723005,333723005,18,255,0,0,0,1494,1156,982,1495,1494,1496,1496,982,982,982,982,1494,1494,1494,1494,1494,998,998,0,0,4
333747129,333747129,18,255,0,0,0,1494,1119,982,1495,1494,1496,1496,982,982,982,982,1494,1494,1494,1494,1494,998,998,0,0,4
333771668,333771668,18,255,0,0,0,1494,1110,982,1496,1494,1496,1496,982,982,982,982,1494,1494,1494,1494,1494,998,998,0,0,4
333794260,333794260,18,255,0,0,0,1494,1110,982,1495,1494,1496,1496,982,982,982,982,1494,1494,1494,1494,1494,998,998,0,0,4
333814003,333814003,18,255,0,0,0,1494,1110,982,1496,1494,1495,1495,982,982,982,982,1494,1494,1494,1494,1494,998,998,0,0,4
333834346,333834346,18,255,0,0,0,1494,1110,982,1495,1494,1496,1496,982,982,982,982,1494,1494,1494,1494,1494,998,998,0,0,4
333858669,333858669,18,255,0,0,0,1494,1147,982,1495,1494,1496,1496,982,982,982,982,1494,1494,1494,1494,1494,998,998,0,0,4
333881874,333881874,18,255,0,0,0,1492,1319,982,1495,1492,1496,1496,982,982,982,982,1494,1494,1494,1494,1494,998,998,0,0,4
333901973,333901973,18,255,0,0,0,1492,1427,982,1495,1492,1496,1496,982,982,982,982,1494,1494,1494,1494,1494,998,998,0,0,4
333923800,333923800,18,255,0,0,0,1492,1497,982,1495,1492,1496,1496,982,982,982,982,1494,1494,1494,1494,1494,998,998,0,0,4
333948349,333948349,18,255,0,0,0,1491,1524,982,1496,1491,1496,1496,982,982,982,982,1494,1494,1494,1494,1494,998,998,0,0,4
333968630,333968630,18,255,0,0,0,1492,1562,982,1495,1492,1496,1496,982,982,982,982,1494,1494,1494,1494,1494,998,998,0,0,4
333992319,333992319,18,255,0,0,0,1494,1637,982,1494,1494,1495,1495,982,982,982,982,1494,1494,1494,1494,1494,998,998,0,0,4
334015617,334015617,18,255,0,0,0,1494,1667,982,1495,1494,1496,1496,982,982,982,982,1494,1494,1494,1494,1494,998,998,0,0,4
334039811,334039811,18,255,0,0,0,1494,1687,982,1495,1494,1496,1496,982,982,982,982,1494,1494,1494,1494,1494,998,998,0,0,4
334063637,334063637,18,255,0,0,0,1494,1702,982,1495,1494,1496,1496,982,982,982,982,1494,1494,1494,1494,1494,998,998,0,0,4
334083618,334083618,18,255,0,0,0,1494,1700,982,1495,1494,1496,1496,982,982,982,982,1494,1494,1494,1494,1494,998,998,0,0,4
334104377,334104377,18,255,0,0,0,1493,1695,982,1496,1493,1496,1496,982,982,982,982,1494,1494,1494,1494,1494,998,998,0,0,4
334127844,334127844,18,255,0,0,0,1494,1672,982,1495,1494,1496,1496,982,982,982,982,1494,1494,1494,1494,1494,998,998,0,0,4
334151768,334151768,18,255,0,0,0,1494,1596,982,1495,1494,1496,1496,982,982,982,982,1494,1494,1494,1494,1494,998,998,0,0,4
334171567,334171567,18,255,0,0,0,1494,1546,982,1495,1494,1495,1495,982,982,982,982,1494,1494,1494,1494,1494,998,998,0,0,4
334191660,334191660,18,255,0,0,0,1494,1497,982,1495,1494,1496,1496,982,982,982,982,1494,1494,1494,1494,1494,998,998,0,0,4
334215912,334215912,18,255,0,0,0,1494,1492,982,1495,1494,1496,1496,982,982,982,982,1494,1494,1494,1494,1494,998,998,0,0,4
334240174,334240174,18,255,0,0,0,1494,1492,982,1496,1494,1496,1496,982,982,982,982,1494,1494,1494,1494,1494,998,998,0,0,4
334259927,334259927,18,255,0,0,0,1494,1492,982,1495,1494,1496,1496,982,982,982,982,1494,1494,1494,1494,1494,998,998,0,0,4
334283703,334283703,18,255,0,0,0,1494,1492,982,1496,1494,1495,1495,982,982,982,982,1494,1494,1494,1494,1494,998,998,0,0,4
334303833,334303833,18,255,0,0,0,1494,1492,982,1496,1494,1496,1496,982,982,982,982,1494,1494,1494,1494,1494,998,998,0,0,4
334327717,334327717,18,255,0,0,0,1494,1492,982,1496,1494,1495,1495,982,982,982,982,1494,1494,1494,1494,1494,998,998,0,0,4
334351839,334351839,18,255,0,0,0,1494,1492,982,1495,1494,1495,1495,982,982,982,982,1494,1494,1494,1494,1494,998,998,0,0,4
334373572,334373572,18,255,0,0,0,1494,1492,982,1495,1494,1496,1496,982,982,982,982,1494,1494,1494,1494,1494,998,998,0,0,4
334397510,334397510,18,255,0,0,0,1494,1492,982,1495,1494,1496,1496,982,982,982,982,1494,1494,1494,1494,1494,998,998,0,0,4
334421799,334421799,18,255,0,0,0,1494,1492,982,1495,1494,1495,1495,982,982,982,982,1494,1494,1494,1494,1494,998,998,0,0,4
334446237,334446237,18,255,0,0,0,1494,1492,982,1495,1494,1496,1496,982,982,982,982,1494,1494,1494,1494,1494,998,998,0,0,4
334469881,334469881,18,255,0,0,0,1494,1494,982,1495,1494,1496,1496,982,982,982,982,1494,1494,1494,1494,1494,998,998,0,0,4
334490106,334490106,18,255,0,0,0,1494,1492,982,1495,1494,1496,1496,982,982,982,982,1494,1494,1494,1494,1494,998,998,0,0,4
334514394,334514394,18,255,0,0,0,1493,1492,982,1495,1493,1496,1496,982,982,982,982,1494,1494,1494,1494,1494,998,998,0,0,4
334538299,334538299,18,255,0,0,0,1494,1492,982,1495,1494,1496,1496,982,982,982,982,1494,1494,1494,1494,1494,998,998,0,0,4
334562388,334562388,18,255,0,0,0,1494,1492,982,1495,1494,1496,1496,982,982,982,982,1494,1494,1494,1494,1494,998,998,0,0,4
334585775,334585775,18,255,0,0,0,1494,1492,982,1496,1494,1496,1496,982,982,982,982,1494,1494,1494,1494,1494,998,998,0,0,4
334609155,334609155,18,255,0,0,0,1494,1492,982,1496,1494,1496,1496,982,982,982,982,1494,1494,1494,1494,1494,998,998,0,0,4
334629410,334629410,18,255,0,0,0,1494,1492,982,1496,1494,1496,1496,982,982,982,982,1494,1494,1494,1494,1494,998,998,0,0,4
334649391,334649391,18,255,0,0,0,1494,1492,982,1496,1494,1496,1496,982,982,982,982,1494,1494,1494,1494,1494,998,998,0,0,4
334672698,334672698,18,255,0,0,0,1494,1492,982,1495,1494,1496,1496,982,982,982,982,1494,1494,1494,1494,1494,998,998,0,0,4
334694825,334694825,18,255,0,0,0,1494,1492,982,1495,1494,1495,1495,982,982,982,982,1494,1494,1494,1494,1494,998,998,0,0,4
334714371,334714371,18,255,0,0,0,1493,1492,982,1495,1493,1496,1496,982,982,982,982,1494,1494,1494,1494,1494,998,998,0,0,4
334738222,334738222,18,255,0,0,0,1493,1492,982,1496,1493,1496,1496,982,982,982,982,1494,1494,1494,1494,1494,998,998,0,0,4
334762357,334762357,18,255,0,0,0,1494,1492,982,1495,1494,1496,1496,982,982,982,982,1494,1494,1494,1494,1494,998,998,0,0,4
334785429,334785429,18,255,0,0,0,1494,1492,982,1495,1494,1496,1496,982,982,982,982,1494,1494,1494,1494,1494,998,998,0,0,4
334806282,334806282,18,255,0,0,0,1494,1492,982,1495,1494,1496,1496,982,982,982,982,1494,1494,1494,1494,1494,998,998,0,0,4
334827222,334827222,18,255,0,0,0,1494,1492,982,1496,1494,1495,1495,982,982,982,982,1494,1494,1494,1494,1494,998,998,0,0,4
334847247,334847247,18,255,0,0,0,1494,1492,982,1495,1494,1496,1496,982,982,982,982,1494,1494,1494,1494,1494,998,998,0,0,4
334872175,334872175,18,255,0,0,0,1494,1492,982,1495,1494,1496,1496,982,982,982,982,1494,1494,1494,1494,1494,998,998,0,0,4
334896065,334896065,18,255,0,0,0,1494,1492,982,1495,1494,1496,1496,982,982,982,982,1494,1494,1494,1494,1494,998,998,0,0,4
334920165,334920165,18,255,0,0,0,1494,1492,982,1495,1494,1496,1496,982,982,982,982,1494,1494,1494,1494,1494,998,998,0,0,4
334943010,334943010,18,255,0,0,0,1494,1492,982,1496,1494,1496,1496,982,982,982,982,1494,1494,1494,1494,1494,998,998,0,0,4
334963899,334963899,18,255,0,0,0,1493,1492,982,1495,1493,1496,1496,982,982,982,982,1494,1494,1494,1494,1494,998,998,0,0,4
334987699,334987699,18,255,0,0,0,1494,1492,982,1496,1494,1496,1496,982,982,982,982,1494,1494,1494,1494,1494,998,998,0,0,4
335009735,335009735,18,255,0,0,0,1494,1492,982,1495,1494,1496,1496,982,982,982,982,1494,1494,1494,1494,1494,998,998,0,0,4
335031091,335031091,18,255,0,0,0,1494,1492,982,1494,1494,1496,1496,982,982,982,982,1494,1494,1494,1494,1494,998,998,0,0,4
335051730,335051730,18,255,0,0,0,1494,1492,982,1495,1494,1496,1496,982,982,982,982,1494,1494,1494,1494,1494,998,998,0,0,4
335075387,335075387,18,255,0,0,0,1492,1492,982,1495,1492,1496,1496,982,982,982,982,1494,1494,1494,1494,1494,998,998,0,0,4
335099948,335099948,18,255,0,0,0,1494,1492,982,1496,1494,1496,1496,982,982,982,982,1494,1494,1494,1494,1494,998,998,0,0,4
335120171,335120171,18,255,0,0,0,1494,1492,982,1495,1494,1496,1496,982,982,982,982,1494,1494,1494,1494,1494,998,998,0,0,4
335144235,335144235,18,255,0,0,0,1494,1492,982,1495,1494,1496,1496,982,982,982,982,1494,1494,1494,1494,1494,998,998,0,0,4
335166789,335166789,18,255,0,0,0,1493,1492,982,1495,1493,1495,1495,982,982,982,982,1494,1494,1494,1494,1494,998,998,0,0,4
335187808,335187808,18,255,0,0,0,1494,1492,982,1495,1494,1496,1496,982,982,982,982,1494,1494,1494,1494,1494,998,998,0,0,4
335207834,335207834,18,255,0,0,0,1494,1492,982,1496,1494,1496,1496,982,982,982,982,1494,1494,1494,1494,1494,998,998,0,0,4
335231623,335231623,18,255,0,0,0,1494,1492,982,1496,1494,1496,1496,982,982,982,982,1494,1494,1494,1494,1494,998,998,0,0,4
335254920,335254920,18,255,0,0,0,1494,1492,982,1495,1494,1495,1495,982,982,982,982,1494,1494,1494,1494,1494,998,998,0,0,4
335276586,335276586,18,255,0,0,0,1494,1492,982,1495,1494,1496,1496,982,982,982,982,1494,1494,1494,1494,1494,998,998,0,0,4
335296997,335296997,18,255,0,0,0,1494,1492,982,1495,1494,1496,1496,982,982,982,982,1494,1494,1494,1494,1494,998,998,0,0,4
335320408,335320408,18,255,0,0,0,1494,1492,982,1496,1494,1495,1495,982,982,982,982,1494,1494,1494,1494,1494,998,998,0,0,4
335344892,335344892,18,255,0,0,0,1494,1492,982,1495,1494,1496,1496,982,982,982,982,1494,1494,1494,1494,1494,998,998,0,0,4
335365704,335365704,18,255,0,0,0,1494,1494,982,1496,1494,1496,1496,982,982,982,982,1494,1494,1494,1494,1494,998,998,0,0,4
335389248,335389248,18,255,0,0,0,1494,1492,982,1496,1494,1496,1496,982,982,982,982,1494,1494,1494,1494,1494,998,998,0,0,4
335409405,335409405,18,255,0,0,0,1494,1492,982,1496,1494,1495,1495,982,982,982,982,1494,1494,1494,1494,1494,998,998,0,0,4
335434076,335434076,18,255,0,0,0,1493,1492,982,1496,1493,1496,1496,982,982,982,982,1494,1494,1494,1494,1494,998,998,0,0,4
335457255,335457255,18,255,0,0,0,1494,1492,982,1496,1494,1496,1496,982,982,982,982,1494,1494,1494,1494,1494,998,998,0,0,4
335477885,335477885,18,255,0,0,0,1494,1492,982,1495,1494,1496,1496,982,982,982,982,1494,1494,1494,1494,1494,998,998,0,0,4
335503139,335503139,18,255,0,0,0,1493,1492,982,1496,1493,1496,1496,982,982,982,982,1494,1494,1494,1494,1494,998,998,0,0,4
335525202,335525202,18,255,0,0,0,1494,1492,982,1495,1494,1496,1496,982,982,982,982,1494,1494,1494,1494,1494,998,998,0,0,4
335548610,335548610,18,255,0,0,0,1494,1492,982,1496,1494,1495,1495,982,982,982,982,1494,1494,1494,1494,1494,998,998,0,0,4
335568727,335568727,18,255,0,0,0,1494,1492,982,1495,1494,1495,1495,982,982,982,982,1494,1494,1494,1494,1494,998,998,0,0,4
335589237,335589237,18,255,0,0,0,1493,1492,982,1495,1493,1496,1496,982,982,982,982,1494,1494,1494,1494,1494,998,998,0,0,4
335609542,335609542,18,255,0,0,0,1494,1492,982,1495,1494,1495,1495,982,982,982,982,1494,1494,1494,1494,1494,998,998,0,0,4
335629121,335629121,18,255,0,0,0,1494,1492,982,1495,1494,1495,1495,982,982,982,982,1494,1494,1494,1494,1494,998,998,0,0,4
335649254,335649254,18,255,0,0,0,1494,1492,982,1495,1494,1496,1496,982,982,982,982,1494,1494,1494,1494,1494,998,998,0,0,4
335669273,335669273,18,255,0,0,0,1493,1492,982,1495,1493,1496,1496,982,982,982,982,1494,1494,1494,1494,1494,998,998,0,0,4
335690008,335690008,18,255,0,0,0,1494,1492,982,1495,1494,1496,1496,982,982,982,982,1494,1494,1494,1494,1494,998,998,0,0,4
335715156,335715156,18,255,0,0,0,1494,1492,982,1495,1494,1496,1496,982,982,982,982,1494,1494,1494,1494,1494,998,998,0,0,4
335737384,335737384,18,255,0,0,0,1494,1492,982,1495,1494,1495,1495,982,982,982,982,1494,1494,1494,1494,1494,998,998,0,0,4
335758281,335758281,18,255,0,0,0,1494,1492,982,1495,1494,1496,1496,982,982,982,982,1494,1494,1494,1494,1494,998,998,0,0,4
335778902,335778902,18,255,0,0,0,1494,1494,982,1495,1494,1496,1496,982,982,982,982,1494,1494,1494,1494,1494,998,998,0,0,4
335802755,335802755,18,255,0,0,0,1494,1492,982,1495,1494,1496,1496,982,982,982,982,1494,1494,1494,1494,1494,998,998,0,0,4
335823342,335823342,18,255,0,0,0,1493,1492,982,1495,1493,1495,1495,982,982,982,982,1494,1494,1494,1494,1494,998,998,0,0,4
335846903,335846903,18,255,0,0,0,1494,1492,982,1495,1494,1496,1496,982,982,982,982,1494,1494,1494,1494,1494,998,998,0,0,4
335870882,335870882,18,255,0,0,0,1493,1492,982,1495,1493,1496,1496,982,982,982,982,1494,1494,1494,1494,1494,998,998,0,0,4
335895448,335895448,18,255,0,0,0,1494,1492,982,1496,1494,1496,1496,982,982,982,982,1494,1494,1494,1494,1494,998,998,0,0,4
335914782,335914782,18,255,0,0,0,1494,1492,982,1495,1494,1496,1496,982,982,982,982,1494,1494,1494,1494,1494,998,998,0,0,4
335934917,335934917,18,255,0,0,0,1494,1492,982,1495,1494,1495,1495,982,982,982,982,1494,1494,1494,1494,1494,998,998,0,0,4
335958128,335958128,18,255,0,0,0,1494,1492,982,1496,1494,1496,1496,982,982,982,982,1494,1494,1494,1494,1494,998,998,0,0,4
335978618,335978618,18,255,0,0,0,1493,1492,982,1495,1493,1495,1495,982,982,982,982,1494,1494,1494,1494,1494,998,998,0,0,4
336003249,336003249,18,255,0,0,0,1494,1492,982,1495,1494,1496,1496,982,982,982,982,1494,1494,1494,1494,1494,998,998,0,0,4
336022784,336022784,18,255,0,0,0,1494,1492,982,1495,1494,1496,1495,982,982,982,982,1494,1494,1494,1494,1494,998,998,0,0,4
336046190,336046190,18,255,0,0,0,1494,1492,982,1495,1494,1496,1496,982,982,982,982,1494,1494,1494,1494,1494,998,998,0,0,4
336066608,336066608,18,255,0,0,0,1494,1492,982,1495,1494,1496,1496,982,982,982,982,1494,1494,1494,1494,1494,998,998,0,0,4
336091743,336091743,18,255,0,0,0,1494,1492,982,1495,1494,1495,1495,982,982,982,982,1494,1494,1494,1494,1494,998,998,0,0,4
336114791,336114791,18,255,0,0,0,1494,1492,982,1495,1494,1496,1496,982,982,982,982,1494,1494,1494,1494,1494,998,998,0,0,4
336138558,336138558,18,255,0,0,0,1494,1492,982,1495,1494,1496,1496,982,982,982,982,1494,1494,1494,1494,1494,998,998,0,0,4
336164764,336164764,18,255,0,0,0,1494,1492,982,1496,1494,1496,1496,982,982,982,982,1494,1494,1494,1494,1494,998,998,0,0,4
336186847,336186847,18,255,0,0,0,1494,1492,982,1495,1494,1496,1496,982,982,982,982,1494,1494,1494,1494,1494,998,998,0,0,4
336208128,336208128,18,255,0,0,0,1494,1492,982,1495,1494,1496,1496,982,982,982,982,1494,1494,1494,1494,1494,998,998,0,0,4
336231978,336231978,18,255,0,0,0,1494,1492,982,1495,1494,1496,1496,982,982,982,982,1494,1494,1494,1494,1494,998,998,0,0,4
336256512,336256512,18,255,0,0,0,1494,1492,982,1495,1494,1495,1495,982,982,982,982,1494,1494,1494,1494,1494,998,998,0,0,4
336275677,336275677,18,255,0,0,0,1494,1492,982,1495,1494,1495,1495,982,982,982,982,1494,1494,1494,1494,1494,998,998,0,0,4
336295618,336295618,18,255,0,0,0,1494,1492,982,1496,1494,1495,1495,982,982,982,982,1494,1494,1494,1494,1494,998,998,0,0,4
336316615,336316615,18,255,0,0,0,1494,1494,982,1495,1494,1496,1496,982,982,982,982,1494,1494,1494,1494,1494,998,998,0,0,4
336341183,336341183,18,255,0,0,0,1494,1492,982,1496,1494,1496,1496,982,982,982,982,1494,1494,1494,1494,1494,998,998,0,0,4
336367037,336367037,18,255,0,0,0,1494,1492,982,1495,1494,1496,1496,982,982,982,982,1494,1494,1494,1494,1494,998,998,0,0,4
336387720,336387720,18,255,0,0,0,1494,1492,982,1496,1494,1496,1496,982,982,982,982,1494,1494,1494,1494,1494,998,998,0,0,4
336407623,336407623,18,255,0,0,0,1494,1492,982,1496,1494,1495,1495,982,982,982,982,1494,1494,1494,1494,1494,998,998,0,0,4
336428234,336428234,18,255,0,0,0,1494,1494,982,1496,1494,1496,1496,982,982,982,982,1494,1494,1494,1494,1494,998,998,0,0,4
336452394,336452394,18,255,0,0,0,1494,1492,982,1496,1494,1496,1496,982,982,982,982,1494,1494,1494,1494,1494,998,998,0,0,4
336476499,336476499,18,255,0,0,0,1494,1492,982,1495,1494,1496,1496,982,982,982,982,1494,1494,1494,1494,1494,998,998,0,0,4
336500279,336500279,18,255,0,0,0,1494,1492,982,1495,1494,1496,1496,982,982,982,982,1494,1494,1494,1494,1494,998,998,0,0,4
336523688,336523688,18,255,0,0,0,1494,1492,982,1495,1494,1496,1496,982,982,982,982,1494,1494,1494,1494,1494,998,998,0,0,4
336545188,336545188,18,255,0,0,0,1494,1492,982,1495,1494,1496,1496,982,982,982,982,1494,1494,1494,1494,1494,998,998,0,0,4
336564755,336564755,18,255,0,0,0,1494,1492,982,1495,1494,1495,1495,982,982,982,982,1494,1494,1494,1494,1494,998,998,0,0,4
336588429,336588429,18,255,0,0,0,1494,1492,982,1495,1494,1496,1496,982,982,982,982,1494,1494,1494,1494,1494,998,998,0,0,4
336613316,336613316,18,255,0,0,0,1494,1492,982,1496,1494,1496,1496,982,982,982,982,1494,1494,1494,1494,1494,998,998,0,0,4
336635541,336635541,18,255,0,0,0,1494,1494,982,1495,1494,1496,1496,982,982,982,982,1494,1494,1494,1494,1494,998,998,0,0,4
336656373,336656373,18,255,0,0,0,1494,1492,982,1495,1494,1495,1495,982,982,982,982,1494,1494,1494,1494,1494,998,998,0,0,4
336677061,336677061,18,255,0,0,0,1494,1492,982,1495,1494,1496,1496,982,982,982,982,1494,1494,1494,1494,1494,998,998,0,0,4
336698059,336698059,18,255,0,0,0,1494,1492,982,1495,1494,1496,1496,982,982,982,982,1494,1494,1494,1494,1494,998,998,0,0,4
336722521,336722521,18,255,0,0,0,1494,1492,982,1495,1494,1496,1496,982,982,982,982,1494,1494,1494,1494,1494,998,998,0,0,4
336742488,336742488,18,255,0,0,0,1494,1492,982,1495,1494,1495,1495,982,982,982,982,1494,1494,1494,1494,1494,998,998,0,0,4
336765236,336765236,18,255,0,0,0,1494,1492,982,1494,1494,1496,1496,982,982,982,982,1494,1494,1494,1494,1494,998,998,0,0,4
336785982,336785982,18,255,0,0,0,1494,1492,982,1495,1494,1495,1495,982,982,982,982,1494,1494,1494,1494,1494,998,998,0,0,4
336805997,336805997,18,255,0,0,0,1494,1492,982,1494,1494,1496,1496,982,982,982,982,1494,1494,1494,1494,1494,998,998,0,0,4
336830660,336830660,18,255,0,0,0,1494,1492,982,1495,1494,1496,1496,982,982,982,982,1494,1494,1494,1494,1494,998,998,0,0,4
336853699,336853699,18,255,0,0,0,1494,1492,982,1494,1494,1496,1496,982,982,982,982,1494,1494,1494,1494,1494,998,998,0,0,4
336877678,336877678,18,255,0,0,0,1494,1492,982,1494,1494,1496,1496,982,982,982,982,1494,1494,1494,1494,1494,998,998,0,0,4
336897877,336897877,18,255,0,0,0,1494,1494,982,1495,1494,1495,1495,982,982,982,982,1494,1494,1494,1494,1494,998,998,0,0,4
336922243,336922243,18,255,0,0,0,1494,1494,982,1494,1494,1496,1496,982,982,982,982,1494,1494,1494,1494,1494,998,998,0,0,4
336945201,336945201,18,255,0,0,0,1494,1492,982,1495,1494,1495,1495,982,982,982,982,1494,1494,1494,1494,1494,998,998,0,0,4
336965959,336965959,18,255,0,0,0,1494,1492,982,1495,1494,1496,1496,982,982,982,982,1494,1494,1494,1494,1494,998,998,0,0,4
336990349,336990349,18,255,0,0,0,1494,1492,982,1494,1494,1496,1496,982,982,982,982,1494,1494,1494,1494,1494,998,998,0,0,4
337013250,337013250,18,255,0,0,0,1494,1492,982,1494,1494,1495,1495,982,982,982,982,1494,1494,1494,1494,1494,998,998,0,0,4
337034008,337034008,18,255,0,0,0,1494,1492,982,1495,1494,1496,1496,982,982,982,982,1494,1494,1494,1494,1494,998,998,0,0,4
337054230,337054230,18,255,0,0,0,1494,1492,982,1494,1494,1496,1496,982,982,982,982,1494,1494,1494,1494,1494,998,998,0,0,4
337076020,337076020,18,255,0,0,0,1494,1492,982,1494,1494,1496,1496,982,982,982,982,1494,1494,1494,1494,1494,998,998,0,0,4
337097070,337097070,18,255,0,0,0,1494,1492,982,1494,1494,1496,1496,982,982,982,982,1494,1494,1494,1494,1494,998,998,0,0,4
337118667,337118667,18,255,0,0,0,1494,1494,982,1494,1494,1496,1496,982,982,982,982,1494,1494,1494,1494,1494,998,998,0,0,4
337139854,337139854,18,255,0,0,0,1494,1492,982,1494,1494,1495,1495,982,982,982,982,1494,1494,1494,1494,1494,998,998,0,0,4
337160175,337160175,18,255,0,0,0,1494,1492,982,1494,1494,1495,1495,982,982,982,982,1494,1494,1494,1494,1494,998,998,0,0,4
337184501,337184501,18,255,0,0,0,1494,1492,982,1494,1494,1495,1495,982,982,982,982,1494,1494,1494,1494,1494,998,998,0,0,4
337206777,337206777,18,255,0,0,0,1494,1492,982,1495,1494,1496,1496,982,982,982,982,1494,1494,1494,1494,1494,998,998,0,0,4
337227674,337227674,18,255,0,0,0,1494,1492,982,1494,1494,1495,1495,982,982,982,982,1494,1494,1494,1494,1494,998,998,0,0,4
337251584,337251584,18,255,0,0,0,1494,1492,982,1494,1494,1495,1495,982,982,982,982,1494,1494,1494,1494,1494,998,998,0,0,4
337274563,337274563,18,255,0,0,0,1494,1492,982,1495,1494,1496,1496,982,982,982,982,1494,1494,1494,1494,1494,998,998,0,0,4
337294901,337294901,18,255,0,0,0,1494,1492,982,1494,1494,1496,1496,982,982,982,982,1494,1494,1494,1494,1494,998,998,0,0,4
337315477,337315477,18,255,0,0,0,1494,1492,982,1494,1494,1496,1496,982,982,982,982,1494,1494,1494,1494,1494,998,998,0,0,4
337340020,337340020,18,255,0,0,0,1494,1492,982,1494,1494,1496,1496,982,982,982,982,1494,1494,1494,1494,1494,998,998,0,0,4
337365548,337365548,18,255,0,0,0,1494,1492,982,1494,1494,1496,1496,982,982,982,982,1494,1494,1494,1494,1494,998,998,0,0,4
337387805,337387805,18,255,0,0,0,1494,1492,982,1494,1494,1496,1496,982,982,982,982,1494,1494,1494,1494,1494,998,998,0,0,4
337407710,337407710,18,255,0,0,0,1494,1492,982,1494,1494,1496,1496,982,982,982,982,1494,1494,1494,1494,1494,998,998,0,0,4
337431250,337431250,18,255,0,0,0,1494,1492,982,1494,1494,1495,1495,982,982,982,982,1494,1494,1494,1494,1494,998,998,0,0,4
337451323,337451323,18,255,0,0,0,1494,1492,982,1495,1494,1496,1496,982,982,982,982,1494,1494,1494,1494,1494,998,998,0,0,4
337472191,337472191,18,255,0,0,0,1494,1492,982,1495,1494,1496,1496,982,982,982,982,1494,1494,1494,1494,1494,998,998,0,0,4
337495960,337495960,18,255,0,0,0,1494,1492,982,1494,1494,1496,1496,982,982,982,982,1494,1494,1494,1494,1494,998,998,0,0,4
337518907,337518907,18,255,0,0,0,1494,1492,982,1494,1494,1496,1496,982,982,982,982,1494,1494,1494,1494,1494,998,998,0,0,4
337539401,337539401,18,255,0,0,0,1494,1492,982,1494,1494,1495,1495,982,982,982,982,1494,1494,1494,1494,1494,998,998,0,0,4
337560781,337560781,18,255,0,0,0,1493,1492,982,1494,1493,1496,1496,982,982,982,982,1494,1494,1494,1494,1494,998,998,0,0,4
337581804,337581804,18,255,0,0,0,1494,1492,982,1494,1494,1496,1496,982,982,982,982,1494,1494,1494,1494,1494,998,998,0,0,4
337601515,337601515,18,255,0,0,0,1494,1492,982,1494,1494,1496,1496,982,982,982,982,1494,1494,1494,1494,1494,998,998,0,0,4
337625173,337625173,18,255,0,0,0,1494,1492,982,1495,1494,1496,1496,982,982,982,982,1494,1494,1494,1494,1494,998,998,0,0,4
337648770,337648770,18,255,0,0,0,1494,1492,982,1494,1494,1496,1496,982,982,982,982,1494,1494,1494,1494,1494,998,998,0,0,4
337668993,337668993,18,255,0,0,0,1494,1492,982,1494,1494,1496,1496,982,982,982,982,1494,1494,1494,1494,1494,998,998,0,0,4
337689766,337689766,18,255,0,0,0,1494,1492,982,1494,1494,1495,1495,982,982,982,982,1494,1494,1494,1494,1494,998,998,0,0,4
337709401,337709401,18,255,0,0,0,1494,1492,982,1494,1494,1496,1496,982,982,982,982,1494,1494,1494,1494,1494,998,998,0,0,4
337733308,337733308,18,255,0,0,0,1493,1492,982,1494,1493,1496,1496,982,982,982,982,1494,1494,1494,1494,1494,998,998,0,0,4
337753408,337753408,18,255,0,0,0,1494,1492,982,1494,1494,1496,1496,982,982,982,982,1494,1494,1494,1494,1494,998,998,0,0,4
337777289,337777289,18,255,0,0,0,1494,1492,982,1494,1494,1496,1496,982,982,982,982,1494,1494,1494,1494,1494,998,998,0,0,4
337801181,337801181,18,255,0,0,0,1494,1492,982,1494,1494,1496,1496,982,982,982,982,1494,1494,1494,1494,1494,998,998,0,0,4
337825010,337825010,18,255,0,0,0,1494,1492,982,1494,1494,1496,1496,982,982,982,982,1494,1494,1494,1494,1494,998,998,0,0,4
337849263,337849263,18,255,0,0,0,1494,1492,982,1494,1494,1496,1496,982,982,982,982,1494,1494,1494,1494,1494,998,998,0,0,4
337873444,337873444,18,255,0,0,0,1494,1492,982,1494,1494,1495,1495,982,982,982,982,1494,1494,1494,1494,1494,998,998,0,0,4
337896423,337896423,18,255,0,0,0,1494,1492,982,1494,1494,1496,1496,982,982,982,982,1494,1494,1494,1494,1494,998,998,0,0,4
337920888,337920888,18,255,0,0,0,1494,1492,982,1494,1494,1496,1496,982,982,982,982,1494,1494,1494,1494,1494,998,998,0,0,4
337941770,337941770,18,255,0,0,0,1494,1492,982,1494,1494,1496,1496,982,982,982,982,1494,1494,1494,1494,1494,998,998,0,0,4
337961258,337961258,18,255,0,0,0,1494,1492,982,1494,1494,1496,1496,982,982,982,982,1494,1494,1494,1494,1494,998,998,0,0,4
337985512,337985512,18,255,0,0,0,1494,1494,982,1494,1494,1496,1496,982,982,982,982,1494,1494,1494,1494,1494,998,998,0,0,4
338010898,338010898,18,255,0,0,0,1494,1492,982,1494,1494,1496,1496,982,982,982,982,1494,1494,1494,1494,1494,998,998,0,0,4
