timestamp,roll_body,pitch_body,yaw_body,yaw_sp_move_rate,q_d[0],q_d[1],q_d[2],q_d[3],thrust,landing_gear,q_d_valid,roll_reset_integral,pitch_reset_integral,yaw_reset_integral,fw_control_yaw,disable_mc_yaw_control,apply_flaps
265652038,0.0143228,0.0,1.04526,0.0,0.866488,0.00620539,0.00357465,0.499146,0.0,0.0,1,0,0,0,0,0,0
630893039,0.0,0.0,1.04526,0.0,0.86651,0.0,0.0,0.499159,0.0,0.0,1,0,0,0,0,0,0
630913028,0.0,0.0,1.04526,0.0,0.86651,0.0,0.0,0.499159,0.0,0.0,1,0,0,0,0,0,0
630933230,-0.708284,0.185694,-0.380681,0.0,0.923121,-0.322604,0.150717,-0.145117,0.647306,0.0,1,0,0,0,0,0,0
630953166,-0.708208,0.176687,-0.379704,0.0,0.923286,-0.323575,0.146449,-0.146271,0.645008,0.0,1,0,0,0,0,0,0
630973187,-0.707778,0.167684,-0.379704,0.0,0.923419,-0.324302,0.142312,-0.147898,0.643752,0.0,1,0,0,0,0,0,0
630993225,-0.707202,0.158683,-0.382162,0.0,0.923372,-0.324785,0.13856,-0.150664,0.643496,0.0,1,0,0,0,0,0,0
631013226,-0.706503,0.149706,-0.382162,0.0,0.92351,-0.325377,0.134408,-0.152294,0.644239,0.0,1,0,0,0,0,0,0
631033241,-0.705658,0.14073,-0.384601,0.0,0.923465,-0.325736,0.130638,-0.155054,0.645834,0.0,1,0,0,0,0,0,0
631053279,-0.704681,0.131749,-0.383624,0.0,0.923687,-0.326253,0.126295,-0.156238,0.648157,0.0,1,0,0,0,0,0,0
631073335,-0.703621,0.122763,-0.383624,0.0,0.923828,-0.326663,0.122099,-0.157873,0.651075,0.0,1,0,0,0,0,0,0
631093437,-0.702622,0.11376,-0.386042,0.0,0.923748,-0.326953,0.118292,-0.160617,0.6545,0.0,1,0,0,0,0,0,0
631113433,-0.701585,0.104806,-0.385068,0.0,0.923927,-0.327418,0.113945,-0.16178,0.658341,0.0,1,0,0,0,0,0,0
631133848,-0.700472,0.095665,-0.388443,0.0,0.923744,-0.327615,0.110214,-0.164981,0.662553,0.0,1,0,0,0,0,0,0
631153647,-0.69941,0.0867993,-0.387466,0.0,0.923892,-0.328047,0.105898,-0.166113,0.666945,0.0,1,0,0,0,0,0,0
631173501,-0.698398,0.0779074,-0.390825,0.0,0.923651,-0.328273,0.102281,-0.169243,0.671601,0.0,1,0,0,0,0,0,0
631193510,-0.697473,0.0689434,-0.389846,0.0,0.923741,-0.328767,0.0979239,-0.17037,0.676434,0.0,1,0,0,0,0,0,0
631213683,-0.696576,0.0599026,-0.388872,0.0,0.923808,-0.329269,0.0935304,-0.171503,0.681363,0.0,1,0,0,0,0,0,0
631233562,-0.695745,0.0509893,-0.392209,0.0,0.923475,-0.329586,0.089908,-0.174595,0.686389,0.0,1,0,0,0,0,0,0
631253540,-0.695073,0.0420265,-0.391233,0.0,0.92347,-0.330173,0.0855635,-0.17569,0.69153,0.0,1,0,0,0,0,0,0
631293723,-0.6942,0.0239813,-0.393576,0.0,0.922945,-0.331378,0.0775634,-0.179847,0.701828,0.0,1,0,0,0,0,0,0
631313619,-0.693953,0.0150373,-0.396881,0.0,0.922428,-0.331979,0.0739688,-0.18288,0.706977,0.0,1,0,0,0,0,0,0
631333822,-0.693831,0.0059493,-0.395901,0.0,0.922256,-0.332807,0.0696068,-0.183952,0.712154,0.0,1,0,0,0,0,0,0
631353602,-0.693862,-0.00295504,-0.394926,0.0,0.922046,-0.333678,0.065342,-0.184986,0.717297,0.0,1,0,0,0,0,0,0
631373659,-0.694022,-0.0113406,-0.39821,0.0,0.921419,-0.334419,0.0620388,-0.18789,0.722346,0.0,1,0,0,0,0,0,0
631393849,-0.694308,-0.009804,-0.397233,0.0,0.921518,-0.33444,0.0626107,-0.187175,0.727157,0.0,1,0,0,0,0,0,0
631414305,-0.69465,-0.00820167,-0.400501,0.0,0.921211,-0.334346,0.0639279,-0.188403,0.73174,0.0,1,0,0,0,0,0,0
631433722,-0.695037,-0.00651072,-0.399523,0.0,0.921299,-0.334399,0.06458,-0.187659,0.736038,0.0,1,0,0,0,0,0,0
631453720,-0.69551,-0.00477076,-0.399523,0.0,0.921281,-0.334455,0.0654262,-0.187353,0.740034,0.0,1,0,0,0,0,0,0
631473726,-0.696096,-0.00294588,-0.401795,0.0,0.921033,-0.33448,0.0667021,-0.188076,0.743814,0.0,1,0,0,0,0,0,0
631493796,-0.696793,-0.00104408,-0.40082,0.0,0.921073,-0.334656,0.0674802,-0.187286,0.747241,0.0,1,0,0,0,0,0,0
631513765,-0.697518,0.000927586,-0.404052,0.0,0.920716,-0.334694,0.068997,-0.188419,0.750313,0.0,1,0,0,0,0,0,0
631533789,-0.698276,0.00301409,-0.403074,0.0,0.920751,-0.33488,0.069865,-0.187593,0.753296,0.0,1,0,0,0,0,0,0
631553791,-0.699088,0.00513658,-0.406291,0.0,0.920384,-0.334939,0.0714568,-0.188689,0.756113,0.0,1,0,0,0,0,0,0
631573818,-0.699933,0.00733615,-0.405312,0.0,0.920407,-0.335154,0.0723841,-0.187838,0.758692,0.0,1,0,0,0,0,0,0
631593827,-0.700866,0.00960188,-0.405312,0.0,0.920325,-0.335367,0.0735136,-0.187423,0.761023,0.0,1,0,0,0,0,0,0
631615332,-0.701791,0.012003,-0.407534,0.0,0.920038,-0.335481,0.075077,-0.188006,0.763238,0.0,1,0,0,0,0,0,0
631634118,-0.702756,0.0144081,-0.406558,0.0,0.920044,-0.335731,0.0761089,-0.187114,0.765358,0.0,1,0,0,0,0,0,0
631653886,-0.703674,0.0168895,-0.40974,0.0,0.919669,-0.335791,0.0778691,-0.188121,0.767449,0.0,1,0,0,0,0,0,0
631673929,-0.704703,0.0194763,-0.408763,0.0,0.919668,-0.336052,0.0789893,-0.187193,0.769326,0.0,1,0,0,0,0,0,0
631713974,-0.707234,0.0247531,-0.410951,0.0,0.919196,-0.336614,0.082016,-0.187198,0.771314,0.0,1,0,0,0,0,0,0
631733981,-0.708587,0.0274469,-0.414104,0.0,0.918752,-0.33684,0.083909,-0.18813,0.77163,0.0,1,0,0,0,0,0,0
631754196,-0.709738,0.03012,-0.413124,0.0,0.918727,-0.337146,0.0850771,-0.187174,0.771768,0.0,1,0,0,0,0,0,0
631774837,-0.711391,0.0329572,-0.416262,0.0,0.918235,-0.337489,0.0870612,-0.188057,0.771783,0.0,1,0,0,0,0,0,0
631794657,-0.712686,0.0357443,-0.415281,0.0,0.918187,-0.337849,0.0882931,-0.18707,0.771762,0.0,1,0,0,0,0,0,0
631814217,-0.713721,0.0385157,-0.415281,0.0,0.918088,-0.338047,0.0896583,-0.186545,0.771664,0.0,1,0,0,0,0,0,0
631836859,-0.715235,0.0415691,-0.417422,0.0,0.917715,-0.338339,0.0915587,-0.186931,0.771364,0.0,1,0,0,0,0,0,0
631856831,-0.71647,0.0444472,-0.416444,0.0,0.917673,-0.338662,0.0928244,-0.185926,0.770999,0.0,1,0,0,0,0,0,0
631874623,-0.717767,0.0472045,-0.419548,0.0,0.917235,-0.338832,0.0947313,-0.18681,0.770726,0.0,1,0,0,0,0,0,0
631894733,-0.719055,0.0501212,-0.418569,0.0,0.917182,-0.339174,0.0960177,-0.185792,0.769984,0.0,1,0,0,0,0,0,0
631914779,-0.720366,0.0530476,-0.421659,0.0,0.916745,-0.339326,0.0980002,-0.186634,0.768896,0.0,1,0,0,0,0,0,0
631934786,-0.721602,0.05594,-0.420679,0.0,0.916697,-0.339645,0.0992687,-0.185617,0.767691,0.0,1,0,0,0,0,0,0
631954994,-0.722777,0.0588525,-0.423755,0.0,0.916281,-0.33973,0.101229,-0.186457,0.766379,0.0,1,0,0,0,0,0,0
631974992,-0.723837,0.0617146,-0.422774,0.0,0.916259,-0.339969,0.102466,-0.18545,0.765158,0.0,1,0,0,0,0,0,0
631995016,-0.724786,0.0645861,-0.425837,0.0,0.915878,-0.339947,0.104383,-0.186298,0.763986,0.0,1,0,0,0,0,0,0
632014676,-0.725545,0.0674321,-0.427903,0.0,0.915621,-0.339888,0.106101,-0.186702,0.763187,0.0,1,0,0,0,0,0,0
632034688,-0.726253,0.070292,-0.427903,0.0,0.915563,-0.339911,0.107469,-0.186158,0.762673,0.0,1,0,0,0,0,0,0
632074732,-0.727667,0.0760075,-0.429955,0.0,0.915253,-0.339842,0.110549,-0.186007,0.762344,0.0,1,0,0,0,0,0,0
632094725,-0.728383,0.0788601,-0.432981,0.0,0.914907,-0.339697,0.112427,-0.186846,0.762463,0.0,1,0,0,0,0,0,0
632116883,-0.72902,0.0818343,-0.431992,0.0,0.91495,-0.339725,0.11367,-0.185828,0.76267,0.0,1,0,0,0,0,0,0
632137280,-0.729682,0.0846878,-0.435005,0.0,0.914612,-0.339549,0.115539,-0.18666,0.762945,0.0,1,0,0,0,0,0,0
632157158,-0.730323,0.0874672,-0.434015,0.0,0.914648,-0.339599,0.116692,-0.185674,0.763231,0.0,1,0,0,0,0,0,0
632175055,-0.730869,0.0901016,-0.437015,0.0,0.914324,-0.339386,0.118448,-0.186542,0.763499,0.0,1,0,0,0,0,0,0
632195000,-0.731412,0.0928308,-0.436023,0.0,0.914373,-0.339396,0.119568,-0.185569,0.763476,0.0,1,0,0,0,0,0,0
632214703,-0.731996,0.0955054,-0.43901,0.0,0.914043,-0.33919,0.121342,-0.186419,0.763389,0.0,1,0,0,0,0,0,0
632234809,-0.73259,0.0981642,-0.441988,0.0,0.913709,-0.338986,0.123107,-0.187267,0.763336,0.0,1,0,0,0,0,0,0
632254725,-0.733146,0.100765,-0.440991,0.0,0.913751,-0.339014,0.124168,-0.18631,0.763425,0.0,1,0,0,0,0,0,0
632275178,-0.733726,0.103346,-0.443956,0.0,0.913417,-0.338806,0.125894,-0.187164,0.763584,0.0,1,0,0,0,0,0,0
632294730,-0.734375,0.105827,-0.442959,0.0,0.913439,-0.338889,0.126908,-0.18622,0.763893,0.0,1,0,0,0,0,0,0
632314730,-0.735053,0.108268,-0.445911,0.0,0.913086,-0.338736,0.128576,-0.187084,0.764133,0.0,1,0,0,0,0,0,0
632335113,-0.735638,0.110663,-0.448854,0.0,0.912746,-0.338542,0.130212,-0.187957,0.764308,0.0,1,0,0,0,0,0,0
632354711,-0.736219,0.112961,-0.447851,0.0,0.912775,-0.338613,0.131135,-0.187046,0.764572,0.0,1,0,0,0,0,0,0
632374763,-0.736669,0.115205,-0.450782,0.0,0.912456,-0.338369,0.132687,-0.187947,0.765024,0.0,1,0,0,0,0,0,0
632394730,-0.737172,0.117376,-0.450782,0.0,0.912401,-0.338351,0.133714,-0.18752,0.765713,0.0,1,0,0,0,0,0,0
632434758,-0.738036,0.121504,-0.452696,0.0,0.91213,-0.338142,0.135982,-0.187586,0.76749,0.0,1,0,0,0,0,0,0
632454733,-0.738446,0.123473,-0.455606,0.0,0.911812,-0.337903,0.137401,-0.188526,0.768799,0.0,1,0,0,0,0,0,0
632475347,-0.738899,0.12539,-0.457494,0.0,0.911581,-0.337756,0.138626,-0.189006,0.770465,0.0,1,0,0,0,0,0,0
632495363,-0.739385,0.127234,-0.457494,0.0,0.911522,-0.337763,0.139503,-0.188637,0.772516,0.0,1,0,0,0,0,0,0
632515389,-0.739826,0.128999,-0.460382,0.0,0.911195,-0.337555,0.140828,-0.1896,0.774787,0.0,1,0,0,0,0,0,0
632535342,-0.740322,0.130715,-0.463263,0.0,0.910858,-0.337374,0.142133,-0.190564,0.776955,0.0,1,0,0,0,0,0,0
632555410,-0.740798,0.132356,-0.462245,0.0,0.910893,-0.33747,0.142745,-0.189766,0.778988,0.0,1,0,0,0,0,0,0
632575403,-0.741267,0.133912,-0.465112,0.0,0.910559,-0.337293,0.143973,-0.190754,0.781054,0.0,1,0,0,0,0,0,0
632595383,-0.741708,0.135378,-0.465112,0.0,0.910501,-0.33732,0.144674,-0.190454,0.783158,0.0,1,0,0,0,0,0,0
632615838,-0.742119,0.136786,-0.467972,0.0,0.910174,-0.337131,0.145829,-0.191467,0.785208,0.0,1,0,0,0,0,0,0
632636076,-0.742531,0.138107,-0.469796,0.0,0.909944,-0.337026,0.146769,-0.192025,0.786914,0.0,1,0,0,0,0,0,0
632655496,-0.742931,0.139351,-0.469796,0.0,0.90989,-0.337058,0.147366,-0.191767,0.788116,0.0,1,0,0,0,0,0,0
632695383,-0.743783,0.141591,-0.475465,0.0,0.909224,-0.336754,0.149409,-0.19387,0.790143,0.0,1,0,0,0,0,0,0
632715829,-0.744222,0.142605,-0.474434,0.0,0.90926,-0.336907,0.149732,-0.193182,0.791363,0.0,1,0,0,0,0,0,0
632737666,-0.744619,0.143535,-0.477252,0.0,0.90893,-0.336762,0.150662,-0.194262,0.793505,0.0,1,0,0,0,0,0,0
632755556,-0.744993,0.144489,-0.480062,0.0,0.908604,-0.336603,0.151599,-0.195335,0.796448,0.0,1,0,0,0,0,0,0
632776117,-0.745465,0.145363,-0.480062,0.0,0.908533,-0.336709,0.152037,-0.195138,0.79997,0.0,1,0,0,0,0,0,0
632795818,-0.746005,0.146241,-0.482863,0.0,0.908177,-0.336633,0.152955,-0.196207,0.803818,0.0,1,0,0,0,0,0,0
632815851,-0.746634,0.147105,-0.481824,0.0,0.908182,-0.336891,0.153228,-0.195528,0.808063,0.0,1,0,0,0,0,0,0
632837651,-0.747182,0.14793,-0.484614,0.0,0.907825,-0.336823,0.154121,-0.1966,0.812518,0.0,1,0,0,0,0,0,0
632855610,-0.747735,0.148832,-0.487395,0.0,0.907467,-0.336746,0.155047,-0.197652,0.816774,0.0,1,0,0,0,0,0,0
632875505,-0.748371,0.149702,-0.487395,0.0,0.907369,-0.336925,0.155499,-0.197442,0.821491,0.0,1,0,0,0,0,0,0
632895540,-0.748899,0.150574,-0.490168,0.0,0.907014,-0.336839,0.156408,-0.198497,0.826513,0.0,1,0,0,0,0,0,0
632915845,-0.749422,0.151444,-0.492933,0.0,0.90666,-0.33675,0.157315,-0.199548,0.831682,0.0,1,0,0,0,0,0,0
632936218,-0.74996,0.152351,-0.492933,0.0,0.906579,-0.336879,0.157773,-0.199337,0.836856,0.0,1,0,0,0,0,0,0
632955581,-0.750472,0.153298,-0.494635,0.0,0.906332,-0.336856,0.158534,-0.199892,0.841952,0.0,1,0,0,0,0,0,0
632975482,-0.750959,0.154282,-0.49738,0.0,0.905985,-0.336733,0.159483,-0.200914,0.846967,0.0,1,0,0,0,0,0,0
632995440,-0.751446,0.155288,-0.49738,0.0,0.905914,-0.336825,0.159981,-0.200688,0.85167,0.0,1,0,0,0,0,0,0
633015496,-0.751911,0.156335,-0.500116,0.0,0.90557,-0.336682,0.160956,-0.201695,0.855951,0.0,1,0,0,0,0,0,0
633035625,-0.752379,0.15744,-0.502845,0.0,0.905227,-0.336531,0.161954,-0.202686,0.859897,0.0,1,0,0,0,0,0,0
633076089,-0.753103,0.159785,-0.505565,0.0,0.904853,-0.336333,0.16353,-0.203421,0.867301,0.0,1,0,0,0,0,0,0
633095521,-0.753327,0.161019,-0.508277,0.0,0.904551,-0.336051,0.164557,-0.204399,0.870633,0.0,1,0,0,0,0,0,0
633115490,-0.75353,0.162257,-0.508277,0.0,0.904529,-0.335981,0.165129,-0.204151,0.873786,0.0,1,0,0,0,0,0,0
633135713,-0.753722,0.163515,-0.510981,0.0,0.904232,-0.335678,0.166162,-0.205122,0.876798,0.0,1,0,0,0,0,0,0
633155534,-0.753882,0.164792,-0.512601,0.0,0.904051,-0.335447,0.167017,-0.205602,0.879708,0.0,1,0,0,0,0,0,0
633176162,-0.754039,0.166074,-0.512601,0.0,0.904037,-0.335349,0.167603,-0.205349,0.882554,0.0,1,0,0,0,0,0,0
633195525,-0.754047,0.167391,-0.515285,0.0,0.903771,-0.334952,0.168639,-0.206315,0.884941,0.0,1,0,0,0,0,0,0
633215496,-0.754096,0.168666,-0.515285,0.0,0.903774,-0.334805,0.16921,-0.206072,0.887272,0.0,1,0,0,0,0,0,0
633235528,-0.754003,0.169928,-0.517961,0.0,0.903525,-0.334368,0.170208,-0.207052,0.889231,0.0,1,0,0,0,0,0,0
633255547,-0.753962,0.17118,-0.520628,0.0,0.903266,-0.333953,0.171205,-0.208026,0.890886,0.0,1,0,0,0,0,0,0
633275653,-0.753888,0.172423,-0.520628,0.0,0.903289,-0.333753,0.171749,-0.2078,0.892407,0.0,1,0,0,0,0,0,0
633295544,-0.753823,0.173677,-0.523288,0.0,0.903033,-0.333325,0.172741,-0.208771,0.893776,0.0,1,0,0,0,0,0,0
633315566,-0.753647,0.174924,-0.525939,0.0,0.902796,-0.332847,0.173717,-0.20975,0.894731,0.0,1,0,0,0,0,0,0
633335595,-0.75343,0.176142,-0.525939,0.0,0.902842,-0.332583,0.174234,-0.20954,0.895295,0.0,1,0,0,0,0,0,0
633355597,-0.753152,0.17733,-0.529679,0.0,0.902505,-0.331969,0.175352,-0.211029,0.895688,0.0,1,0,0,0,0,0,0
633375596,-0.753009,0.178511,-0.532317,0.0,0.902259,-0.33151,0.176298,-0.212011,0.896244,0.0,1,0,0,0,0,0,0
633395601,-0.752793,0.179681,-0.532317,0.0,0.902304,-0.331252,0.176792,-0.211811,0.896879,0.0,1,0,0,0,0,0,0
633435627,-0.751698,0.181965,-0.53757,0.0,0.901944,-0.329975,0.178555,-0.213849,0.897636,0.0,1,0,0,0,0,0,0
633455667,-0.751065,0.183045,-0.53757,0.0,0.902057,-0.329539,0.178964,-0.213703,0.897347,0.0,1,0,0,0,0,0,0
633475707,-0.750465,0.1841,-0.540184,0.0,0.901884,-0.328887,0.179797,-0.214738,0.896729,0.0,1,0,0,0,0,0,0
633495828,-0.749971,0.185128,-0.54279,0.0,0.901692,-0.328286,0.180626,-0.215765,0.896293,0.0,1,0,0,0,0,0,0
633515827,-0.74937,0.186096,-0.54279,0.0,0.901798,-0.327879,0.180989,-0.215638,0.895848,0.0,1,0,0,0,0,0,0
633535847,-0.748981,0.187051,-0.546506,0.0,0.901466,-0.327232,0.181977,-0.21717,0.895348,0.0,1,0,0,0,0,0,0
633555884,-0.748822,0.18798,-0.549099,0.0,0.901217,-0.326792,0.182793,-0.218179,0.895336,0.0,1,0,0,0,0,0,0
633575843,-0.748746,0.188866,-0.549099,0.0,0.901235,-0.326632,0.183176,-0.21802,0.896023,0.0,1,0,0,0,0,0,0
633595901,-0.748805,0.189737,-0.551683,0.0,0.90095,-0.326297,0.183989,-0.219016,0.897731,0.0,1,0,0,0,0,0,0
633615890,-0.748891,0.190566,-0.554259,0.0,0.900659,-0.325979,0.184784,-0.220014,0.900592,0.0,1,0,0,0,0,0,0
633636051,-0.749149,0.191374,-0.554259,0.0,0.900623,-0.325979,0.185169,-0.219838,0.904304,0.0,1,0,0,0,0,0,0
633655941,-0.749342,0.192147,-0.557962,0.0,0.900188,-0.325611,0.186134,-0.221343,0.908396,0.0,1,0,0,0,0,0,0
633675950,-0.749579,0.192923,-0.557962,0.0,0.900155,-0.325606,0.186501,-0.221175,0.912895,0.0,1,0,0,0,0,0,0
633695972,-0.749751,0.193664,-0.560525,0.0,0.899849,-0.325336,0.187264,-0.222173,0.917837,0.0,1,0,0,0,0,0,0
633716040,-0.749738,0.194252,-0.563079,0.0,0.899571,-0.325005,0.187936,-0.223213,0.922672,0.0,1,0,0,0,0,0,0
633736024,-0.749524,0.194701,-0.564224,0.0,0.899481,-0.324736,0.188296,-0.223664,0.926846,0.0,1,0,0,0,0,0,0
633756071,-0.749074,0.19499,-0.566773,0.0,0.89927,-0.324251,0.188786,-0.224799,0.930318,0.0,1,0,0,0,0,0,0
633776160,-0.748491,0.195168,-0.569313,0.0,0.89908,-0.323723,0.18921,-0.225962,0.933686,0.0,1,0,0,0,0,0,0
633796147,-0.747982,0.195215,-0.570467,0.0,0.899032,-0.323378,0.18936,-0.226521,0.9366,0.0,1,0,0,0,0,0,0
633816110,-0.747449,0.195203,-0.573003,0.0,0.89883,-0.3229,0.189703,-0.227713,0.939251,0.0,1,0,0,0,0,0,0
633856164,-0.746591,0.194932,-0.575529,0.0,0.898677,-0.322315,0.189894,-0.22898,0.942672,0.0,1,0,0,0,0,0,0
633876152,-0.746305,0.19473,-0.579214,0.0,0.898298,-0.321866,0.190366,-0.230701,0.943504,0.0,1,0,0,0,0,0,0
633896182,-0.746092,0.19449,-0.579214,0.0,0.898331,-0.321806,0.190236,-0.230766,0.944158,0.0,1,0,0,0,0,0,0
633916180,-0.745749,0.194214,-0.5829,0.0,0.897956,-0.321342,0.190668,-0.232506,0.944563,0.0,1,0,0,0,0,0,0
633936188,-0.745509,0.193903,-0.585407,0.0,0.8977,-0.321042,0.190906,-0.233712,0.945052,0.0,1,0,0,0,0,0,0
633956213,-0.745141,0.19357,-0.585407,0.0,0.897756,-0.320927,0.190717,-0.233809,0.945314,0.0,1,0,0,0,0,0,0
633976223,-0.744662,0.193177,-0.589089,0.0,0.897397,-0.32042,0.191079,-0.23558,0.945494,0.0,1,0,0,0,0,0,0
633996252,-0.744207,0.192796,-0.589089,0.0,0.897466,-0.320274,0.190858,-0.235695,0.9457,0.0,1,0,0,0,0,0,0
634016251,-0.743351,0.192355,-0.592771,0.0,0.897164,-0.319605,0.191152,-0.23751,0.945451,0.0,1,0,0,0,0,0,0
634036269,-0.742519,0.191931,-0.595257,0.0,0.896996,-0.319059,0.191264,-0.238784,0.944399,0.0,1,0,0,0,0,0,0
634056282,-0.741662,0.191476,-0.595257,0.0,0.897128,-0.318743,0.190963,-0.23895,0.942992,0.0,1,0,0,0,0,0,0
634076335,-0.74097,0.191015,-0.598934,0.0,0.896792,-0.318153,0.191263,-0.240751,0.941346,0.0,1,0,0,0,0,0,0
634096354,-0.74034,0.190567,-0.598934,0.0,0.896888,-0.317939,0.190991,-0.240894,0.939729,0.0,1,0,0,0,0,0,0
634116355,-0.73975,0.190121,-0.602611,0.0,0.896532,-0.317391,0.191308,-0.242682,0.938232,0.0,1,0,0,0,0,0,0
634136483,-0.739179,0.189677,-0.605078,0.0,0.896317,-0.316968,0.191435,-0.243924,0.93693,0.0,1,0,0,0,0,0,0
634156386,-0.738294,0.18918,-0.606289,0.0,0.896304,-0.316532,0.191301,-0.244643,0.935695,0.0,1,0,0,0,0,0,0
634176368,-0.737404,0.188697,-0.608749,0.0,0.896137,-0.315973,0.19137,-0.24592,0.934696,0.0,1,0,0,0,0,0,0
634216379,-0.735535,0.187734,-0.61242,0.0,0.895967,-0.314935,0.191297,-0.247921,0.932608,0.0,1,0,0,0,0,0,0
634236425,-0.734464,0.187246,-0.613644,0.0,0.895978,-0.314414,0.191142,-0.248661,0.931783,0.0,1,0,0,0,0,0,0
634256448,-0.733452,0.186766,-0.616092,0.0,0.895826,-0.313802,0.191191,-0.249942,0.931011,0.0,1,0,0,0,0,0,0
634276479,-0.732528,0.186251,-0.617323,0.0,0.89581,-0.313351,0.191042,-0.250676,0.930241,0.0,1,0,0,0,0,0,0
634296503,-0.732026,0.185766,-0.621001,0.0,0.89542,-0.312851,0.191343,-0.25246,0.929566,0.0,1,0,0,0,0,0,0
634316523,-0.731525,0.185287,-0.621001,0.0,0.895492,-0.312702,0.19107,-0.252595,0.928707,0.0,1,0,0,0,0,0,0
634336606,-0.730783,0.184764,-0.624678,0.0,0.895134,-0.312101,0.191321,-0.254408,0.927718,0.0,1,0,0,0,0,0,0
634356631,-0.730483,0.184275,-0.624678,0.0,0.895174,-0.312045,0.191069,-0.254526,0.926892,0.0,1,0,0,0,0,0,0
634376695,-0.73019,0.183804,-0.628356,0.0,0.894744,-0.311636,0.191399,-0.256286,0.926156,0.0,1,0,0,0,0,0,0
634396698,-0.729739,0.183349,-0.628356,0.0,0.894808,-0.311507,0.191143,-0.256412,0.925537,0.0,1,0,0,0,0,0,0
634416744,-0.729328,0.182896,-0.632034,0.0,0.894392,-0.311044,0.191464,-0.258179,0.924956,0.0,1,0,0,0,0,0,0
634436741,-0.728739,0.182443,-0.635711,0.0,0.894,-0.310501,0.191761,-0.259961,0.924214,0.0,1,0,0,0,0,0,0
634457022,-0.727941,0.18196,-0.635711,0.0,0.894117,-0.310222,0.191446,-0.260126,0.923288,0.0,1,0,0,0,0,0,0
634477987,-0.727444,0.181489,-0.639387,0.0,0.893707,-0.309723,0.191746,-0.261902,0.922394,0.0,1,0,0,0,0,0,0
634496820,-0.726909,0.181061,-0.64066,0.0,0.893616,-0.309432,0.191686,-0.262599,0.921525,0.0,1,0,0,0,0,0,0
634516788,-0.72593,0.180558,-0.64066,0.0,0.89376,-0.309076,0.191337,-0.262784,0.920354,0.0,1,0,0,0,0,0,0
634536815,-0.72543,0.180092,-0.644342,0.0,0.893344,-0.308575,0.191636,-0.264562,0.919151,0.0,1,0,0,0,0,0,0
634556824,-0.724688,0.179643,-0.644342,0.0,0.893452,-0.308317,0.191342,-0.264714,0.917958,0.0,1,0,0,0,0,0,0
634576847,-0.724025,0.179192,-0.648023,0.0,0.893057,-0.307742,0.191625,-0.266503,0.9168,0.0,1,0,0,0,0,0,0
634596854,-0.723074,0.178734,-0.649312,0.0,0.893024,-0.307269,0.191496,-0.267252,0.915651,0.0,1,0,0,0,0,0,0
634617130,-0.722156,0.178252,-0.651704,0.0,0.892836,-0.306709,0.19153,-0.268495,0.91442,0.0,1,0,0,0,0,0,0
634656909,-0.72046,0.177201,-0.656685,0.0,0.892406,-0.305647,0.191604,-0.271069,0.91207,0.0,1,0,0,0,0,0,0
634677634,-0.71991,0.176667,-0.656685,0.0,0.892481,-0.30549,0.191297,-0.271218,0.911054,0.0,1,0,0,0,0,0,0
634696969,-0.719307,0.176135,-0.660369,0.0,0.892062,-0.304956,0.191545,-0.273015,0.91016,0.0,1,0,0,0,0,0,0
634716992,-0.718704,0.175609,-0.661681,0.0,0.891965,-0.304649,0.191434,-0.273751,0.909308,0.0,1,0,0,0,0,0,0
634736986,-0.718002,0.175067,-0.664053,0.0,0.891737,-0.304199,0.191462,-0.274973,0.908349,0.0,1,0,0,0,0,0,0
634756985,-0.717156,0.17451,-0.66537,0.0,0.891674,-0.303789,0.191303,-0.275741,0.907169,0.0,1,0,0,0,0,0,0
634777111,-0.716339,0.17394,-0.666692,0.0,0.891605,-0.303393,0.191143,-0.27651,0.905822,0.0,1,0,0,0,0,0,0
634797027,-0.715771,0.173378,-0.670386,0.0,0.891168,-0.302881,0.191379,-0.278311,0.904603,0.0,1,0,0,0,0,0,0
634817086,-0.715002,0.172836,-0.670386,0.0,0.891274,-0.302629,0.191035,-0.278481,0.903648,0.0,1,0,0,0,0,0,0
634837191,-0.714316,0.172276,-0.674079,0.0,0.890851,-0.302065,0.191254,-0.280292,0.902746,0.0,1,0,0,0,0,0,0
634857081,-0.713267,0.171731,-0.675417,0.0,0.890811,-0.301562,0.191071,-0.281085,0.901717,0.0,1,0,0,0,0,0,0
634877096,-0.712133,0.171218,-0.675417,0.0,0.890971,-0.301143,0.190689,-0.281284,0.900664,0.0,1,0,0,0,0,0,0
634897110,-0.711461,0.170747,-0.679114,0.0,0.890541,-0.300571,0.190945,-0.283078,0.899476,0.0,1,0,0,0,0,0,0
634917121,-0.710213,0.170289,-0.680463,0.0,0.890528,-0.299964,0.190771,-0.283878,0.898147,0.0,1,0,0,0,0,0,0
634937195,-0.709293,0.169837,-0.684164,0.0,0.89013,-0.299278,0.190998,-0.285694,0.896638,0.0,1,0,0,0,0,0,0
634957165,-0.707896,0.169401,-0.684164,0.0,0.89033,-0.298731,0.190608,-0.285904,0.895017,0.0,1,0,0,0,0,0,0
634977232,-0.706279,0.168939,-0.685523,0.0,0.890367,-0.29796,0.190378,-0.286744,0.893298,0.0,1,0,0,0,0,0,0
634997251,-0.705108,0.168498,-0.689228,0.0,0.889999,-0.297162,0.190569,-0.288582,0.891609,0.0,1,0,0,0,0,0,0
635017262,-0.703364,0.168018,-0.690597,0.0,0.89005,-0.296338,0.190311,-0.289441,0.889847,0.0,1,0,0,0,0,0,0
635037277,-0.701983,0.167555,-0.692931,0.0,0.889906,-0.295581,0.190255,-0.290692,0.888076,0.0,1,0,0,0,0,0,0
635077778,-0.699048,0.166571,-0.695686,0.0,0.889916,-0.294183,0.189805,-0.292368,0.884329,0.0,1,0,0,0,0,0,0
635097840,-0.698127,0.166097,-0.699399,0.0,0.889497,-0.293503,0.190009,-0.294189,0.882377,0.0,1,0,0,0,0,0,0
635117922,-0.696654,0.16563,-0.699399,0.0,0.889703,-0.292929,0.189589,-0.29441,0.88036,0.0,1,0,0,0,0,0,0
635138441,-0.695441,0.16517,-0.700788,0.0,0.889665,-0.292338,0.189414,-0.295223,0.878352,0.0,1,0,0,0,0,0,0
635158217,-0.694444,0.164724,-0.704504,0.0,0.889251,-0.29162,0.189615,-0.297047,0.87655,0.0,1,0,0,0,0,0,0
635178332,-0.693027,0.16426,-0.705905,0.0,0.889239,-0.290938,0.189406,-0.297884,0.87488,0.0,1,0,0,0,0,0,0
635198006,-0.691059,0.163752,-0.705905,0.0,0.889513,-0.290152,0.188892,-0.298157,0.873225,0.0,1,0,0,0,0,0,0
635217917,-0.689759,0.163228,-0.709624,0.0,0.889134,-0.289315,0.189008,-0.300024,0.871625,0.0,1,0,0,0,0,0,0
635237915,-0.688009,0.162676,-0.711034,0.0,0.889162,-0.288501,0.188709,-0.30091,0.870157,0.0,1,0,0,0,0,0,0
635257876,-0.686448,0.162115,-0.712449,0.0,0.889161,-0.287772,0.188433,-0.301783,0.868861,0.0,1,0,0,0,0,0,0
635278188,-0.685506,0.161537,-0.716177,0.0,0.888719,-0.287105,0.188575,-0.303627,0.867796,0.0,1,0,0,0,0,0,0
635298248,-0.684094,0.16097,-0.716177,0.0,0.888908,-0.286577,0.188114,-0.303856,0.867001,0.0,1,0,0,0,0,0,0
635318270,-0.682819,0.160389,-0.717602,0.0,0.88886,-0.28598,0.187871,-0.304708,0.866299,0.0,1,0,0,0,0,0,0
635338230,-0.681831,0.159778,-0.721333,0.0,0.888417,-0.285299,0.187988,-0.306562,0.865657,0.0,1,0,0,0,0,0,0
635358573,-0.68019,0.159102,-0.722768,0.0,0.888415,-0.284556,0.187646,-0.307468,0.864957,0.0,1,0,0,0,0,0,0
635378362,-0.67864,0.158449,-0.724209,0.0,0.888398,-0.283849,0.187328,-0.308363,0.864266,0.0,1,0,0,0,0,0,0
635397827,-0.676637,0.157768,-0.724209,0.0,0.888665,-0.283081,0.186723,-0.308665,0.863447,0.0,1,0,0,0,0,0,0
635418250,-0.675571,0.157079,-0.727947,0.0,0.888221,-0.282381,0.186787,-0.310541,0.862497,0.0,1,0,0,0,0,0,0
635437852,-0.673956,0.156406,-0.729398,0.0,0.888206,-0.28165,0.186448,-0.311448,0.86151,0.0,1,0,0,0,0,0,0
635457831,-0.672175,0.155708,-0.730853,0.0,0.888213,-0.280849,0.186071,-0.312377,0.860456,0.0,1,0,0,0,0,0,0
635478365,-0.670527,0.154999,-0.732313,0.0,0.888198,-0.280109,0.185709,-0.313296,0.859459,0.0,1,0,0,0,0,0,0
635518437,-0.667315,0.153569,-0.736065,0.0,0.888022,-0.278594,0.185106,-0.315497,0.857447,0.0,1,0,0,0,0,0,0
635537910,-0.665367,0.152844,-0.737535,0.0,0.888042,-0.277724,0.184688,-0.31645,0.856347,0.0,1,0,0,0,0,0,0
635558140,-0.663609,0.152115,-0.73901,0.0,0.888034,-0.27694,0.184297,-0.317387,0.855205,0.0,1,0,0,0,0,0,0
635577939,-0.662352,0.151393,-0.742769,0.0,0.887591,-0.276167,0.184302,-0.31929,0.854079,0.0,1,0,0,0,0,0,0
635597891,-0.660514,0.150653,-0.744254,0.0,0.887588,-0.27535,0.183892,-0.320239,0.852937,0.0,1,0,0,0,0,0,0
635618635,-0.65826,0.149871,-0.744254,0.0,0.887878,-0.274493,0.18319,-0.320574,0.85168,0.0,1,0,0,0,0,0,0
635638707,-0.656106,0.149084,-0.745744,0.0,0.887914,-0.273544,0.182706,-0.32156,0.85034,0.0,1,0,0,0,0,0,0
635658689,-0.65481,0.148311,-0.74951,0.0,0.887464,-0.272767,0.182675,-0.323476,0.848942,0.0,1,0,0,0,0,0,0
635677941,-0.6528,0.147544,-0.75101,0.0,0.887474,-0.271879,0.18222,-0.324449,0.847518,0.0,1,0,0,0,0,0,0
635697950,-0.651235,0.146812,-0.752515,0.0,0.887423,-0.271183,0.181851,-0.325377,0.846182,0.0,1,0,0,0,0,0,0
635717957,-0.649342,0.146043,-0.754025,0.0,0.887413,-0.270348,0.181413,-0.326343,0.844708,0.0,1,0,0,0,0,0,0
635737952,-0.64717,0.145268,-0.754025,0.0,0.887686,-0.269527,0.180721,-0.326664,0.843203,0.0,1,0,0,0,0,0,0
635757956,-0.646138,0.144499,-0.757804,0.0,0.887185,-0.26887,0.180726,-0.328556,0.841792,0.0,1,0,0,0,0,0,0
635777998,-0.644328,0.143718,-0.759323,0.0,0.887157,-0.268075,0.180292,-0.329519,0.840494,0.0,1,0,0,0,0,0,0
635797995,-0.642522,0.142936,-0.760848,0.0,0.887126,-0.267282,0.179858,-0.330482,0.839383,0.0,1,0,0,0,0,0,0
635818007,-0.64092,0.142162,-0.762378,0.0,0.887066,-0.266579,0.17946,-0.331427,0.838319,0.0,1,0,0,0,0,0,0
635838049,-0.638757,0.141376,-0.763912,0.0,0.887078,-0.265628,0.178964,-0.332426,0.83706,0.0,1,0,0,0,0,0,0
635858075,-0.636631,0.140583,-0.765452,0.0,0.887082,-0.264696,0.178468,-0.333424,0.835559,0.0,1,0,0,0,0,0,0
635878134,-0.634981,0.139796,-0.767708,0.0,0.886901,-0.263911,0.178148,-0.334695,0.833908,0.0,1,0,0,0,0,0,0
635898213,-0.633286,0.139017,-0.769252,0.0,0.886844,-0.263168,0.177729,-0.335652,0.832186,0.0,1,0,0,0,0,0,0
635938295,-0.630503,0.137549,-0.772357,0.0,0.886646,-0.261935,0.177029,-0.337505,0.829151,0.0,1,0,0,0,0,0,0
635958290,-0.628798,0.136802,-0.773916,0.0,0.886585,-0.261182,0.176619,-0.338463,0.827725,0.0,1,0,0,0,0,0,0
635978300,-0.627242,0.136073,-0.775481,0.0,0.886502,-0.260492,0.176243,-0.339406,0.826376,0.0,1,0,0,0,0,0,0
635998327,-0.625847,0.135357,-0.77705,0.0,0.886397,-0.259871,0.175898,-0.340336,0.825145,0.0,1,0,0,0,0,0,0
636018333,-0.624736,0.13467,-0.779297,0.0,0.886138,-0.259312,0.175701,-0.341535,0.824165,0.0,1,0,0,0,0,0,0
636038337,-0.623365,0.134005,-0.780872,0.0,0.886027,-0.258692,0.175381,-0.342455,0.823449,0.0,1,0,0,0,0,0,0
636058368,-0.621388,0.133327,-0.782452,0.0,0.885992,-0.257807,0.174951,-0.343432,0.822826,0.0,1,0,0,0,0,0,0
636078380,-0.619302,0.132657,-0.784037,0.0,0.885969,-0.256872,0.174505,-0.344419,0.822132,0.0,1,0,0,0,0,0,0
636098389,-0.617265,0.131991,-0.785626,0.0,0.885936,-0.255958,0.174067,-0.345402,0.821265,0.0,1,0,0,0,0,0,0
636118414,-0.615402,0.131335,-0.787221,0.0,0.88588,-0.25512,0.173663,-0.34637,0.820327,0.0,1,0,0,0,0,0,0
636138577,-0.613346,0.130663,-0.788821,0.0,0.885844,-0.2542,0.173218,-0.347358,0.819373,0.0,1,0,0,0,0,0,0
636158516,-0.611231,0.129996,-0.790426,0.0,0.885814,-0.253252,0.172764,-0.348353,0.818411,0.0,1,0,0,0,0,0,0
636178520,-0.608645,0.129315,-0.790426,0.0,0.886121,-0.252238,0.172016,-0.348678,0.817419,0.0,1,0,0,0,0,0,0
636198526,-0.607493,0.128629,-0.794273,0.0,0.885574,-0.251528,0.172,-0.350584,0.816488,0.0,1,0,0,0,0,0,0
636218578,-0.605561,0.127939,-0.795889,0.0,0.885512,-0.250668,0.171564,-0.351568,0.815599,0.0,1,0,0,0,0,0,0
636238706,-0.60354,0.127246,-0.797509,0.0,0.885459,-0.249768,0.171109,-0.352562,0.814645,0.0,1,0,0,0,0,0,0
636258698,-0.601447,0.126566,-0.799134,0.0,0.885413,-0.248834,0.170646,-0.353561,0.81384,0.0,1,0,0,0,0,0,0
636298745,-0.597894,0.125197,-0.802401,0.0,0.885234,-0.24725,0.169825,-0.355511,0.812348,0.0,1,0,0,0,0,0,0
636318619,-0.595961,0.124505,-0.804042,0.0,0.88516,-0.24639,0.169382,-0.356503,0.811618,0.0,1,0,0,0,0,0,0
636338619,-0.593919,0.123807,-0.805688,0.0,0.885096,-0.245484,0.168916,-0.357506,0.810841,0.0,1,0,0,0,0,0,0
636358648,-0.591008,0.123102,-0.805688,0.0,0.885431,-0.244332,0.168089,-0.357854,0.809958,0.0,1,0,0,0,0,0,0
636378632,-0.588839,0.122402,-0.80734,0.0,0.885379,-0.243371,0.167597,-0.358868,0.808998,0.0,1,0,0,0,0,0,0
636398626,-0.58685,0.121715,-0.808996,0.0,0.885302,-0.242486,0.167141,-0.359867,0.80797,0.0,1,0,0,0,0,0,0
636418630,-0.584562,0.121032,-0.810658,0.0,0.885259,-0.241469,0.166632,-0.360892,0.807033,0.0,1,0,0,0,0,0,0
636438646,-0.58221,0.120347,-0.812325,0.0,0.88522,-0.240424,0.166109,-0.361924,0.805991,0.0,1,0,0,0,0,0,0
636458676,-0.579959,0.119676,-0.813998,0.0,0.885167,-0.239421,0.16561,-0.362947,0.804756,0.0,1,0,0,0,0,0,0
636478713,-0.577747,0.119029,-0.815675,0.0,0.885107,-0.238431,0.165126,-0.363964,0.803348,0.0,1,0,0,0,0,0,0
636498743,-0.57432,0.118394,-0.815675,0.0,0.885495,-0.237039,0.164225,-0.364336,0.80182,0.0,1,0,0,0,0,0,0
636518750,-0.571505,0.117764,-0.817359,0.0,0.885502,-0.23578,0.163636,-0.3654,0.800216,0.0,1,0,0,0,0,0,0
636538765,-0.568928,0.117139,-0.819047,0.0,0.885477,-0.234625,0.163091,-0.366446,0.798654,0.0,1,0,0,0,0,0,0
636558758,-0.566394,0.11653,-0.820741,0.0,0.885445,-0.233486,0.162558,-0.367487,0.797209,0.0,1,0,0,0,0,0,0
636578744,-0.563895,0.115919,-0.82244,0.0,0.885405,-0.232363,0.162029,-0.368527,0.795828,0.0,1,0,0,0,0,0,0
636598798,-0.561926,0.115318,-0.824144,0.0,0.885301,-0.231473,0.161602,-0.369524,0.794596,0.0,1,0,0,0,0,0,0
636618814,-0.560393,0.114732,-0.825854,0.0,0.885144,-0.230774,0.16126,-0.370485,0.793538,0.0,1,0,0,0,0,0,0
636639045,-0.55806,0.114162,-0.825854,0.0,0.885395,-0.229855,0.160579,-0.370751,0.792584,0.0,1,0,0,0,0,0,0
636658873,-0.556806,0.113598,-0.827569,0.0,0.885204,-0.229275,0.160297,-0.371688,0.791756,0.0,1,0,0,0,0,0,0
636678876,-0.556516,0.113073,-0.82929,0.0,0.884901,-0.229114,0.160211,-0.372544,0.791018,0.0,1,0,0,0,0,0,0
636718908,-0.556653,0.112123,-0.832748,0.0,0.884211,-0.229088,0.160219,-0.374192,0.790209,0.0,1,0,0,0,0,0,0
636739017,-0.557359,0.111728,-0.834485,0.0,0.883792,-0.229341,0.160378,-0.374957,0.790312,0.0,1,0,0,0,0,0,0
636759073,-0.556856,0.111371,-0.834485,0.0,0.883839,-0.22919,0.160128,-0.375046,0.790533,0.0,1,0,0,0,0,0,0
636779194,-0.556473,0.11104,-0.836228,0.0,0.883545,-0.228948,0.160111,-0.375892,0.790786,0.0,1,0,0,0,0,0,0
636799103,-0.556061,0.110768,-0.837976,0.0,0.883255,-0.228681,0.160116,-0.376734,0.791096,0.0,1,0,0,0,0,0,0
636819133,-0.555306,0.110528,-0.839729,0.0,0.883003,-0.228256,0.160069,-0.377601,0.791452,0.0,1,0,0,0,0,0,0
636839188,-0.553923,0.110316,-0.841489,0.0,0.882821,-0.227548,0.159916,-0.378517,0.791712,0.0,1,0,0,0,0,0,0
636859275,-0.552649,0.110139,-0.843253,0.0,0.882626,-0.226881,0.159798,-0.379422,0.791828,0.0,1,0,0,0,0,0,0
636879235,-0.551147,0.109991,-0.845023,0.0,0.882455,-0.226106,0.159648,-0.380343,0.791833,0.0,1,0,0,0,0,0,0
636899158,-0.548558,0.109856,-0.845023,0.0,0.882743,-0.224991,0.159097,-0.380568,0.791685,0.0,1,0,0,0,0,0,0
636919193,-0.547037,0.109738,-0.846799,0.0,0.882572,-0.224203,0.158956,-0.381488,0.791388,0.0,1,0,0,0,0,0,0
636939205,-0.545138,0.109631,-0.848581,0.0,0.882441,-0.223246,0.158746,-0.382439,0.791006,0.0,1,0,0,0,0,0,0
636959217,-0.543052,0.109523,-0.850368,0.0,0.882327,-0.222206,0.158498,-0.383407,0.790573,0.0,1,0,0,0,0,0,0
636979255,-0.540909,0.109415,-0.85216,0.0,0.882218,-0.22114,0.158239,-0.384382,0.790103,0.0,1,0,0,0,0,0,0
636999259,-0.539207,0.109307,-0.853959,0.0,0.882056,-0.22027,0.158063,-0.385324,0.789614,0.0,1,0,0,0,0,0,0
637019300,-0.536971,0.109171,-0.855763,0.0,0.881949,-0.219169,0.15777,-0.386314,0.789084,0.0,1,0,0,0,0,0,0
637039427,-0.533121,0.109012,-0.855763,0.0,0.882365,-0.217504,0.156957,-0.386638,0.788507,0.0,1,0,0,0,0,0,0
637079400,-0.527179,0.108628,-0.859388,0.0,0.882292,-0.214678,0.15603,-0.388752,0.787368,0.0,1,0,0,0,0,0,0
637099539,-0.52262,0.108408,-0.858996,0.0,0.882849,-0.212743,0.155006,-0.388962,0.78659,0.0,1,0,0,0,0,0,0
637119406,-0.519281,0.108196,-0.860824,0.0,0.882841,-0.211171,0.154457,-0.390054,0.785791,0.0,1,0,0,0,0,0,0
637139548,-0.515625,0.107961,-0.862658,0.0,0.88286,-0.209465,0.153833,-0.391176,0.784816,0.0,1,0,0,0,0,0,0
637159439,-0.511225,0.107706,-0.864497,0.0,0.882951,-0.207434,0.153052,-0.392357,0.783515,0.0,1,0,0,0,0,0,0
637179445,-0.506535,0.107452,-0.864497,0.0,0.883427,-0.205416,0.152021,-0.392747,0.78184,0.0,1,0,0,0,0,0,0
637199506,-0.50279,0.107186,-0.866343,0.0,0.88344,-0.203677,0.151357,-0.393879,0.780032,0.0,1,0,0,0,0,0,0
637219469,-0.499493,0.106935,-0.868194,0.0,0.883402,-0.202134,0.150785,-0.394977,0.778197,0.0,1,0,0,0,0,0,0
637239599,-0.496985,0.106707,-0.870051,0.0,0.883281,-0.200935,0.150377,-0.396013,0.776316,0.0,1,0,0,0,0,0,0
637259508,-0.494389,0.106484,-0.871913,0.0,0.883166,-0.199695,0.149951,-0.397058,0.774331,0.0,1,0,0,0,0,0,0
637279514,-0.492494,0.106291,-0.873782,0.0,0.882977,-0.198759,0.149677,-0.398049,0.772506,0.0,1,0,0,0,0,0,0
637299720,-0.489265,0.106122,-0.871569,0.0,0.883733,-0.197534,0.148742,-0.397332,0.770937,0.0,1,0,0,0,0,0,0
637319531,-0.48733,0.105984,-0.873445,0.0,0.883546,-0.196568,0.148481,-0.398322,0.769528,0.0,1,0,0,0,0,0,0
637339537,-0.485605,0.105879,-0.875327,0.0,0.883337,-0.195689,0.148276,-0.399293,0.76821,0.0,1,0,0,0,0,0,0
637359570,-0.483401,0.105787,-0.877215,0.0,0.883172,-0.194595,0.14798,-0.400301,0.766745,0.0,1,0,0,0,0,0,0
637379611,-0.4809,0.105717,-0.879108,0.0,0.883034,-0.193366,0.147632,-0.401331,0.764917,0.0,1,0,0,0,0,0,0
637399619,-0.478053,0.105661,-0.881008,0.0,0.882925,-0.191981,0.147218,-0.402386,0.762973,0.0,1,0,0,0,0,0,0
637419712,-0.473796,0.105601,-0.881008,0.0,0.88333,-0.190114,0.146335,-0.402705,0.761124,0.0,1,0,0,0,0,0,0
637439657,-0.469631,0.105536,-0.880698,0.0,0.883784,-0.18831,0.145438,-0.40288,0.759414,0.0,1,0,0,0,0,0,0
637459710,-0.466689,0.10546,-0.882611,0.0,0.883672,-0.186887,0.144991,-0.403948,0.75781,0.0,1,0,0,0,0,0,0
637499794,-0.461227,0.105292,-0.886456,0.0,0.883396,-0.184232,0.144169,-0.40606,0.754615,0.0,1,0,0,0,0,0,0
637519800,-0.458206,0.105182,-0.888388,0.0,0.883278,-0.182783,0.143684,-0.407143,0.753023,0.0,1,0,0,0,0,0,0
637539800,-0.45412,0.105041,-0.888388,0.0,0.883646,-0.181008,0.14279,-0.407452,0.751445,0.0,1,0,0,0,0,0,0
637559829,-0.449634,0.104863,-0.888106,0.0,0.884103,-0.179084,0.141773,-0.407666,0.749884,0.0,1,0,0,0,0,0,0
637581420,-0.44695,0.10466,-0.890052,0.0,0.88394,-0.177803,0.14131,-0.408739,0.748276,0.0,1,0,0,0,0,0,0
637599874,-0.444059,0.104474,-0.892003,0.0,0.883792,-0.176428,0.14081,-0.409826,0.746972,0.0,1,0,0,0,0,0,0
637619896,-0.441996,0.104253,-0.893961,0.0,0.883567,-0.175426,0.140462,-0.41086,0.745774,0.0,1,0,0,0,0,0,0
637640115,-0.438537,0.104023,-0.893961,0.0,0.883863,-0.173947,0.139651,-0.411128,0.744686,0.0,1,0,0,0,0,0,0
637660016,-0.436733,0.103796,-0.895925,0.0,0.88361,-0.173062,0.139351,-0.412146,0.743748,0.0,1,0,0,0,0,0,0
637681511,-0.433376,0.103543,-0.895674,0.0,0.883945,-0.171651,0.138526,-0.412295,0.742864,0.0,1,0,0,0,0,0,0
637700264,-0.431266,0.103317,-0.897652,0.0,0.883712,-0.170631,0.138162,-0.41334,0.742235,0.0,1,0,0,0,0,0,0
637720208,-0.428887,0.103089,-0.899637,0.0,0.883498,-0.169492,0.137739,-0.414405,0.74169,0.0,1,0,0,0,0,0,0
637740060,-0.425714,0.102851,-0.899637,0.0,0.88376,-0.168142,0.136977,-0.414649,0.741068,0.0,1,0,0,0,0,0,0
637760096,-0.423335,0.102602,-0.901628,0.0,0.883541,-0.167009,0.136541,-0.415717,0.740301,0.0,1,0,0,0,0,0,0
637800117,-0.417082,0.102101,-0.903405,0.0,0.883677,-0.164235,0.135167,-0.416979,0.738459,0.0,1,0,0,0,0,0,0
637820107,-0.413353,0.101846,-0.903405,0.0,0.883976,-0.162642,0.134278,-0.417257,0.737486,0.0,1,0,0,0,0,0,0
637840461,-0.410708,0.101592,-0.905417,0.0,0.883764,-0.161394,0.133778,-0.418349,0.73641,0.0,1,0,0,0,0,0,0
637860157,-0.408042,0.101353,-0.907435,0.0,0.883551,-0.160134,0.133277,-0.419444,0.735377,0.0,1,0,0,0,0,0,0
637880138,-0.404198,0.101102,-0.90723,0.0,0.883894,-0.158504,0.132344,-0.419634,0.734216,0.0,1,0,0,0,0,0,0
637900157,-0.401791,0.100848,-0.909264,0.0,0.883652,-0.157361,0.131888,-0.420717,0.733074,0.0,1,0,0,0,0,0,0
637920600,-0.398527,0.10059,-0.909264,0.0,0.883902,-0.155976,0.131088,-0.420957,0.731924,0.0,1,0,0,0,0,0,0
637940166,-0.39625,0.100353,-0.911304,0.0,0.883644,-0.154888,0.130664,-0.422031,0.730884,0.0,1,0,0,0,0,0,0
637960262,-0.392955,0.100099,-0.911114,0.0,0.883932,-0.1535,0.129842,-0.422187,0.729802,0.0,1,0,0,0,0,0,0
637980285,-0.390769,0.0998417,-0.91317,0.0,0.88366,-0.152457,0.129425,-0.423263,0.728698,0.0,1,0,0,0,0,0,0
638000296,-0.38776,0.0995774,-0.91317,0.0,0.883883,-0.151186,0.128672,-0.423482,0.727632,0.0,1,0,0,0,0,0,0
638020434,-0.386092,0.0993103,-0.915232,0.0,0.883566,-0.150376,0.128357,-0.424526,0.726588,0.0,1,0,0,0,0,0,0
638041757,-0.38452,0.0990103,-0.9173,0.0,0.883238,-0.149615,0.128047,-0.42557,0.725623,0.0,1,0,0,0,0,0,0
638061847,-0.381843,0.0987208,-0.917136,0.0,0.883467,-0.148507,0.127338,-0.425696,0.724809,0.0,1,0,0,0,0,0,0
638080799,-0.379149,0.0984481,-0.917136,0.0,0.88366,-0.147377,0.126646,-0.425893,0.724272,0.0,1,0,0,0,0,0,0
638100299,-0.378354,0.0981583,-0.91922,0.0,0.883269,-0.146959,0.126503,-0.426892,0.723953,0.0,1,0,0,0,0,0,0
638120326,-0.377099,0.0978452,-0.921311,0.0,0.882908,-0.146342,0.126251,-0.427924,0.72372,0.0,1,0,0,0,0,0,0
638160426,-0.372234,0.0971624,-0.921164,0.0,0.883279,-0.144355,0.1249,-0.428229,0.723609,0.0,1,0,0,0,0,0,0
638180408,-0.370914,0.0967966,-0.923271,0.0,0.882915,-0.143721,0.124609,-0.429275,0.723647,0.0,1,0,0,0,0,0,0
638200436,-0.369841,0.0964006,-0.925385,0.0,0.88253,-0.143205,0.124356,-0.430312,0.723709,0.0,1,0,0,0,0,0,0
638220502,-0.365868,0.0959934,-0.923132,0.0,0.883289,-0.141681,0.123164,-0.429601,0.723775,0.0,1,0,0,0,0,0,0
638240492,-0.365028,0.0955794,-0.925255,0.0,0.882884,-0.141272,0.122952,-0.430628,0.724041,0.0,1,0,0,0,0,0,0
638260485,-0.364551,0.0951283,-0.927385,0.0,0.88245,-0.141031,0.122802,-0.431639,0.724423,0.0,1,0,0,0,0,0,0
638280526,-0.362666,0.0946965,-0.927385,0.0,0.882574,-0.140296,0.122206,-0.431793,0.724901,0.0,1,0,0,0,0,0,0
638300587,-0.360441,0.0942218,-0.927264,0.0,0.882747,-0.139427,0.12151,-0.431919,0.725503,0.0,1,0,0,0,0,0,0
638320601,-0.359517,0.0937215,-0.929411,0.0,0.882337,-0.139001,0.121241,-0.432967,0.726142,0.0,1,0,0,0,0,0,0
638340625,-0.358214,0.0932142,-0.931564,0.0,0.881951,-0.13841,0.120886,-0.434041,0.726788,0.0,1,0,0,0,0,0,0
638360664,-0.355308,0.0926763,-0.931564,0.0,0.882141,-0.137249,0.12002,-0.434265,0.727347,0.0,1,0,0,0,0,0,0
638380672,-0.35171,0.0921159,-0.931462,0.0,0.882398,-0.135794,0.118986,-0.434484,0.727689,0.0,1,0,0,0,0,0,0
638400981,-0.349831,0.0915378,-0.933632,0.0,0.882042,-0.134966,0.118471,-0.435604,0.727865,0.0,1,0,0,0,0,0,0
638421777,-0.346742,0.0909268,-0.933632,0.0,0.882238,-0.133741,0.117531,-0.435839,0.727947,0.0,1,0,0,0,0,0,0
638441494,-0.343885,0.090329,-0.933539,0.0,0.882437,-0.13262,0.116641,-0.436017,0.728181,0.0,1,0,0,0,0,0,0
638461183,-0.343055,0.089757,-0.935726,0.0,0.882004,-0.132255,0.116354,-0.43708,0.728475,0.0,1,0,0,0,0,0,0
638480819,-0.340934,0.0891619,-0.935726,0.0,0.882133,-0.131454,0.11563,-0.437254,0.728735,0.0,1,0,0,0,0,0,0
638521421,-0.336167,0.0878543,-0.937847,0.0,0.881955,-0.129525,0.114152,-0.438574,0.729389,0.0,1,0,0,0,0,0,0
638541654,-0.334301,0.0871933,-0.937847,0.0,0.882064,-0.128852,0.113453,-0.438736,0.730006,0.0,1,0,0,0,0,0,0
638561726,-0.334974,0.0865666,-0.940058,0.0,0.881523,-0.129164,0.11347,-0.439725,0.730984,0.0,1,0,0,0,0,0,0
638581413,-0.33541,0.0859726,-0.942277,0.0,0.880995,-0.129365,0.113449,-0.440728,0.732146,0.0,1,0,0,0,0,0,0
638601564,-0.333168,0.085418,-0.939994,0.0,0.881632,-0.128632,0.112566,-0.439895,0.733405,0.0,1,0,0,0,0,0,0
638621369,-0.333198,0.08489,-0.942224,0.0,0.881129,-0.128639,0.112485,-0.44092,0.734631,0.0,1,0,0,0,0,0,0
638641289,-0.333075,0.0844141,-0.94446,0.0,0.880634,-0.128567,0.112393,-0.441952,0.73591,0.0,1,0,0,0,0,0,0
638661256,-0.331477,0.083959,-0.94446,0.0,0.880728,-0.127967,0.111841,-0.442079,0.737163,0.0,1,0,0,0,0,0,0
638681045,-0.329423,0.0835399,-0.944417,0.0,0.880861,-0.12716,0.111201,-0.442209,0.738416,0.0,1,0,0,0,0,0,0
638701629,-0.328478,0.0831465,-0.946671,0.0,0.880414,-0.126708,0.110963,-0.443286,0.739552,0.0,1,0,0,0,0,0,0
638721428,-0.325546,0.0828138,-0.946671,0.0,0.880593,-0.125493,0.110168,-0.443476,0.740463,0.0,1,0,0,0,0,0,0
638741575,-0.3232,0.0825146,-0.946638,0.0,0.880741,-0.12453,0.109514,-0.443614,0.741215,0.0,1,0,0,0,0,0,0
638761131,-0.322041,0.0822997,-0.948911,0.0,0.880305,-0.123945,0.109304,-0.444696,0.741779,0.0,1,0,0,0,0,0,0
638781451,-0.31934,0.082096,-0.948911,0.0,0.880467,-0.122802,0.108614,-0.444859,0.742209,0.0,1,0,0,0,0,0,0
638801103,-0.317591,0.0819392,-0.951191,0.0,0.880064,-0.121944,0.108296,-0.44597,0.742348,0.0,1,0,0,0,0,0,0
638821266,-0.313904,0.0818025,-0.95118,0.0,0.880287,-0.120353,0.107413,-0.446175,0.742202,0.0,1,0,0,0,0,0,0
638861167,-0.308261,0.0816301,-0.953479,0.0,0.880106,-0.117787,0.106214,-0.447501,0.741157,0.0,1,0,0,0,0,0,0
638884164,-0.305608,0.081593,-0.953479,0.0,0.880261,-0.116628,0.105604,-0.447645,0.740675,0.0,1,0,0,0,0,0,0
638903296,-0.303077,0.0816001,-0.953479,0.0,0.880408,-0.115512,0.105041,-0.447777,0.740444,0.0,1,0,0,0,0,0,0
638921257,-0.303036,0.0816717,-0.955796,0.0,0.879892,-0.115356,0.105196,-0.448794,0.740377,0.0,1,0,0,0,0,0,0
638941475,-0.300554,0.0817607,-0.955808,0.0,0.880034,-0.114243,0.104679,-0.448923,0.740194,0.0,1,0,0,0,0,0,0
638963160,-0.29793,0.0818905,-0.955808,0.0,0.880185,-0.113058,0.104147,-0.44905,0.739911,0.0,1,0,0,0,0,0,0
638981467,-0.296581,0.0820448,-0.958145,0.0,0.879738,-0.112308,0.104043,-0.450136,0.7395,0.0,1,0,0,0,0,0,0
639001519,-0.294989,0.0822004,-0.960489,0.0,0.879301,-0.111449,0.103883,-0.451239,0.738818,0.0,1,0,0,0,0,0,0
639021265,-0.2907,0.0823512,-0.958168,0.0,0.880064,-0.109648,0.102854,-0.450428,0.738027,0.0,1,0,0,0,0,0,0
639041433,-0.288801,0.0825139,-0.960524,0.0,0.879639,-0.108654,0.102625,-0.45155,0.737066,0.0,1,0,0,0,0,0,0
639061258,-0.285622,0.0826961,-0.960524,0.0,0.879813,-0.107214,0.101987,-0.4517,0.736074,0.0,1,0,0,0,0,0,0
639081289,-0.281779,0.0828601,-0.960559,0.0,0.880012,-0.105483,0.101192,-0.451899,0.735026,0.0,1,0,0,0,0,0,0
639121413,-0.276442,0.0831649,-0.962935,0.0,0.879757,-0.102946,0.100242,-0.453191,0.733107,0.0,1,0,0,0,0,0,0
639141627,-0.272921,0.0832913,-0.962983,0.0,0.879927,-0.101365,0.0995016,-0.453379,0.732279,0.0,1,0,0,0,0,0,0
639161528,-0.270469,0.0834143,-0.965378,0.0,0.879509,-0.100139,0.0991195,-0.454546,0.731308,0.0,1,0,0,0,0,0,0
639181580,-0.265773,0.0834841,-0.965378,0.0,0.879742,-0.0980572,0.0980825,-0.454772,0.730138,0.0,1,0,0,0,0,0,0
639201591,-0.261422,0.0835257,-0.965439,0.0,0.87994,-0.0961303,0.0971138,-0.455009,0.728737,0.0,1,0,0,0,0,0,0
639221593,-0.256904,0.0835281,-0.965439,0.0,0.880155,-0.0941417,0.0960868,-0.455227,0.727291,0.0,1,0,0,0,0,0,0
639241571,-0.254934,0.0834924,-0.967855,0.0,0.879697,-0.0931674,0.0957354,-0.456386,0.726045,0.0,1,0,0,0,0,0,0
639261556,-0.251293,0.0834385,-0.967928,0.0,0.879847,-0.0915749,0.0948841,-0.456596,0.724953,0.0,1,0,0,0,0,0,0
639281576,-0.24765,0.0833584,-0.967928,0.0,0.880012,-0.0899908,0.0940173,-0.456773,0.724149,0.0,1,0,0,0,0,0,0
639301613,-0.24592,0.0832676,-0.970365,0.0,0.879531,-0.0891367,0.0936911,-0.457932,0.723505,0.0,1,0,0,0,0,0,0
639321611,-0.24046,0.0831524,-0.968002,0.0,0.880311,-0.0868711,0.0922876,-0.457153,0.723026,0.0,1,0,0,0,0,0,0
639341632,-0.238748,0.0830097,-0.970451,0.0,0.879823,-0.0860384,0.0919392,-0.458319,0.722696,0.0,1,0,0,0,0,0,0
639361650,-0.236798,0.0828567,-0.972909,0.0,0.879341,-0.0851038,0.0915299,-0.459499,0.722416,0.0,1,0,0,0,0,0,0
639381649,-0.231378,0.0826854,-0.970539,0.0,0.880111,-0.0828674,0.0901113,-0.458713,0.72218,0.0,1,0,0,0,0,0,0
639401650,-0.229149,0.0824972,-0.97301,0.0,0.879634,-0.0818198,0.0896187,-0.459911,0.72186,0.0,1,0,0,0,0,0,0
639441816,-0.22112,0.0820692,-0.973111,0.0,0.879929,-0.0783835,0.0875882,-0.460337,0.721254,0.0,1,0,0,0,0,0,0
639461951,-0.218968,0.0818418,-0.975603,0.0,0.879436,-0.0773815,0.0870898,-0.46154,0.720995,0.0,1,0,0,0,0,0,0
639482222,-0.215292,0.0816105,-0.975603,0.0,0.879575,-0.0758195,0.0861402,-0.461712,0.720868,0.0,1,0,0,0,0,0,0
639502364,-0.212205,0.0813926,-0.975719,0.0,0.879663,-0.074508,0.0853363,-0.461908,0.720896,0.0,1,0,0,0,0,0,0
639522052,-0.209276,0.0811796,-0.975719,0.0,0.87977,-0.0732693,0.0845663,-0.462044,0.721131,0.0,1,0,0,0,0,0,0
639541980,-0.206292,0.0809642,-0.975836,0.0,0.87985,-0.0720027,0.0837869,-0.462233,0.72146,0.0,1,0,0,0,0,0,0
639561958,-0.20401,0.0807601,-0.975836,0.0,0.87993,-0.0710463,0.0831699,-0.46234,0.72201,0.0,1,0,0,0,0,0,0
639582074,-0.204181,0.0805532,-0.978363,0.0,0.879338,-0.0710654,0.0832088,-0.463455,0.722905,0.0,1,0,0,0,0,0,0
639602007,-0.203014,0.080369,-0.978494,0.0,0.879348,-0.07059,0.0828623,-0.463572,0.724051,0.0,1,0,0,0,0,0,0
639621953,-0.202396,0.0801935,-0.978494,0.0,0.879368,-0.0703595,0.0826422,-0.463607,0.725441,0.0,1,0,0,0,0,0,0
639642060,-0.203627,0.0800293,-0.981044,0.0,0.878732,-0.0708338,0.0829461,-0.464685,0.727014,0.0,1,0,0,0,0,0,0
639661927,-0.20148,0.0799015,-0.978628,0.0,0.879368,-0.07002,0.0823067,-0.463719,0.728825,0.0,1,0,0,0,0,0,0
639701962,-0.200685,0.0796868,-0.978762,0.0,0.879363,-0.0697153,0.082033,-0.463822,0.733267,0.0,1,0,0,0,0,0,0
639722007,-0.202161,0.0796145,-0.981339,0.0,0.878713,-0.0702754,0.0824344,-0.464898,0.735745,0.0,1,0,0,0,0,0,0
639742013,-0.203156,0.0795454,-0.983925,0.0,0.878075,-0.070622,0.0827268,-0.465996,0.738349,0.0,1,0,0,0,0,0,0
639762065,-0.200518,0.0794828,-0.98149,0.0,0.878734,-0.0695782,0.0819999,-0.465039,0.740982,0.0,1,0,0,0,0,0,0
639782099,-0.200939,0.0794401,-0.98409,0.0,0.878114,-0.0696668,0.08217,-0.466166,0.743424,0.0,1,0,0,0,0,0,0
639802102,-0.199616,0.0794007,-0.98409,0.0,0.87816,-0.0690951,0.0818442,-0.466222,0.745736,0.0,1,0,0,0,0,0,0
639822191,-0.198131,0.0793796,-0.984256,0.0,0.878172,-0.0684413,0.0814946,-0.466357,0.74786,0.0,1,0,0,0,0,0,0
639862226,-0.195041,0.0793386,-0.984424,0.0,0.878237,-0.0670874,0.0807616,-0.466558,0.751634,0.0,1,0,0,0,0,0,0
639882239,-0.195306,0.0793129,-0.987063,0.0,0.877612,-0.0671029,0.0809007,-0.467707,0.753344,0.0,1,0,0,0,0,0,0
639902226,-0.19365,0.079281,-0.987063,0.0,0.877667,-0.0663841,0.0804996,-0.467775,0.754896,0.0,1,0,0,0,0,0,0
639922256,-0.191787,0.0792462,-0.987247,0.0,0.877685,-0.0655673,0.0800546,-0.467933,0.756305,0.0,1,0,0,0,0,0,0
639942234,-0.190204,0.0792138,-0.987247,0.0,0.877736,-0.0648804,0.0796701,-0.467998,0.757637,0.0,1,0,0,0,0,0,0
639962880,-0.190257,0.0791662,-0.98991,0.0,0.877111,-0.0648086,0.079748,-0.469166,0.758944,0.0,1,0,0,0,0,0,0
639982260,-0.186726,0.0791456,-0.987434,0.0,0.877804,-0.0633628,0.0788323,-0.468221,0.760066,0.0,1,0,0,0,0,0,0
640002312,-0.186646,0.0791216,-0.990112,0.0,0.877179,-0.0632278,0.0788878,-0.4694,0.761085,0.0,1,0,0,0,0,0,0
640022347,-0.182901,0.0791131,-0.987623,0.0,0.877879,-0.0616841,0.0779282,-0.468456,0.761949,0.0,1,0,0,0,0,0,0
640042340,-0.182892,0.0791105,-0.990316,0.0,0.877248,-0.0615757,0.0780079,-0.469638,0.762692,0.0,1,0,0,0,0,0,0
640062870,-0.183065,0.0791226,-0.993018,0.0,0.876607,-0.0615433,0.0781371,-0.470815,0.763321,0.0,1,0,0,0,0,0,0
640082416,-0.179275,0.0791448,-0.990522,0.0,0.877309,-0.0599731,0.0771797,-0.469867,0.763866,0.0,1,0,0,0,0,0,0
640102441,-0.179652,0.0791991,-0.99324,0.0,0.876659,-0.0600203,0.0773736,-0.471041,0.764405,0.0,1,0,0,0,0,0,0
640142615,-0.176442,0.0793533,-0.993465,0.0,0.876702,-0.0585679,0.0766914,-0.471256,0.765401,0.0,1,0,0,0,0,0,0
640162516,-0.174933,0.0794564,-0.993465,0.0,0.876746,-0.0578816,0.0763807,-0.471309,0.765793,0.0,1,0,0,0,0,0,0
640182507,-0.17335,0.0795885,-0.993692,0.0,0.876739,-0.0571474,0.0760718,-0.471462,0.7661,0.0,1,0,0,0,0,0,0
640202527,-0.174075,0.0797607,-0.996451,0.0,0.876067,-0.057319,0.0763972,-0.472636,0.766332,0.0,1,0,0,0,0,0,0
640222552,-0.172406,0.079954,-0.996451,0.0,0.876115,-0.0565417,0.0760871,-0.47269,0.766501,0.0,1,0,0,0,0,0,0
640242593,-0.171381,0.0801952,-0.996697,0.0,0.876087,-0.0560257,0.0759571,-0.472825,0.766682,0.0,1,0,0,0,0,0,0
640264361,-0.169903,0.0805095,-0.996697,0.0,0.876129,-0.0553027,0.0757447,-0.472867,0.76692,0.0,1,0,0,0,0,0,0
640282624,-0.168397,0.0808146,-0.996945,0.0,0.876112,-0.0545604,0.0755285,-0.473018,0.767025,0.0,1,0,0,0,0,0,0
640302606,-0.167139,0.0811741,-0.996945,0.0,0.876147,-0.0539232,0.0753878,-0.473049,0.767165,0.0,1,0,0,0,0,0,0
640324388,-0.165566,0.0816001,-0.997197,0.0,0.87613,-0.0531229,0.0752085,-0.473199,0.767327,0.0,1,0,0,0,0,0,0
640364054,-0.165002,0.0824923,-1.00002,0.0,0.875479,-0.0525558,0.0755387,-0.474413,0.767477,0.0,1,0,0,0,0,0,0
640383985,-0.163564,0.0829877,-1.00029,0.0,0.875453,-0.051797,0.0754206,-0.474564,0.767439,0.0,1,0,0,0,0,0,0
640402734,-0.162071,0.083484,-1.00029,0.0,0.875492,-0.051024,0.0752826,-0.474597,0.767301,0.0,1,0,0,0,0,0,0
640422731,-0.160367,0.0840267,-1.00056,0.0,0.875471,-0.0501374,0.0751219,-0.474757,0.767109,0.0,1,0,0,0,0,0,0
640442719,-0.158981,0.0845968,-1.00056,0.0,0.875506,-0.0493938,0.0750415,-0.474783,0.76691,0.0,1,0,0,0,0,0,0
640462725,-0.159494,0.0851969,-1.00342,0.0,0.874813,-0.0493661,0.0754958,-0.47599,0.766679,0.0,1,0,0,0,0,0,0
640482909,-0.156032,0.085819,-1.00084,0.0,0.875512,-0.0477988,0.0748812,-0.474961,0.76644,0.0,1,0,0,0,0,0,0
640502746,-0.156498,0.0864562,-1.00372,0.0,0.874815,-0.0477409,0.0753385,-0.476175,0.76616,0.0,1,0,0,0,0,0,0
640522923,-0.152795,0.0871085,-1.00112,0.0,0.87552,-0.0460611,0.0746813,-0.475148,0.765836,0.0,1,0,0,0,0,0,0
640542795,-0.153454,0.087782,-1.00402,0.0,0.874815,-0.0460786,0.0751984,-0.476362,0.765483,0.0,1,0,0,0,0,0,0
640583086,-0.15046,0.0891813,-1.00432,0.0,0.874809,-0.0444202,0.0751019,-0.476545,0.764612,0.0,1,0,0,0,0,0,0
640602836,-0.148623,0.0898884,-1.00432,0.0,0.874849,-0.0434462,0.0749723,-0.476583,0.764128,0.0,1,0,0,0,0,0,0
640622835,-0.147439,0.0906323,-1.00463,0.0,0.8748,-0.0427374,0.075021,-0.476729,0.763602,0.0,1,0,0,0,0,0,0
640643097,-0.147899,0.0913813,-1.00757,0.0,0.874085,-0.0426467,0.0755199,-0.477967,0.763079,0.0,1,0,0,0,0,0,0
640662867,-0.144181,0.0921371,-1.00494,0.0,0.87479,-0.0409374,0.0749064,-0.476922,0.762492,0.0,1,0,0,0,0,0,0
640682917,-0.144836,0.0929117,-1.0079,0.0,0.874067,-0.0409253,0.0754609,-0.47816,0.761885,0.0,1,0,0,0,0,0,0
640723060,-0.142037,0.0944364,-1.00823,0.0,0.874039,-0.0393205,0.0754621,-0.478346,0.760676,0.0,1,0,0,0,0,0,0
640744313,-0.140404,0.0952402,-1.00823,0.0,0.874068,-0.0384122,0.0754215,-0.478373,0.760159,0.0,1,0,0,0,0,0,0
640764300,-0.139481,0.0959884,-1.00857,0.0,0.874002,-0.037815,0.0755329,-0.478524,0.759782,0.0,1,0,0,0,0,0,0
640784154,-0.1377,0.0967293,-1.00857,0.0,0.874032,-0.036857,0.0754292,-0.47856,0.759445,0.0,1,0,0,0,0,0,0
640803239,-0.136916,0.0974424,-1.00891,0.0,0.873962,-0.036329,0.0755583,-0.478708,0.759249,0.0,1,0,0,0,0,0,0
640823096,-0.135667,0.0981961,-1.00891,0.0,0.873981,-0.0356006,0.0755876,-0.478724,0.759166,0.0,1,0,0,0,0,0,0
640843130,-0.137167,0.0989646,-1.01194,0.0,0.873223,-0.0359542,0.0763357,-0.47996,0.759161,0.0,1,0,0,0,0,0,0
640863158,-0.134224,0.0997465,-1.00925,0.0,0.873915,-0.0345815,0.0759232,-0.478865,0.759349,0.0,1,0,0,0,0,0,0
640883590,-0.135721,0.100575,-1.0123,0.0,0.873153,-0.0349175,0.0766955,-0.480106,0.759681,0.0,1,0,0,0,0,0,0
640903667,-0.133,0.101421,-1.0096,0.0,0.873843,-0.0336275,0.0763649,-0.478995,0.760199,0.0,1,0,0,0,0,0,0
640923852,-0.134468,0.102295,-1.01267,0.0,0.873076,-0.0339383,0.0771491,-0.480244,0.760784,0.0,1,0,0,0,0,0,0
640944067,-0.131589,0.103184,-1.00995,0.0,0.873771,-0.0325696,0.0768003,-0.479131,0.76141,0.0,1,0,0,0,0,0,0
640963680,-0.13335,0.104058,-1.01304,0.0,0.872994,-0.0330072,0.0776537,-0.480376,0.762087,0.0,1,0,0,0,0,0,0
641003486,-0.132221,0.105893,-1.01342,0.0,0.87291,-0.0320535,0.0781863,-0.480509,0.763511,0.0,1,0,0,0,0,0,0
641023868,-0.133699,0.106854,-1.01655,0.0,0.872128,-0.032341,0.0790097,-0.481773,0.764158,0.0,1,0,0,0,0,0,0
641043877,-0.13091,0.107793,-1.0138,0.0,0.872824,-0.0310038,0.0787032,-0.480648,0.764775,0.0,1,0,0,0,0,0,0
641063805,-0.132193,0.108741,-1.01695,0.0,0.87204,-0.0312078,0.0794728,-0.481929,0.765274,0.0,1,0,0,0,0,0,0
641083554,-0.129147,0.109698,-1.01419,0.0,0.872743,-0.0297554,0.0791132,-0.480808,0.765674,0.0,1,0,0,0,0,0,0
641103822,-0.130581,0.110659,-1.01736,0.0,0.871951,-0.0300207,0.0799232,-0.482091,0.765971,0.0,1,0,0,0,0,0,0
641123517,-0.127161,0.111605,-1.01458,0.0,0.872661,-0.0284086,0.0794706,-0.480979,0.766112,0.0,1,0,0,0,0,0,0
641144170,-0.128734,0.112596,-1.01777,0.0,0.871862,-0.0287258,0.0803254,-0.482264,0.766117,0.0,1,0,0,0,0,0,0
641163767,-0.12526,0.113513,-1.01498,0.0,0.872574,-0.0270988,0.0798479,-0.481149,0.765976,0.0,1,0,0,0,0,0,0
641183485,-0.126969,0.114453,-1.01819,0.0,0.871769,-0.0274856,0.0807115,-0.482441,0.765757,0.0,1,0,0,0,0,0,0
641203739,-0.125671,0.115395,-1.01819,0.0,0.871777,-0.0266898,0.0808073,-0.482454,0.765457,0.0,1,0,0,0,0,0,0
641223500,-0.125167,0.116314,-1.01861,0.0,0.871673,-0.0262284,0.0810902,-0.482622,0.765115,0.0,1,0,0,0,0,0,0
641243527,-0.124135,0.117228,-1.01861,0.0,0.871676,-0.0255548,0.0812382,-0.482626,0.76475,0.0,1,0,0,0,0,0,0
641264056,-0.123468,0.118137,-1.01904,0.0,0.871571,-0.0250246,0.0814774,-0.482803,0.764307,0.0,1,0,0,0,0,0,0
641284063,-0.122715,0.119001,-1.01904,0.0,0.871571,-0.0244853,0.0816703,-0.482798,0.763867,0.0,1,0,0,0,0,0,0
641303579,-0.121903,0.119811,-1.01948,0.0,0.871467,-0.0239153,0.081831,-0.482988,0.763389,0.0,1,0,0,0,0,0,0
641323566,-0.121146,0.120613,-1.01948,0.0,0.871467,-0.0233891,0.0819965,-0.482986,0.76292,0.0,1,0,0,0,0,0,0
641365650,-0.119711,0.122198,-1.01992,0.0,0.871358,-0.0223579,0.0823423,-0.483172,0.762043,0.0,1,0,0,0,0,0,0
641385685,-0.121546,0.122901,-1.02323,0.0,0.870528,-0.0228476,0.0831285,-0.484509,0.761693,0.0,1,0,0,0,0,0,0
641405601,-0.118338,0.123576,-1.02037,0.0,0.871248,-0.0214042,0.0826134,-0.483368,0.761384,0.0,1,0,0,0,0,0,0
641424509,-0.12051,0.124205,-1.0237,0.0,0.87041,-0.0220573,0.0834481,-0.484703,0.761189,0.0,1,0,0,0,0,0,0
641443667,-0.117218,0.124821,-1.02082,0.0,0.871134,-0.0205922,0.0828877,-0.483561,0.761,0.0,1,0,0,0,0,0,0
641463667,-0.119332,0.125456,-1.02418,0.0,0.870291,-0.021217,0.0837098,-0.484908,0.760885,0.0,1,0,0,0,0,0,0
641483826,-0.115941,0.126073,-1.02128,0.0,0.871019,-0.0197104,0.0831268,-0.483763,0.760786,0.0,1,0,0,0,0,0,0
641504262,-0.117867,0.126686,-1.02467,0.0,0.870173,-0.0202571,0.0838928,-0.48513,0.760699,0.0,1,0,0,0,0,0,0
641523712,-0.11457,0.127237,-1.02175,0.0,0.870904,-0.0188086,0.0833039,-0.483976,0.760576,0.0,1,0,0,0,0,0,0
641543828,-0.116552,0.127789,-1.02516,0.0,0.870052,-0.0193934,0.0840563,-0.485353,0.76053,0.0,1,0,0,0,0,0,0
641584038,-0.114889,0.128827,-1.02565,0.0,0.869933,-0.0183938,0.0841068,-0.485597,0.760518,0.0,1,0,0,0,0,0,0
641603917,-0.113656,0.129313,-1.02565,0.0,0.869937,-0.0177375,0.0840181,-0.485629,0.760557,0.0,1,0,0,0,0,0,0
641623963,-0.113012,0.129795,-1.02616,0.0,0.869814,-0.0173178,0.0840746,-0.485856,0.760585,0.0,1,0,0,0,0,0,0
641644097,-0.11191,0.130259,-1.02616,0.0,0.869816,-0.0167242,0.0840079,-0.485883,0.760674,0.0,1,0,0,0,0,0,0
641663981,-0.111135,0.130697,-1.02667,0.0,0.869692,-0.0162583,0.0840137,-0.486121,0.76076,0.0,1,0,0,0,0,0,0
641684025,-0.110184,0.131124,-1.02667,0.0,0.869693,-0.0157394,0.0839672,-0.486143,0.760909,0.0,1,0,0,0,0,0,0
641704040,-0.109303,0.131538,-1.02719,0.0,0.869568,-0.0152323,0.0839365,-0.486389,0.761074,0.0,1,0,0,0,0,0,0
641724028,-0.108372,0.131937,-1.02719,0.0,0.869569,-0.0147295,0.0838829,-0.486413,0.761301,0.0,1,0,0,0,0,0,0
641744013,-0.107354,0.13232,-1.02771,0.0,0.869442,-0.0141708,0.0838049,-0.486669,0.761503,0.0,1,0,0,0,0,0,0
641764038,-0.106322,0.132691,-1.02771,0.0,0.869443,-0.0136305,0.0837141,-0.486697,0.761706,0.0,1,0,0,0,0,0,0
641784075,-0.107877,0.133041,-1.03126,0.0,0.868563,-0.0140708,0.0842693,-0.488159,0.761901,0.0,1,0,0,0,0,0,0
641804263,-0.104404,0.133377,-1.02825,0.0,0.869315,-0.0126055,0.083548,-0.486983,0.762077,0.0,1,0,0,0,0,0,0
641824324,-0.106334,0.133693,-1.03182,0.0,0.868426,-0.0132159,0.0841786,-0.488442,0.762231,0.0,1,0,0,0,0,0,0
641844315,-0.105639,0.133999,-1.03239,0.0,0.868287,-0.0128146,0.084145,-0.488706,0.762434,0.0,1,0,0,0,0,0,0
641864353,-0.104825,0.1343,-1.03239,0.0,0.868287,-0.0123864,0.084076,-0.488728,0.762652,0.0,1,0,0,0,0,0,0
641884332,-0.104029,0.134595,-1.03297,0.0,0.868146,-0.0119437,0.0840123,-0.489,0.762947,0.0,1,0,0,0,0,0,0
641904322,-0.103264,0.134875,-1.03297,0.0,0.868146,-0.0115427,0.0839463,-0.489021,0.763239,0.0,1,0,0,0,0,0,0
641924333,0.00442194,0.135139,-1.02989,0.0,0.868257,0.0351716,0.0576756,-0.491494,0.763567,0.0,1,0,0,0,0,0,0
641944239,0.00462827,0.135392,-1.03355,0.0,0.867346,0.0354289,0.0576702,-0.493082,0.763903,0.0,1,0,0,0,0,0,0
641964195,0.00432312,0.135636,-1.03046,0.0,0.868105,0.0352672,0.0579058,-0.491728,0.764219,0.0,1,0,0,0,0,0,0
642004232,0.0044332,0.136078,-1.03414,0.0,0.867182,0.0355305,0.0580052,-0.493323,0.764816,0.0,1,0,0,0,0,0,0
642024462,0.00441871,0.136285,-1.03475,0.0,0.867028,0.0355928,0.058088,-0.49358,0.765124,0.0,1,0,0,0,0,0,0
642044273,0.00436439,0.136461,-1.03475,0.0,0.867024,0.0356126,0.0581776,-0.493576,0.765396,0.0,1,0,0,0,0,0,0
642064287,0.00434642,0.136637,-1.03536,0.0,0.866867,0.0356662,0.0582477,-0.493838,0.765712,0.0,1,0,0,0,0,0,0
642084882,0.00426018,0.136803,-1.03536,0.0,0.866864,0.0356697,0.0583408,-0.493833,0.766025,0.0,1,0,0,0,0,0,0
642104855,0.0042611,0.136943,-1.03598,0.0,0.866706,0.0357228,0.0583902,-0.4941,0.766246,0.0,1,0,0,0,0,0,0
642124247,0.00418786,0.137065,-1.03598,0.0,0.866704,0.0357212,0.0584612,-0.494095,0.766373,0.0,1,0,0,0,0,0,0
642144384,0.00418607,0.137185,-1.03661,0.0,0.866545,0.0357683,0.0585021,-0.494367,0.766456,0.0,1,0,0,0,0,0,0
642164291,0.00409173,0.13728,-1.03661,0.0,0.866544,0.0357511,0.0585669,-0.494362,0.766467,0.0,1,0,0,0,0,0,0
642184301,0.00410198,0.137369,-1.03725,0.0,0.866382,0.0357963,0.0585916,-0.494638,0.766436,0.0,1,0,0,0,0,0,0
642204361,0.00401318,0.13745,-1.03725,0.0,0.866382,0.0357779,0.0586486,-0.494635,0.76644,0.0,1,0,0,0,0,0,0
642224407,0.00420069,0.137527,-1.0411,0.0,0.865422,0.0359908,0.0585662,-0.496306,0.766437,0.0,1,0,0,0,0,0,0
642244406,0.00392042,0.137599,-1.0379,0.0,0.866218,0.0357935,0.0587243,-0.494911,0.766491,0.0,1,0,0,0,0,0,0
642264418,0.00410967,0.137668,-1.04178,0.0,0.86525,0.0360063,0.0586374,-0.496595,0.766506,0.0,1,0,0,0,0,0,0
642284420,0.00385642,0.137738,-1.03856,0.0,0.866051,0.0358196,0.0587885,-0.495193,0.766602,0.0,1,0,0,0,0,0,0
642304465,0.00409662,0.137805,-1.04247,0.0,0.865075,0.036055,0.0586875,-0.496892,0.766828,0.0,1,0,0,0,0,0,0
642324456,0.00384712,0.137884,-1.03923,0.0,0.865881,0.0358713,0.0588419,-0.49548,0.767159,0.0,1,0,0,0,0,0,0
642364477,0.00385651,0.138053,-1.03991,0.0,0.865707,0.0359374,0.0589007,-0.495772,0.7681,0.0,1,0,0,0,0,0,0
642384487,0.00384845,0.138152,-1.03991,0.0,0.865704,0.0359583,0.0589454,-0.495771,0.76869,0.0,1,0,0,0,0,0,0
642404590,0.00388784,0.138252,-1.0406,0.0,0.865529,0.0360207,0.0589667,-0.49607,0.769293,0.0,1,0,0,0,0,0,0
642424613,0.00388307,0.138365,-1.0406,0.0,0.865526,0.0360465,0.0590165,-0.496068,0.769901,0.0,1,0,0,0,0,0,0
642444615,0.00417793,0.138478,-1.04461,0.0,0.86452,0.0363204,0.0589196,-0.49781,0.770498,0.0,1,0,0,0,0,0,0
642464640,0.0039411,0.138592,-1.04131,0.0,0.865343,0.0361488,0.0590879,-0.49637,0.771027,0.0,1,0,0,0,0,0,0
642484653,0.00428206,0.138704,-1.04535,0.0,0.864328,0.0364433,0.0589779,-0.498128,0.771528,0.0,1,0,0,0,0,0,0
642504742,0.00404122,0.138806,-1.04202,0.0,0.865157,0.0362663,0.0591427,-0.496678,0.771946,0.0,1,0,0,0,0,0,0
642524735,0.0043959,0.138911,-1.0461,0.0,0.864133,0.0365662,0.0590253,-0.498451,0.772339,0.0,1,0,0,0,0,0,0
642544765,0.00417047,0.139003,-1.04275,0.0,0.864969,0.0363926,0.0591826,-0.496993,0.772677,0.0,1,0,0,0,0,0,0
642564781,0.00451185,0.139089,-1.04686,0.0,0.863935,0.0366831,0.0590594,-0.498781,0.772946,0.0,1,0,0,0,0,0,0
642584999,0.00431063,0.139176,-1.04348,0.0,0.864777,0.036518,0.059209,-0.497314,0.773231,0.0,1,0,0,0,0,0,0
642604794,0.00466277,0.139249,-1.04764,0.0,0.863734,0.0368112,0.0590769,-0.499117,0.773457,0.0,1,0,0,0,0,0,0
642624830,0.00445363,0.139329,-1.04423,0.0,0.864583,0.0366401,0.0592259,-0.49764,0.773642,0.0,1,0,0,0,0,0,0
